index;gid;co_cnes;lat;long;no_fantasia;no_logradouro;nu_endereco;no_bairro;nu_telefone;co_cep;uf;cidade;ano_ubs_det;mes_ubs_det
12383;19191;2527510;-7.387397999999999;-38.772795438031004;ESF PALESTINA;RUA GABRIEL IZIDRO;S/N;DISTRITO PALESTINA D;35521960;63210000.0;CE;Mauriti;2016;5
12384;18911;2525860;-13.4650582643102;-39.4758435545882;UNIDADE DE SAUDE DA FAMILIA ADELIA ANDRADE ROCHA;POVOADO IPIRANGA I;S/N;IPIRANGA;;45416000.0;BA;Presidente Tancredo Neves;2016;5
12385;19114;2611503;-6.10008;-39.46691;PSF DE VILA ESPERANCA;VILA ESPERANCA;S/N;ESPERANCA;;63560000.0;CE;Acopiara;2016;5
12386;18910;3016218;-13.4708417736022;-39.4240598299107;UNIDADE DE SAUDE DA FAMILIA MARIA INOCENCIA DE JESUS;RUA SANTO ANDRE;S/N;NOVA ESPERANCA;;45416000.0;BA;Presidente Tancredo Neves;2016;5
12388;19435;2381192;-6.2123429186061;-38.4963439736539;CENTRO DE SAUDE BONITO;SITIO BONITO;S/N;ZONA RURAL;;59920000.0;RN;São Miguel;2016;5
12392;19528;3004708;-8.17064166069007;-36.1974191665639;PSF VIII FAZENDA NOVA;AV DOM PEDRO I;00;FAZENDA NOVA;(81)3747 1196;55170000.0;PE;Brejo da Madre de Deus;2016;5
12393;19312;2601486;-11.1078107357022;-42.02618122100711;POSTO DE SAUDE DE LARGA DOS MENDES;LARGA DOS MENDES;S/N;ZONA RURAL;;44940000.0;BA;Central;2016;5
12426;19562;7684460;-12.722965625743301;-44.5608177781105;UNIDADE DE SAUDE DA FAMILIA MAXIMINO CIRILO DA SILVA;COCOS;S/N;ZONA RURAL;77 36172200;47830000.0;BA;Baianópolis;2016;5
12429;19568;5005043;-7.17951178550699;-39.3286943435658;UBS HORTO II;TRAVESSA DOS POMBOS;S/N;HORTO;;63010750.0;CE;Juazeiro do Norte;2016;5
12430;19398;3006638;-6.335571703201151;-35.3170907892286;UBS BARROCAS;SITIO BARROCAS;S/N;ZONA RURAL;;59180000.0;RN;Espírito Santo;2016;5
12431;19328;2531569;-4.48549032211291;-45.073921680449104;UNIDADE BASICA DE SAUDE DO POVOADO SANTA TEREZA;POV SANTA TEREZA;1;SANTA TEREZA;(98)6441550;65715000.0;MA;Lago da Pedra;2016;5
12436;19214;2517221;-4.83392858315588;-40.319068513295896;UNIDADE DE SAUDE DA FAMILIA SEDE II;RUA CIRO OTAVIO;S/N;DISTRITO DE SUCESSO;(88)36171178;63750000.0;CE;Tamboril;2016;5
12440;19327;2456346;-5.51572680473312;-47.4758720397935;CENTRO DE SAUDE TRES PODERES;RUA SERGIPE ENTRE GONCALVES DIAS E RUI BARBOSA;31;TRES PODERES;99 3523-0303;65901550.0;MA;Imperatriz;2016;5
12443;19205;6454208;-7.5357464416067;-39.115331461482796;UBS JOSE FRANCISCO DOS SANTOS;VILA SIMAO;S/N;ZONA RURAL;;63270000.0;CE;Porteiras;2016;5
12444;19340;2463709;-1.65678977966304;-45.43792963027821;UNIDADE BASICA SAUDE DE CANARINHO;AV PRINCIPAL;S/N;POV CANARINHO;(98)3971109;65278000.0;MA;Turiaçu;2016;5
12446;19331;3523101;-2.48608589172356;-46.0115575790392;UNIDADE BASICA DE SAUDE DE VILA SAO PEDRO;VILA SAO PEDRO;S/N;POVOADO;(98)33251165;65283000.0;MA;Maranhãozinho;2016;5
12447;19449;2645017;-6.096907854080019;-39.7442007064808;PSF DE TRUSSU;DISTRITO DE TRUSSU;S/N;TRUSSU;0000000;63560000.0;CE;Acopiara;2016;5
12450;19320;3578801;-10.5740919358197;-38.6118696305729;PSF QUEIMADA GRANDE;POVOADO QUEIMADA GRANDE;S/N;CENTRO;75-3213-2177;48405000.0;BA;Banzaê;2016;5
12452;19323;2665654;-6.4512062072752;-37.098190784453294;UNIDADE DE SAUDE DA FAMILIA III VILA DO PRINCIPE;RUA PAULO DANTAS DE ARAUJO;S/N;VILA DO PRINCIPE;(84)34172982;59300000.0;RN;Caicó;2016;5
12455;19436;2008068;-9.502;-36.023;UNIDADE SAUDE DA FAMILIA PORANGABA;POVOADO PORANGABA;21;CENTRO;;57690000.0;AL;Atalaia;2016;5
12457;19332;3523950;-5.52246501943405;-43.201208282913;UNIDADE DE SAUDE DA FAMILIA DO POVOADO UNIAO;POVOADO UNIAO;S/N;ZONA RURAL;;65645000.0;MA;Matões;2016;5
12459;19458;2346893;-8.736142679742558;-36.62379801729279;POSTO DO RIACHO DO MEL US FAMILIA RIACHO DO MEL;POVOADO RIACHO DO MEL;S/N;CENTRO;(81)37961103;55365000.0;PE;Capoeiras;2016;5
12460;19459;2346907;-8.736142679742558;-36.62379801729279;UNIDADE DE SAUDE DA FAMILIA DO IMBE;SITIO IMBE;S/N;CENTRO;(81)37961103;55365000.0;PE;Capoeiras;2016;5
12462;19457;2703688;-8.75574946403478;-36.571297645567796;UNIDADE DE SAUDE DA FAMILIA DO OLHO DAGUA;SITIO OLHO DAGUA DOS POLVORAS;S/N;ZONA RURAL;(81)37961103;55365000.0;PE;Capoeiras;2016;5
12468;19548;2526166;-14.093152284621803;-41.2869000434863;UNIDADE SAUDE DA FAMILIA DE OURIVES;PRACA DA MATRIZ;S/N;ZONA RURAL;(77)9962-3589;46600000.0;BA;Tanhaçu;2016;5
12474;19209;2565471;-5.198404837425571;-39.2943542269635;UNIDADE BASICA DE SAUDE DA FAMILIA DE SAO MIGUEL;VILA DE SAO MIGUEL;S/N;AMANCIOS;8210547;63800000.0;CE;Quixeramobim;2016;5
12476;19316;3459985;-4.13685679435718;-44.1131758689868;CENTRO DE SAUDE ANTONIO MARQUES;RUA CASTELO BRANCO;S/N;VILA RICARDO MURAD;(99)36412006;65415000.0;MA;Coroatá;2016;5
12477;19311;3292924;-5.522754192352131;-37.00568675994771;USF BELA VISTA PIATO;SITIO BELA VISTA PIATO;S/N;ZONA RURAL;;59650000.0;RN;Açu;2016;5
12483;19337;2310058;-2.50314474105828;-44.2227816581713;CENTRO DE SAUDE DO TURU;AVENIDA 7;S/N;TURU;(98)2128461;65065760.0;MA;São Luís;2016;5
12486;19212;6491995;-4.33276534080493;-40.1454377174366;UBS FRANCISCA JURACI MARTINS PINTO FLORES;RUA PERNAMBUCO;S/N;FLORES;88 36282762;62280000.0;CE;Santa Quitéria;2016;5
12504;19208;2565366;-4.9637;-39.0117446758304;POSTO DE SAUDE LUIZ CRISPINO S J DOS QUEIROZ;VILA SAO JOAO DOS QUEIROZ;S/N;SAO JOAO DOS QUEIROZ;;63948000.0;CE;Quixadá;2016;5
12508;19201;2508192;-9.999253749847119;-42.4822211265552;CENTRO DE SAUDE DE PILAO ARCADO;AV JOAO RIBEIRO DO VALE;S/N;CENTRO;(74) 35342774;47240000.0;BA;Pilão Arcado;2016;5
12513;19350;5618878;-6.56073251736681;-36.5952519214664;UNID PSF III AMARO FLORENCIO DANTAS;SITIO CARNAUBA DE BAIXO;S/N;ZONA RURAL;;59374000.0;RN;Carnaúba dos Dantas;2016;5
12515;19295;2307480;-3.64773309047566;-44.37682833862311;CENTRO DE SAUDE CLOVES CHAVES;AV RIO BRANCO;S/N;CENTRO;98 34621235;65465000.0;MA;Cantanhede;2016;5
12520;19207;2565250;-5.58934375213112;-39.3753253308417;UNIDADE BASICA DE SAUDE DE BONFIM KM 20;DISTRITO DO BONFIM;S/N;BONFIM;;63600000.0;CE;Senador Pompeu;2016;5
12526;19293;2714310;-8.378487;-35.4507729209957;PSF DEMARCACAO;RUA TENENTE PEDRO CHAVES;S/N;DEMARCACAO;;55515000.0;PE;Amaraji;2016;5
12530;19220;6489656;-6.73956513404827;-39.8416614532459;PSF SITIO TIMBAUBA;SITIO TIMBAUBA;001;ZONA RURAL;;63145000.0;CE;Tarrafas;2016;5
12533;19218;2479265;-5.06327033042893;-40.29089927673221;UNIDADE DE SAUDE DA FAMILIA DE OLIVEIRAS;OLIVEIRA;S/N;OLIVEIRAS;;63750000.0;CE;Tamboril;2016;5
12537;19570;2426048;-7.21388697624186;-39.2329072952259;UBS GAVIAO E SABIA;SITIO SABIA;S/N;ZONA RURAL;;63010000.0;CE;Juazeiro do Norte;2016;5
12541;19434;2380544;-6.383228302001768;-38.389213085173395;POSTO DE SAUDE LAGOA DO MATO;SITIO LAGOA DO MATO;S/N;ZONA RURAL;;59940000.0;RN;Luís Gomes;2016;5
12544;19599;2003589;-10.381597280502;-36.5528655052174;POSTO DE SAUDE ADELMO FERREIRA DA SILVA;POVOADO PONTA MOFINA;S/N;PONTA MOFINA;;57200000.0;AL;Penedo;2016;5
12549;19343;2465612;-3.290512561798;-45.657999515532104;UNIDADE BASICA DE SAUDE DR LUIS HENRIQUE BRAGA POLARY;AV STANLEY FORTES BATISTA;S/N;VILA GUSMAO;;65365000.0;MA;Zé Doca;2016;5
12555;19204;2772051;-11.6122162342068;-40.137112140654395;UNIDADE DE SAUDE DA FAMILIA GASTAO PEDREIRA;AVENIDA JOSIAS DE SOUZA RIOS;S/N;CENTRO;(74) 36692154;44635000.0;BA;Várzea da Roça;2016;5
12556;19203;2480514;-4.59610462188707;-41.194760799406794;POSTO DE SAUDE DE CACHOEIRA GRANDE;SEDE DE CACHOEIRA GRANDE;S/N;CACH GRANDE;8281227;62220000.0;CE;Poranga;2016;5
12559;19326;5353629;-5.81854843133103;-46.142395635993395;UBS ALODI CAMARA LEDA MANGUEIRA;RUA LEAO FIGUEREDO;S/N;RODOVIARIO;;65940000.0;MA;Grajaú;2016;5
12564;19447;6769;-12.85926;-38.46265;USF ALTO DE COUTOS;TRAVESSA DOIS DE JULHO;S/N;ALTO DE COUTOS;(71) 3611-5903;40750380.0;BA;Salvador;2016;5
12565;19335;6192831;-6.17946624755841;-43.79135370254389;UNIDADE BASICA DE SAUDE AEROPORTO;AEROPORTO;33;AEROPORTO;;65680000.0;MA;Passagem Franca;2016;5
12568;19455;2346931;-8.6808836460111;-36.5108299255361;POSTO DO ALEGRE US F DO ALEGRE;ZONA RURAL;S/N;CENTRO;(81)37961103;55365000.0;PE;Capoeiras;2016;5
12575;19222;2433893;-8.49898695945715;-35.9269666671742;USF DE BARRA DO CHATA;VILA BARRA DO CHATA;S/N;ZONA RURAL;(81)37441122;55495000.0;PE;Agrestina;2016;5
12585;19415;6261655;-12.322946459029;-38.7636737165227;;;;;;;BA;Conceição do Jacuípe;2016;5
12586;19446;5766575;-11.550126110504902;-41.1590965077636;USF ALBA DE SOUZA LIMA;RUA DEOCLECIANO BARRETO;949;CENTRO;7436531178;44850000.0;BA;Morro do Chapéu;2016;5
12587;19352;2483343;-14.030028985632901;-42.1457118363755;UNIDADE DE SAUDE DA FAMILIA HELENITA ALVES DIAS;TRAVESSA 14 DE MAIO;02;CENTRO;7734771098;46425000.0;BA;Lagoa Real;2016;5
12590;19410;2380811;-6.1562327992920105;-37.8409607540419;UNIDADE BASICA DE SAUDE DE CANDEIA;SITIO CANDEIA;S/N;ZONA RURAL;33940317;59890000.0;RN;Frutuoso Gomes;2016;5
12591;19338;2458721;-2.62902617454521;-44.289364814757;CENTRO DE SAUDE MARACANA;AV ROS MOCHEL;S/N;MARACANA;(098) 3241-7604;65095000.0;MA;São Luís;2016;5
12594;19450;3017354;-14.800622463225901;-39.2833113670338;USF DR NILTON RAMOS;RUA NOSSA SENHORA DAS GRACAS;361;MANGABINHA;;45600390.0;BA;Itabuna;2016;5
12598;19569;2425947;-7.210766;-39.316993355614294;UBS ANTONIO VIEIRA I;RUA JOSE SABINO;540;PQ ANTONIO VIEIRA;;63041270.0;CE;Juazeiro do Norte;2016;5
12602;19336;3388980;-6.34613871574383;-47.3839902877794;UBS VILA SAO FRANCISCO;AV TIRADENTES;S/N;VILA SAO FRANCISCO;;65970000.0;MA;Porto Franco;2016;5
12606;19334;2311321;-2.54431128501885;-45.775566101072904;CENTRO DE SAUDE DONA ANTONIA FONTES CAMARA;AV PROF JOAO MORAES DE SOUSA;S/N;SEDE;(98)3741164;65272000.0;MA;Santa Luzia do Paruá;2016;5
12614;19432;2407612;-6.09705805778486;-37.7978610992421;UNIDADE BASICA DE SAUDE ISAIAS DOMINGOS DE QUEIROZ;SITIO TANQUINHOS;S/N;ZONA RURAL;(84)33960235;59805000.0;RN;Lucrécia;2016;5
12621;19325;2462672;-5.81854843133103;-46.142395635993395;PS DR LEONEL RODRIGUES BOGEA;BR 226;S/N;POV ALTO BRASIL;;65940000.0;MA;Grajaú;2016;5
12622;19445;3024881;-6.10409158278198;-35.9104491798599;UNIDADE BASICA DE SAUDE SERRA DA TAPUIA;DISTRITO SERRA DA TAPUIA;S/N;ZONA RURAL;(84) 3252-4076;59440000.0;RN;Sítio Novo;2016;5
12626;19418;3631079;-4.90996599197373;-37.2162723541249;POSTO DE SAUDE JOSE FIRMINO DE FRANCA;COMUNIDADE DE AREIAS ALVAS;S/N;ZONA RURAL;(84)3272418;59675000.0;RN;Grossos;2016;5
12627;19307;2454815;-4.12967920303333;-44.1210937499987;CENTRO DE SAUDE DE COROATA I FNS;TRAV JANSEN MATOS;599;CENTRO;;65415000.0;MA;Coroatá;2016;5
12640;19330;2459809;-4.64721679687487;-44.4791364669787;UNIDADE BASICA DE SAUDE MARIA JOSE DA SILVA GAMA;POVOADOSANTA MARIA DOS FERNANDES;S/N;ZONA RURAL;;65728000.0;MA;Lima Campos;2016;5
12642;19535;2404745;-10.387959480285302;-45.2533721923815;PS DA VEREDA DA PORTA;VEREDA DA PORTA;S/N;VEREDA DA PORTA;(89)35732976;64980000.0;PI;Corrente;2016;5
12643;19339;2696037;-2.91354427024476;-44.8563107299805;U B S DE JUCARAL PSFSB;POVOADO DE JUCARAL;S/N;JUCARAL;;65220000.0;MA;São Vicente Ferrer;2016;5
12646;19215;3816567;-6.682590314737362;-39.7584941948653;CENTRO MUNICIPAL DE SAUDE;RUA OSCAR CANDIDO;190;CENTRO;;63145000.0;CE;Tarrafas;2016;5
12647;19565;2552329;-6.03133272993446;-38.3472589620963;UNIDADE BASICA DE SAUDE ALICE PESSOA DE ANDRADE;VILA SAO JOAO;S/N;CENTRO;(88) 34341063;63470000.0;CE;Ererê;2016;5
12648;19296;2311127;-2.14384675025934;-46.1265063285814;CENTRO DE SAUDE ANE RAIMUNDA;AVENIDA JK;S/N;CENTRO;(98)33241011;65299000.0;MA;Centro Novo do Maranhão;2016;5
12656;19289;2310082;-3.6427617073058;-43.6010241508471;UBSF DO BATURITE;ASSENTAMENTO N S APARECIDA I;S/N;POVOADO BATURITE;;65500000.0;MA;Chapadinha;2016;5
12664;19321;2462737;-5.81854843133103;-46.142395635993395;CS SENADOR VITORINO FREIRE;RUA ANTONIO FRANCISCO DOS REIS;S/N;CENTRO;(98)05326723;65940000.0;MA;Grajaú;2016;5
12666;19317;5731267;-4.14200663566577;-44.0254354476916;CENTRO DE SAUDE SAO BENEDITO;POVOADO SAO BENEDITO;S/N;ZONA RURAL;;65415000.0;MA;Coroatá;2016;5
12669;19206;2565781;-4.9911510944365;-39.0204977989185;POSTO DE SAUDE JOAO FERREIRA PIRES CAMPO NOVO I E II;RUA DOS CRENTES;S/N;CAMPO NOVO;(88)3412 0490;63908155.0;CE;Quixadá;2016;5
12675;19451;3016684;-5.64332;-37.25605;POSTO DE SAUDE CANDIDO MARTINS;RUA ANTONIO VITORINO;S/N;BEIRA RIO;(84) 999317553;59670000.0;RN;Upanema;2016;5
12677;19211;2373203;-4.222958150200991;-38.7295707505904;CENTRO DE SAUDE DE REDENCAO;RUA SANTOS DUMONT;00586;CENTRO;33321432;62790000.0;CE;Redenção;2016;5
12678;19219;3432939;-6.76579713821392;-39.7136878967274;POSTO DE SAUDE NOBILICIO VILA NOVA ALENCAR;DISTRITO DE VILA NOVA;S/N;CENTRO;;63145000.0;CE;Tarrafas;2016;5
12682;19221;5224918;-3.61082196235646;-39.5681190490711;UNIDADE BASICA DE SAUDE RETIRO;DISTRITO DO RETIRO;S/N;RETIRO;85 33531379;62650000.0;CE;Uruburetama;2016;5
12690;19341;2463571;-1.66505906782275;-45.3884794921875;UNIDADE BASICA DE SAUDE DE FORTALEZA;AV PRINCIPAL;S/N;POV FORTALEZA;;65278000.0;MA;Turiaçu;2016;5
12701;19333;2464748;-3.6216259002684494;-44.55651283264029;CENTRO DE SAUDE JOSE ARAUJO;AV DR ANTONIO SAMPAIO;S/N;CENTRO;(98)4551051;65468000.0;MA;Matões do Norte;2016;5
12702;19329;2458829;-3.9549449715672;-44.817193481445294;CENTRO DE SAUDE DR FRANCISCO ALMEIDA GUIMARAES;AV KENNEDY;1002;CENTRO;(99) 6351122;65705000.0;MA;Lago Verde;2016;5
12714;19402;5967961;-5.63005328178389;-35.2232408523549;ESF PITANGUI II;RUA ZEFERINA LOPES;03;PITANGUI;(84) 3279 4916;59575000.0;RN;Extremoz;2016;5
12721;19297;2644096;-3.73500823974599;-43.3551406860339;UBSF DO BAIRRO DA CRUZ;RUA DO OESTE;48;CRUZ;( );65500000.0;MA;Chapadinha;2016;5
12729;19313;2386690;-13.474581241607304;-38.9206123352039;PS DE GARAPUA;RUA DA PRAIA;S/N;GARAPUA;(75) 36532151;45420000.0;BA;Cairu;2016;5
12730;19210;2565455;-5.14962673187241;-39.178683757780796;UNIDADE BASICA DE SAUDE ANANELIA F DA SILVA;VILA DE URUQUE;S/N;ZONA RURAL;8210587;63800000.0;CE;Quixeramobim;2016;5
12734;19217;2479222;-4.83392858315588;-40.319068513295896;UNIDADE DE SAUDE DA FAMILIA DE HOLANDA;HOLANDA;S/N;HOLANDA;;63750000.0;CE;Tamboril;2016;5
12744;19834;2660016;-12.6015538384449;-39.0340236148013;POSTO DE SAUDE DA FAMILIA QUIXABEIRA;PRACA JONIVAL LUCAS;S/N;QUIXABEIRA;7536382081;44350000.0;BA;Governador Mangabeira;2016;5
12747;19765;7725191;-5.32097232509135;-41.55565738677979;UBS ANTONIO LIMA MARTINS ANTONIO MAIA;RUA BENJAMIN CONSTANT;S/N;CENTRO;;64340000.0;PI;Castelo do Piauí;2016;5
12751;19751;2481588;-4.0932118892668505;-38.5005998611439;UNIDADE BASICA DE SAUDE ZACARIAS M DE A RAFAEL SANTOS;RUA LUCIANO CARNEIRO;26;RAFAEL SANTOS;(85)3366054;62880246.0;CE;Horizonte;2016;5
12753;19947;2004844;-9.7566349;-36.6674494;USF CANAA;POVOADO CANAA;S/N;POVOADO CANAA;(82)05221613;57306470.0;AL;Arapiraca;2016;5
12758;19813;2635674;-7.47402518326653;-37.2750721852438;PSF BAIRRO SAO JOAO;RUA PROJETADA;320;SAO JOAO;;56700000.0;PE;São José do Egito;2016;5
12759;19949;6347525;-6.3473081588743305;-38.298726081847;POSTO DE SAUDE DA BAIXA DO FOGO;SITIO BAIXA DO FOGO;S/N;ZONA RURAL;;59980000.0;RN;José da Penha;2016;5
12762;19924;7873212;-3.01709833471298;-43.8534736633301;UNIDADE BASICA DE SAUDE DE MATO GROSSO;AV PRINCIPAL;S/N;CENTRO;;65160000.0;MA;Morros;2016;5
12765;19945;6486312;-12.0746827125546;-41.4479613304126;UNIDADE DE PACS DE VARZEA DO CERCO;POVOADO DE VARZEA DO CERCO;S/N;POVOADO;7436431076;44885000.0;BA;Mulungu do Morro;2016;5
12771;19684;2493403;-12.512724642984901;-38.495309845373995;USF MERCIA COSTA ANDRADE;CAMINHO 5;27;URBIS III;7136553385;43850000.0;BA;São Sebastião do Passé;2016;5
12774;19778;3686000;-5.1073629545917685;-36.3181443773969;UNIDADE BASICA DE BAIXA DO MEIO ESF III E IV;RUA RIO GRANDE DO NORTE;S/N;BAIXA DO MEIO;(84)5256199;59598000.0;RN;Guamaré;2016;5
12776;19878;2630532;-8.504651784896598;-36.7396545410146;USF DR ORISVALDO INACIO DA SILVA;SITIO CAMPO DO MAGE;S/N;ZONA RURAL;;55260000.0;PE;Alagoinha;2016;5
12781;19963;7821360;-12.5311228;-38.30124710000001;UNIDADE DE SAUDE DA FAMILIA JOSE ANTONIO DOS SANTOS;AVENIDA DO BOM JESUS;1;CABORE;;48280000.0;BA;Mata de São João;2016;5
12785;19656;7001177;-3.39452862739553;-42.2065544128406;UBSF JOANA TOTE;SEDE;S/N;CENTRO;;65560000.0;MA;Magalhães de Almeida;2016;5
12794;19732;6804764;-3.5013449192046098;-39.5844268798817;UNIDADE BASICA DE SAUDE CENTRO;RUA HIDELBERTO BARROSO;S/N;CENTRO;88 36314406;62500037.0;CE;Itapipoca;2016;5
12808;19916;3360407;-13.9803600311275;-43.3447337150561;UNIDADE BASICA DE SAUDE FIDELCINA CARDOSO MAGALHAES;POVOADO DE ESPRAIADO;S/N;ZONA RURAL;(77)6622142;46460000.0;BA;Palmas de Monte Alto;2016;5
12810;19922;2364530;-4.49099116259321;-42.0721220970154;PS RAIMUNDO OLIVEIRA MACHADO;POVOADO OLHO DAGUA;S/N;ZONA RURAL;;64283000.0;PI;Boqueirão do Piauí;2016;5
12827;19654;2003848;-10.273386240005198;-36.56003236770521;USF GABRIEL 04;RUA JOAO RAMALHO;S/N;SANTA LUZIA;;57200000.0;AL;Penedo;2016;5
12828;19941;2313529;-6.77420854568462;-38.2318210601795;ESF V SORRILANDIA II;RUA HEROTILDE SERAFIM DOS SANTOS;412;JARDIM SORRILANDIA;;58800170.0;PB;Sousa;2016;5
12830;19966;2552043;-5.13587938313253;-37.951457798481;POSTO DE SAUDE DE TOME;TOME;S/N;TOME;(88)4431140;62920000.0;CE;Quixeré;2016;5
12842;19770;2426935;-4.525015354156361;-39.0056705474842;POSTO DE SAUDE DE PALMATORIA;RUA SAO FELIX;S/N;PALMATORIA;;62740000.0;CE;Itapiúna;2016;5
12843;19985;2601656;-13.4744677;-40.216556;UNIDADE DE SAUDE DA FAMILIA DR ELIEZER MENDES;PRC MATEUS NUNES;S/N;PEIXE;(73) 35561127;45365000.0;BA;Lajedo do Tabocal;2016;5
12856;19918;2610469;-6.6436;-38.69977;POSTO DE SAUDE HERMENEGILDA PAULINO DE SOUSA;RUA MANOEL ALVES;00366;CENTRO;5781161;63310000.0;CE;Umari;2016;5
12863;19651;2592991;-6.78318858146648;-35.8165454864492;POSTO DE SAUDE DE CASSERENGUE;RUA DURVAL DA COSTA LIRA;609;CENTRO;(83) 6341104;58238000.0;PB;Casserengue;2016;5
12880;19870;2455676;-4.8754513263701;-44.8820471763598;CENTRO DE SAUDE DR EDVILSON AMORIM BRUCE;RUA GENESIO CARVALHO;1029;CENTRO;9936451450;65750000.0;MA;Esperantinópolis;2016;5
12883;19731;7435681;-10.85779;-40.1335;UNIDADE DE SAUDE DA FAMILIA DE MAMOTA;FAZENDA MAMOTA;S/N;ZONA RURAL;7436771140;44755000.0;BA;Ponto Novo;2016;5
12889;19800;5377455;-11.805979025923701;-39.3830354938567;UNIDADE DE SAUDE DA FAMILIA DE RANCHINHO;RUA ANTONIO CORDEIRO DE ALMEIDA;S/N;RANCHINHO;(75) 3264-2744;44640000.0;BA;Riachão do Jacuípe;2016;5
12894;19987;5599296;-9.0153604823547;-42.6922851641907;PS JOSE PALMEIRA SOBRINHO;ZONA RURAL;S/N;LOC FIRMEZA;08935821806;64770000.0;PI;São Raimundo Nonato;2016;5
12900;19685;2610701;-6.28989815711957;-40.583066940306395;POSTO DE SAUDE DE MIRANDA;DISTRITO DE MIRANDA;S/N;MIRANDA;8181044;63680000.0;CE;Parambu;2016;5
12909;19704;2010283;-9.781;-36.094;UNIDADE BASICA DE SAUDE DONA MARIA DA ROCHA LIMA;POVOADO COITE;S/N;POVOADO COITE;(82)32712002;57240990.0;AL;São Miguel dos Campos;2016;5
12916;19790;5091241;-15.294208064906002;-39.0747128879619;UNIDADE DE SAUDE DA FAMILIA DO SUCUPIRA;RUA SAO PEDRO;S/N;SUCUPIRA;73-32361136;45690000.0;BA;Una;2016;5
12917;19707;7617895;-2.40046;-44.41027;UNIDADE BASICA DE SAUDE DO MANGUEIRAL;MA 106;100;MANGUEIRAL;;65250000.0;MA;Alcântara;2016;5
12920;19730;2388340;-11.376353502273199;-40.0010061264026;CENTRO DE SAUDE MANOEL AMANCIO DE ARAUJO;RUA FLAMBOIANTY;S/N;PLANALTINO;74 3651-1338;44695000.0;BA;Capim Grosso;2016;5
12921;19617;2615;-10.95431;-37.05882;US MINISTRO COSTA CAVALVANTE INACIO BARBOSA;AV TRANCREDO NEVES;S/N;INACIO BARBOSA;3179-1443;49040490.0;SE;Aracaju;2016;5
12926;19983;3047113;-9.752;-36.661;USF POCAO ARAPIRACA;SITIO POCAO;S/N;SITIO POCAO;(82)5221613;57319300.0;AL;Arapiraca;2016;5
12930;19911;2531534;-4.806760279408071;-45.1699340343475;UNIDADE BASICA DE SAUDE DO POVOADO LAGOA SECA;POVOADO LAGO DA PEDRA;1;LAGOA SECA;(98)96441550;65715000.0;MA;Lago da Pedra;2016;5
12934;19716;4032381;-12.492570877074805;-41.8909764289844;POSTO DE SAUDE DO ALAGADICO;POVOADO DE ALAGADICO;S/N;ZONA RURAL;7533312211;46900000.0;BA;Seabra;2016;5
12935;19655;2003627;-10.285381078719801;-36.5552902221669;USF DR LUIZ MACHADO LOBO;RUA ITAPORANGA;S/N;D CONSTANTINO;;57200000.0;AL;Penedo;2016;5
12936;19742;7373996;-11.6;-38.6;PSF SEDE II;CENTRO;01;CENTRO;;48485000.0;BA;Sátiro Dias;2016;5
12938;19725;3032159;-10.1275706291196;-36.1760258674611;USF CENTRO;RUA LINDOLFO SIMOES;S/N;CENTRO ZONA URBANA;(82)2731218;57230000.0;AL;Coruripe;2016;5
12940;19638;3056635;-11.451088096880099;-38.101615905761705;USF JOAO BISPO DOS SANTOS;POV UMBAUBA;S/N;ZONA RURAL;75 34432182 RAMAL 30;48480000.0;BA;Crisópolis;2016;5
12942;19807;2401355;-10.5058180636519;-39.0142487251363;UNIDADE DE SAUDE DA FAMILIA DE RUILANDIA;POVOADO DE RUILANDIA;S/N;POVOADO DE RUILANDIA;75-3271-1803;48500000.0;BA;Euclides da Cunha;2016;5
12946;19910;5050332;-11.864722748623901;-40.4714981500981;UNIDADE DE SAUDE DA FAMILIA DE NOVO HORIZONTE;AV NUMA ALVES BARRETO;97;CONJ HAB PAULO GER;74 3626 2464;44800000.0;BA;Mundo Novo;2016;5
12950;19810;2630613;-7.940860000000002;-35.91231;USF III NOVA ESPERANCA;POVOADO DE CAPIVARA;S/N;ZONA RURAL;;55780000.0;PE;Frei Miguelinho;2016;5
12951;19746;2698013;-2.54147887229912;-44.21555042266721;CENTRO DE SAUDE GENESIO RAMOS FILHO;RUA 13;S/N;COHAB ANIL;;65050000.0;MA;São Luís;2016;5
12953;19604;6389023;-12.8311192989346;-38.475751876829904;USF ESTRADA DA COCISA;TRAVESSA MONTES CLAROS;S/N;PARIPE;36116829;40810620.0;BA;Salvador;2016;5
12960;19610;6117309;-4.08320188522327;-38.7924456596363;UBS MARIA EUZIR PONTES GADELHA;RUA JOSE DE DUDA PONTES;00;TANQUES;8533697009;61976000.0;CE;Maranguape;2016;5
12962;19859;4561;-12.970999999999998;-38.511;USF IVONE SILVEIRA CALABAR;RUA MARIA PINHO;S/N;CALABAR;(71)3339-7268;40140000.0;BA;Salvador;2016;5
12965;19805;7352344;-2.0;-44.536;UBS NOSSA SENHORA DA CONCEICAO;CEDRAL;S/N;CENTRO;98;65260000.0;MA;Cedral;2016;5
12969;19948;7581882;-9.75153;-36.65678;UBS JOAO PAULO II;RUA ENGENHEIRO CAMILO COLLIER;3;JOAO PAULO II;;57316602.0;AL;Arapiraca;2016;5
12970;19992;2601818;-14.0672690808107;-39.6409188889228;UNIDADE DE SAUDE DA FAMILIA ILTON LOPES LEAL;AVENIDA ILTON LOPES LEAL;1;CENTRO;(73)35372125;45580000.0;BA;Ibirataia;2016;5
12972;19808;6507867;-3.22883053425389;-40.1241788929331;ESF SAO JOSE;SAO JOSE;S/N;SAO JOSE;;62550000.0;CE;Morrinhos;2016;5
12975;19946;3020010;-11.7552498736675;-39.188716305461895;UNIDADE DE SAUDE DA FAMILIA RITA MEIRE LIMA DA MOTA;POVOADO DE BARRA;S/N;RURAL;(75) 6842150;48725000.0;BA;Ichu;2016;5
12976;19741;2008165;-9.563;-35.824;UNIDADE DE SAUDE DA FAMILIA IV PRIMAVERA;FAZENDA PRIMAVERA;01;PRIMAVERA;(82)2661148;57120000.0;AL;Satuba;2016;5
12987;19857;4359;-13.0018365383144;-38.475065231322105;UBS OSVALDO CALDAS CAMPOS SANTA CRUZ;RUA DISNEYLANDIA;S/N;SANTA CRUZ;(71) 3611-3541;41925300.0;BA;Salvador;2016;5
12988;19951;4028287;-11.763535737990999;-38.9374566078175;POSTO DE SAUDE QUINJI;POVOADO DE QUINJI;S/N;ZONA RURAL;(75)36882113;48720000.0;BA;Lamarão;2016;5
12989;19876;6614523;-4.10600066184986;-38.5075306892384;UNIDADE BASICA DE SAUDE DE BUENOS AIRES I;RUA ANTONIO DE ANDRADE;45;BUENOS AIRES I;(85)33366050;62886095.0;CE;Horizonte;2016;5
12992;19687;2724758;-4.939737815364019;-37.975431296901;UNIDADE BASICA DE SAUDE INGA;SITIO INGA;S/N;ZONA RURAL;;62900000.0;CE;Russas;2016;5
13004;19835;2372258;-3.916314840316661;-38.6223506927479;UBS LUIZA TARGINO DA SILVA;RUA JAIME VASCONCELOS;S/N;OLHO DAGUA;(85)3392-8296;61908020.0;CE;Maracanaú;2016;5
13010;19999;5112222;-9.0153604823547;-42.6922851641907;CENTRO DE SAUDE UNIDADE BASICA SAUDE NOVO ZABELE;LOC NOVO ZABELE;S/N;LOC NOVO ZABELE;08935821806;64770000.0;PI;São Raimundo Nonato;2016;5
13016;19865;6297145;-4.11751270294177;-44.111137390135404;CENTRO DE SAUDE PALMEIRA TORTA;RUA FORTALEZA;S/N;PALMEIRA TORTA;;65415000.0;MA;Coroatá;2016;5
13020;19954;2722542;-9.56836223602267;-37.1285104751576;UNIDADE SAUDE DA FAMILIA SAO JOAO;RUA JOAQUIM MONTEIRO;S/N;ZONA RURAL;(82)34241612;57580000.0;AL;Major Isidoro;2016;5
13021;19904;2322064;-6.455047130584531;-38.5529565811146;UNIDADE BASICA DE SAUDE NOSSA SENHORA DOS MILAGRES;RUA NOSSA SENHORA DOS MILAGRES;S/N;CENTRO;93139299;58922000.0;PB;Bernardino Batista;2016;5
13024;19608;2009293;-9.53196244231297;-36.436741595943104;UNIDADE DE SAUDE DA FAMILIA VILA APARECIDA;POVOADO VILA APARECIDA;S/N;ZONA RURAL;;57635000.0;AL;Tanque d'Arca;2016;5
13025;19711;7758286;-8.33529567718506;-36.420036315918004;UBS TEREZA MENDONCA MANINHO JACO;AV TEREZA MEDONCA;01;TEREZA MENDONCA;81 34111600;55150005.0;PE;Belo Jardim;2016;5
13026;19997;2457695;-4.792764186858991;-44.589514732359504;UNIDADE BASICA DE SAUDE DA FAMILIA ALTO DE AREIA;POVOADO ALTO DA AREIA;02;ALTO DA AREIA;(99) 6421732;65725000.0;MA;Pedreiras;2016;5
13027;19881;24511;-8.04345;-34.94791;US 254 PSF BRASILIT;RUA EMILIANO BRAGA;S/N;VARZEA;(81) 33556410;50740040.0;PE;Recife;2016;5
13028;19804;2509520;-10.8375620841977;-38.54244232177621;CENTRO DE SAUDE DE RIBEIRA DO POMBAL;RUA JOAO XXIII;S/N;CENTRO;(75)32761921;48400000.0;BA;Ribeira do Pombal;2016;5
13031;19666;2322285;-7.89323687553383;-37.121279239653504;USF 04 JOAO BATISTA DA SILVA BRITO;VILA SANTA MARIA;S/N;VILA SANTA MARIA;(83) 3351 1812;58500000.0;PB;Monteiro;2016;5
13033;19959;4026780;-12.243501016417598;-41.6179588573911;UNIDADE DE SAUDE DA FAMILIA FELIX SOUZA NETO;POVOADO DE AGUA DE REGA;11;ZONA RURAL;7533642128;46980000.0;BA;Iraquara;2016;5
13034;19622;2420422;-11.3680522747437;-37.8453707752723;UNIDADE BASICA DE SAUDE PEDRO GOIS;POVOADO LOPES;S/N;ZONA RURAL;(79)37516000;49280000.0;SE;Tomar do Geru;2016;5
13039;20193;5539080;-6.23102903366071;-42.700831890105;POSTO DE SAUDE SAO VICENTE;RUA PAULO CESAR DE MORAIS;S/N;SAO VICENTE;8632931465;64490000.0;PI;Regeneração;2016;5
13042;20177;2368455;-5.89326633794508;-42.6351308599585;POSTO DE SAUDE OTACIANA MARIA DO NASCIMENTO;RUA MERCEDES RUBINS;S/N;CENTRO;( )2801540;64460000.0;PI;Água Branca;2016;5
13043;20173;2638142;-8.12861;-35.29794000000001;U S F LOTEAMENTO CONCEICAO I;RUA PROJETADA;100;LOT CONCEICAO;(81)35261857;55602050.0;PE;Vitória de Santo Antão;2016;5
13044;20346;2798123;-5.7895555402052805;-35.331156093085205;UNIDADE BASICA DE SAUDE DA FAMILIA DE IGREJA NOVA;POVOADO DE IGREJA NOVA;S/N;IGREJA NOVA;;59299400.0;RN;São Gonçalo do Amarante;2016;5
13045;20085;2636972;-7.667180299758692;-35.172343254088304;PSF SIZINO FERREIRA LIMA;RUA CEL LUIZ INACIO;S/N;DIST UPATININGA;;55890000.0;PE;Aliança;2016;5
13053;20133;2608448;-7.29502691351019;-35.6176892168186;USF VI PONTINA;DISTRITO DE PONTINA;S/N;ZONA RURAL;(83)3941058;58380000.0;PB;Ingá;2016;5
13059;20337;2380838;-6.1562327992920105;-37.8409607540419;CENTRO DE SAUDE MUNICIPAL VEREADOR JOSE ARAUJO CARLOS;RU JOSE CAMPOS;57;CENTRO;(84)33940317;59890000.0;RN;Frutuoso Gomes;2016;5
13062;20088;2478536;-3.18302035331717;-40.4518532752979;UNIDADE BASICA DE SAUDE DE SERROTA;SERROTA;S/N;SERROTA;0000000;62470000.0;CE;Senador Sá;2016;5
13065;20020;5452260;-6.38229489326458;-46.75914287567;POSTO DE SAUDE PROJETO SAO PEDRO;PROJETO SAO PEDRO;S/N;POVOADO;;65973000.0;MA;São João do Paraíso;2016;5
13069;20154;5927366;-9.323412179946633;-40.6169915199268;UBS SIMAO PEDRO COELHO;TRAVESSA DA RUA B;S/N;PROJETO SENADOR NILO;(87) 3986-7103;56304020.0;PE;Petrolina;2016;5
13070;20079;2321491;-7.222999999999981;-37.257089904785204;CENTRO DE SAUDE DE TEIXEIRA;RUA JOSE DUARTE DANTAS;S/N;CENTRO;(83)4722183;58735000.0;PB;Teixeira;2016;5
13071;20201;2785943;-8.34884968799341;-42.2564375329406;AMBULATORIO MUN SIMPLICIO FERREIRA DE CARVALHO;BR 020;S/N;PICARRA;(89)3483 2694;64760000.0;PI;São João do Piauí;2016;5
13072;20175;2638258;-8.117559;-35.2800761;U S F REDENCAO;RUA F;043;REDENCAO;(81)35236914;55612060.0;PE;Vitória de Santo Antão;2016;5
13078;20165;3562638;-8.1117;-34.94653;US 315 PSF UR 3;AV ENGENHO BABILONIA;168;COHAB;(81) 33556451;51270080.0;PE;Recife;2016;5
13079;20065;2591693;-6.626618238174928;-35.442828338623;UNIDADE DE SAUDE DA FAMILIA PSF I AGRIPINO DA COSTA FRAZAO;RUA CLAUDIONOR PEREIRA DOS SANTOS;S/N;CONJUNTO;(83)33701327;58254000.0;PB;Logradouro;2016;5
13082;20187;2365928;-5.989394187927071;-42.5566577911365;CS DR HELVIDIO NUNES;AVENIDA PETRONIO PORTELA;33;CENTRO;(86)32991121;64470000.0;PI;Hugo Napoleão;2016;5
13090;20052;3446069;-7.17935719222299;-34.8303360586166;USF INTEGRADA CIDADE VERDE;RUA LEOPOLDO PEREIRA DE LIMA;S/N;MANGABEIRA VIII;32381169;58059400.0;PB;João Pessoa;2016;5
13093;20105;2719584;-9.44771;-36.38899;CENTRO DE SAUDE DR HUMBERTO GOMES DE MELO;RUA PROFESSOR JOSE FARIAS DA COSTA;S/N;CENTRO;(82) 32045119;57730000.0;AL;Mar Vermelho;2016;5
13095;20163;2011;-8.0242574214933;-34.9284982681264;US 171 CS JOAQUIM COSTA CARVALHO;RUA SIRIJI;S/N;ALTO DO MANDU;(81) 3355-4412/4413;52130110.0;PE;Recife;2016;5
13096;20192;2404710;-10.440936038123699;-45.16331252357671;PS DO MORRO DO PEQUIPSF;MORRO DO PEQUI;S/N;MORRO DO PEQUI;(89)35732976;64980000.0;PI;Corrente;2016;5
13097;20162;2721694;-9.82698885476657;-37.2784386581653;UNIDADE DE SAUDE DA FAMILIA OLHO DAGUA NOVO;POVOADO OLHO DAGUA NOVO;S/N;ZONA RURAL;(82)5326010;57435000.0;AL;Belo Monte;2016;5
13100;20180;2367610;-9.07094898367372;-44.3605250848238;UBS DR RAIMUNDO SANTOS;RUA DEODORO DA FONSECA;S/N;SAO PEDRO;;64900000.0;PI;Bom Jesus;2016;5
13104;20166;2630761;-8.36539100520996;-36.572928428649895;UBS BARRIGUDA;SITIO BARRIGUDA;01;BARRIGUDA;(87)38361192;55250000.0;PE;Sanharó;2016;5
13109;20073;2592096;-6.59507;-37.62171;ESF I YAIA QUEIROGA;RUA CANDIDO DE ASSIS QUEIROGA;S/N;CENTRO;(83)4451028;58860000.0;PB;Paulista;2016;5
13110;20093;3627667;-11.5000784397122;-37.4016666412343;POSTO DE SAUDE DE COQUEIRO;RUA DA MARE;S/N;POVOADO;;48310000.0;BA;Jandaíra;2016;5
13112;20167;2352354;-7.831813426230989;-35.8852433390024;USF I CARAMURU;POVOADO DO CARAMURU;S/N;CENTRO;81-37571130;55765000.0;PE;Santa Maria do Cambucá;2016;5
13120;20204;2443937;-5.09846091270432;-42.7216243743884;UNIDADE BASICA DE SAUDE DR HELVIDIO FERRAZ TODOS OS SANTOS;AV PROFESSOR CAMILO FILHO;6133;TODOS OS SANTOS;(86)2159207;64089040.0;PI;Teresina;2016;5
13123;20191;2366606;-6.1828136444089985;-42.4728655815112;PS DE PITOMBEIRA;PITOMBEIRA;S/N;PITOMBEIRA;;64495000.0;PI;Jardim do Mulato;2016;5
13124;20078;2321238;-6.77532434463481;-36.799221038817294;UNIDADE DE SAUDE DA FAMILIA I REDINHA;JOSEFA ZELIA DE MORAIS;S/N;CENTRO;34671028;58610000.0;PB;São José do Sabugi;2016;5
13125;20171;2355752;-7.6100170612333;-35.278880596159894;PSF TRIGUEIROS;R 15 DE NOVEMBRO;S/N;POV TRIGUEIROS;(81)36012105;55850000.0;PE;Vicência;2016;5
13127;20014;2511053;-11.2112152576443;-39.2414689064015;UNIDADE SAUDE DA FAMILIA DE VARZEA DA PEDRA;DISTRITO DE VARZEA DA PEDRA;S/N;ZONA RURAL;(75)32652099;48880000.0;BA;Santaluz;2016;5
13131;20114;2405172;-7.20040082931498;-43.829891681669906;POSTO DE SAUDE DO CURRAL NOVO;POVOADO CURRAL NOVO;S/N;ZONA RURAL;(89)35421135;64850000.0;PI;Landri Sales;2016;5
13132;20089;2404389;-4.71639633178697;-41.22967243194461;PS LAPA;LOCALIDADE LAPA;S/N;ZONA RURAL;;64255000.0;PI;Pedro II;2016;5
13134;20190;2366614;-6.09583497047407;-42.6356220245349;PS DE MANOEL SOARES DA SILVA PSF;AVENIDA JAIMES SOARES;S/N;CENTRO;8632911153;64495000.0;PI;Jardim do Mulato;2016;5
13137;20041;2321181;-7.12520978356176;-37.6107199033242;USF INACIO LUIZ MOTA;RUA INACIO FELIX DE OLIVEIRA;S/N;CENTRO;8334271227;58715000.0;PB;Catingueira;2016;5
13147;20169;2635674;-7.47402518326653;-37.2750721852438;PSF BAIRRO SAO JOAO;RUA PROJETADA;320;SAO JOAO;;56700000.0;PE;São José do Egito;2016;5
13151;20155;2429667;-9.397375515;-40.4999993346522;UBS MIGUEL DE LIMA DURANDO;RUA 24;80;LOTEAMENTO RECIFE;(87) 3864-4168;56320720.0;PE;Petrolina;2016;5
13152;20071;2603543;-6.88239497640079;-35.5404681978226;UNIDADE SAUDE DA FAMILIA I PILOESINHO;RUA MANOEL ALVES DE SOUZA;S/N;CENTRO;(83)2713293;58210000.0;PB;Pilõezinhos;2016;5
13157;20116;2345625;-8.079725503921267;-36.0423016548146;UBS LAJES;POVOADO DE LAJES;S/N;POVOADO DE LAJES;(81)37122930;55008000.0;PE;Caruaru;2016;5
13161;20047;3063712;-7.19922;-34.84172;USF INTEGRADA IPIRANGA;RUA SAO LUIZ;S/N;PLANALTO DA BOA ESPE;986458774;58065021.0;PB;João Pessoa;2016;5
13162;20341;5543959;-6.770151752899539;-36.736851641873606;UNIDADE SAUDE DA FAMILIA DE SANTANA DO SERIDO;RUA JOSE CICERO DE MORAIS;S/N;CENTRO;;59350000.0;RN;Santana do Seridó;2016;5
13169;20197;2368773;-4.3240964412688;-42.6016974449145;PSF FRANCISCO MAIARINO MAIA;ANGELIM;S/N;ZONA RURAL;(86)32441165;64130000.0;PI;Miguel Alves;2016;5
13172;20053;3576566;-2.6536810398101003;-44.2926263809191;CENTRO DE SAUDE MARIA DE LOURDES RODRIGUES;RUA BOM JARDIM;385;RIO GRANDE;(098) 3241-7843;65010000.0;MA;São Luís;2016;5
13174;20172;2638134;-8.12861;-35.29794000000001;U S F GALILEIA;SITIO GALILEIA;01;ZONA RURAL;(81)35234050;55602050.0;PE;Vitória de Santo Antão;2016;5
13176;20288;2714760;-7.932883704621902;-38.974282604268296;UNIDADE DE SAUDE DA FAMILIA DE LAGOA;POVOADO DE LAGOA;S/N;ZONA RURAL;(87)39420303;56120000.0;PE;Verdejante;2016;5
13183;20043;2342162;-7.094163894653112;-34.8569798469533;USF SALINAS RIBAMAR;SAO PEDRO;S/N;SALINAS RIBAMAR;(83)2286421;58109482.0;PB;Cabedelo;2016;5
13184;20338;2374609;-6.067876624108219;-35.3320992692543;UBS SOBRADO;RUA PRINCIPAL DO SITIO SOBRADO;S/N;ZONA RURAL;(84) 3276 8063;59182000.0;RN;Monte Alegre;2016;5
13186;20076;2537036;-7.66755580902077;-36.878464221953294;UBSF DR NILO FEITOSA ESF 1;RUA VICENTE PRETO;S/N;ALTO ALEGRE;(83)353 2647;58540000.0;PB;Sumé;2016;5
13189;20049;2605953;-7.408069999999999;-36.02442;UBSF MANOEL BARBOSA DE SOUSA NETO;RUA JOAO QUEIROGA;02;CENTRO;(83)33451076;58455000.0;PB;Caturité;2016;5
13193;20096;2345854;-8.285898;-35.967073360053504;UBS MORRO CENTENARIO;RUA DA SE;45;CENTENARIO;(81)37212268;55008470.0;PE;Caruaru;2016;5
13198;20342;2453878;-4.866825342178201;-43.347587585448;UBS NOVA CAXIAS;LARGO RAIMUNDO SANTOS;320;NOVA CAXIAS;(98)5213223;65604250.0;MA;Caxias;2016;5
13199;20128;2533332;-10.257993;-40.1945298;USF MARINALVA DE SOUZA FERNANDES;POVOADO DE SANTA ROSA DE LIMA;S/N;ZONA RURAL;( );48960000.0;BA;Jaguarari;2016;5
13200;20332;3207056;-5.584670305251911;-35.4838871955861;UBS MATAS;POVOADO DE MATAS;S/N;ZONA RURAL;;59570000.0;RN;Ceará-Mirim;2016;5
13201;20178;3164233;-8.12861;-35.29794000000001;U S F PIRITUBA;RUA NUNES MACHADO;100;ZONA RURAL;(81)35574090 ORELHAO;55606530.0;PE;Vitória de Santo Antão;2016;5
13202;20152;2631830;-8.91917;-36.65524;PSF DO AZEVEM;POVOADO DE AZEVEM;S/N;RURAL;;55355000.0;PE;Paranatama;2016;5
13203;20074;2682699;-7.485410000000001;-36.66299;UBSF 02 ABEL PEREIRA LIMA;AV LEIDSON DA SILVA;S/N;CENTRO;(83)33542856;58580000.0;PB;Serra Branca;2016;5
13207;20159;24503;-8.05978;-34.943670000000004;US 252 PSF ENGENHO DO MEIO;RUA JOSE DOS SANTOS;312;ENGENHO DO MEIO;(81) 33556130;50730040.0;PE;Recife;2016;5
13208;20084;2635305;-7.576;-40.49800000000001;ESF CAVALETE I;BR316;S/N;CAVALETE I;;56280000.0;PE;Araripina;2016;5
13210;20118;5294649;-10.1347450128483;-43.9415101417959;POSTO DE SAUDE BONFIM;BAIXAO DO BONFIM;S/N;ZONA RURAL;;64965000.0;PI;Avelino Lopes;2016;5
13211;20094;5522447;-5.50879753777524;-41.8992637510964;PS JOAQUIM FERNANDES DE ARAUJO;LAGOAS;S/N;ZONA RURAL;;64350000.0;PI;São João da Serra;2016;5
13212;20340;2409402;-6.02432801349187;-37.9851948257179;UBS VICENTE DO REGO FILHO;RUA ANTONIO DE FREITAS;20;CENTRO;(84)3772241;59810000.0;RN;Portalegre;2016;5
13215;20037;2606976;-7.042860000000001;-35.62605;UBSF VIII MARIA CRISTINA MEDEIROS SARMENTO;RUA DOM PEDRO II;S/N;CENTRO;;58388000.0;PB;Alagoa Grande;2016;5
13218;20025;3583236;-11.642074584960596;-40.225195884703396;POSTO DE SAUDE DO TEOBALDO ANTONIO PEREIRA REIS;POVOADO DE TEOBALDO;S/N;POVOADO;(74)36322104;44630000.0;BA;Mairi;2016;5
13219;20063;2755947;-7.10907;-34.8778;USF INTEGRADA ROGER;RUA DEZENOVE DE MARCO;S/N;ROGER;( 83 ) 3218-9846;58020340.0;PB;João Pessoa;2016;5
13220;20168;3983714;-7.47402518326653;-37.2750721852438;ESF CENTRAL;RUA VEREADOR RAIMUNDO EUFRASIO;58;CENTRO;38441055;56700000.0;PE;São José do Egito;2016;5
13221;20028;2409860;-6.165432929992501;-36.8207001686085;POSTO DE SAUDE DO JUAZEIRO DO PADRE;SITIO JUAZEIRO DO PADRE;60;ZONA RURAL;;59335000.0;RN;Florânia;2016;5
13224;20156;1252;-8.070969999999999;-34.89952;US 218 PSF COQUE;RUA GUAPIRAMA;65;ILHA JOANA BEZERRA;(81) 33554656;50080730.0;PE;Recife;2016;5
13227;20350;2381133;-6.47754371218665;-38.179297889705204;CENTRO DE SAUDE TENENTE ANANIAS;RUA PROJETADA;156;OLINTOS;(84)33862213;59955000.0;RN;Tenente Ananias;2016;5
13230;20083;3323455;-8.89;-36.286;PSF SAO LUIS;RUA ENGENHEIRO CAIO MARCIO;S/N;SAO LUIS;(87)37881156;55430000.0;PE;Angelim;2016;5
13231;20170;2351870;-7.46883656604478;-37.27697879076;CENTRO DA MULHER E DA CRIANCA;RUA JOAO MARIANO VALDARES;58;PAJEU;(81)38441775;56700000.0;PE;São José do Egito;2016;5
13234;20176;2368471;-5.89521646499617;-42.632896900175794;POSTO DE SAUDE MAE RAIMUNDA;RUA PIRES FERREIRA;S/N;NOVA BRASILIA;(86) 2821449;64460000.0;PI;Água Branca;2016;5
13240;20179;2324636;-7.2585833072660195;-41.037776470183104;PS MAE DO SANTA;LOCALIDADE CABOCLO;S/N;ZONA RURAL;(89)4410003;64678000.0;PI;Belém do Piauí;2016;5
13242;20040;2321351;-7.12847337694278;-37.1582169542224;USF I DE CACIMBA DE AREIA SEU DITINHA;RUA CAPITAO SEVERINO XAVIER;S/N;CENTRO;(83) 34215930;58730000.0;PB;Cacimba de Areia;2016;5
13250;20147;2408112;-5.78895807266219;-38.0599880218495;CENTRO DE SAUDE ANTONIO SIMAO;RUA ADELINO LUCENA;S/N;CENTRO;(84) 3373 2220;59830000.0;RN;Rodolfo Fernandes;2016;5
13255;20200;6308538;-6.240183021140339;-42.6850242313083;UBS BURITIZINHO;RUA DOUTOR RAIMUNDO CAMPOS;S/N;BURITIZINHO;86 32931385;64490000.0;PI;Regeneração;2016;5
13263;20091;2344181;-8.37528347969031;-35.8718848228444;UNIDADE DE SAUDE DE BOAS NOVAS;VILA DE BOAS NOVAS;S/N;BOAS NOVAS;(81)37283260;55660000.0;PE;Bezerros;2016;5
13264;20141;2429071;-7.40926386;-35.110627357431696;UNIDADE DE SAUDE DA FAMILIA ANTONIO B MENESES;VILA RAFAEL PACIFICO;S/N;CENTRO;;55920000.0;PE;Itambé;2016;5
13266;20331;2410672;-5.7220959663389515;-35.3657841682424;UBS MASSARANDUBA;BR 406 KM 16;S/N;ZONA RURAL;(84)32287063;59570000.0;RN;Ceará-Mirim;2016;5
13271;20161;2679787;-8.01644;-34.91574;US 288 PSF MORRO DA CONCEICAO;RUA DA CONCEICAO;589;MORRO DA CONCEICAO;(81) 33556526;52280041.0;PE;Recife;2016;5
13272;20188;2367815;-3.7570023536681;-42.1712994575488;UBS LAGOA SECA;LAGOA SECA;S/N;ZONA RURAL;(86)33831209;64180000.0;PI;Esperantina;2016;5
13273;20196;2367262;-8.04838657379127;-44.0697240829455;PS CALDEIRAO VENEZA;POV CALDEIRAO;S/N;ZONA RURAL;(86)5351188;64875000.0;PI;Manoel Emídio;2016;5
13275;20328;2800462;-12.1495870700754;-39.2484989182822;PSF DE GUARIBAS;POVOADO DE GUARIBAS;01;ZONA RURAL;;44670000.0;BA;Anguera;2016;5
13276;20140;2352656;-8.138444423675299;-34.9708342552175;UBS SEVERINO R DE MOURA MARCOS FREIRE;RUA LUIZ BARBALHO;S/N;MARCOS FREIRE;81 3378-5836;54360147.0;PE;Jaboatão dos Guararapes;2016;5
13280;20182;2325063;-4.458559268397621;-41.9435219724325;PS DA SMS DE CAPITAO DE CAMPOS EQ I;RUA ACELINO REZENDE;137;CENTRO;(86)2771188;64270000.0;PI;Capitão de Campos;2016;5
13281;20153;2631806;-8.91807675361607;-36.7117381095876;PSF ALTO DA SERRA;POVOADO DE CAMPO SUJO;S/N;RURAL;;55355000.0;PE;Paranatama;2016;5
13285;20339;2503751;-5.14566779136643;-37.45119094848521;UBS FRANCISCO NETO DA LUZ;SITIO RIACHO GRANDE;S/N;ZONA RURAL;;59611070.0;RN;Mossoró;2016;5
13287;20194;2367289;-8.1395065784452;-43.82384061813229;PS DA AGUA BRANCA;LOCALIDADE AGUA BRANCA;S/N;ZONA RURAL;(89)5351268;64875000.0;PI;Manoel Emídio;2016;5
13290;20151;2315513;-8.67732167243932;-35.582785606383204;PSF SANTA LUZIA II;RUA GERSON BATISTA;S/N;SANTA LUZIA;;55540000.0;PE;Palmares;2016;5
13294;20160;22470;-8.11605;-34.94928;US 230 PSF LAGOA ENCANTADA;AV BENIGNO JORDAO DE VASCONCELOS;S/N;COHAB;(81) 33556174;51280400.0;PE;Recife;2016;5
13295;20149;2634961;-9.00093;-40.27501;ESTRATEGIA DE SAUDE DA FAMILIA ESF 02;RUA JOSE RICARDO;250;BAIRRO DO VASCO;87 3869 9068;56395000.0;PE;Lagoa Grande;2016;5
13296;20344;2375591;-5.7895555402052805;-35.331156093085205;UNIDADE BASICA DE SAUDE MARIA JOSE R DA SILVA;RUA JOAQUIM RODRIGUES D SILVA;S/N;SANTO ANTONIO;;59297486.0;RN;São Gonçalo do Amarante;2016;5
13297;20347;6290604;-6.15869433436922;-35.1241762279568;UBS CARNAUBA;RUA DA INTEGRACAO;S/N;CARNAUBA;84-32480119;59168000.0;RN;Senador Georgino Avelino;2016;5
13299;20006;3857581;-5.2362406253813205;-38.132150173186105;UNIDADE DE SAUDE DA FAMILIA JOSE MENDES MACIEL;AV MENDES MACIEL;S/N;V JOSE MENDES;(88)3424-3082;62960000.0;CE;Tabuleiro do Norte;2016;5
13300;20097;2346087;-8.13577294349647;-36.0593175888051;UBS RIACHO DOCE;POVOADO RIACHO DOCE;S/N;POVOADO RIACHO DOCE;;55008000.0;PE;Caruaru;2016;5
13301;20138;2714876;-7.40926386;-35.110627357431696;UNIDADE DE SAUDE DA FAMILIA MARACUJA II;RUA SEVERINO NUNES DE SOUZA;273;MARACUJA;;55920000.0;PE;Itambé;2016;5
13302;20184;4008502;-9.01243383893678;-44.4030021530455;PS DE CURRAIS PSF;PRACA DA MATRIZ;S/N;CENTRO;(089) 35480037;64905000.0;PI;Currais;2016;5
13306;20174;2635372;-8.09463;-40.5066;USF DE SOCORRO;POVOADO SOCORRO;S/N;CENTRO;(87)38747156;56210000.0;PE;Santa Filomena;2016;5
13307;20064;3004872;-7.12524;-34.88638;UNIDADE DO PSF CORDAO ENCARNADO I;R MARTIM LEITAO;249;VARADOURO;(83) 2189866;58011070.0;PB;João Pessoa;2016;5
13308;20036;3579530;-7.0428618;-35.62605139999999;UBSF I DR CLOVIS BARACUY;RUA OLINDA;538;CENTRO;(83)32732267;58388000.0;PB;Alagoa Grande;2016;5
13311;20048;2321211;-6.9138872623441605;-37.602789402007;USF II OZORIO QUEIROGA DE ASSIS;RUA JOSE REMIGIO DOS SANTOS;S/N;BAIRRO DO ALTO;0(83)8151-6336;58714000.0;PB;Condado;2016;5
13314;20335;2800969;-5.542893599999998;-35.4343604;UBS ANINGAS;SITIO ANINGAS;S/N;ZONA RURAL;8432748079;59570000.0;RN;Ceará-Mirim;2016;5
13315;20080;2354217;-7.574075460433741;-35.167064666746995;PSF DALILA MELO DA FONSECA;R ORESTES RABELO;S/N;TUPAOCA;(81)36371199;55890000.0;PE;Aliança;2016;5
13316;20135;2364107;-7.29502691351019;-35.6176892168186;USF II CAZUZINHA;DISTRITO CAZUZINHA;S/N;ZONA RURAL;(83)3941093;58380000.0;PB;Ingá;2016;5
13317;20333;4012542;-6.37492521572032;-35.1285396639931;UBS AREIA BRANCA;POV BOM SUCESSO;S/N;POV BOM SUCESSO;;59190000.0;RN;Canguaretama;2016;5
13318;20144;2321343;-6.90718512349046;-37.5177757103801;UNIDADE BASICA DE SAUDE DR JOSE MAURICIO DE LIMA CAJUAZ;RUA DOM JOSE DE MEDEIROS DELGADO;25;CENTRO;8334711352;58713000.0;PB;Malta;2016;5
13321;20148;2713144;-7.9298009999999985;-35.292789;POSTO DE SAUDE DA FAMILIA JOSE CAVALCANTI DE PETRIBU;SITIO CAMBOA;S/N;ZONA RURAL;;55840000.0;PE;Lagoa de Itaenga;2016;5
13323;20042;6454291;-7.86486983299232;-36.5124607086171;UBSF BARREIRAS ESF II;DISTRITO DE BARREIRAS;S/N;ZONA RURAL;(83)3307- 1728;58595000.0;PB;Caraúbas;2016;5
13324;20067;3011836;-7.1319615840909805;-34.9099802970876;USF ALTO DO MATEUS VI;RUA ATAULFO ALVES;204;ALTO DO MATEUS;32189257;58090710.0;PB;João Pessoa;2016;5
13325;20185;2650770;-3.90230298042286;-42.23150968551511;UBS CENTRO;PATRIOTINO LAGES;173;CENTRO;(86)33831400;64180000.0;PI;Esperantina;2016;5
13328;20066;2398915;-7.16145515441874;-34.8754119873037;CAIS CRISTO REDENTOR;RUA OLIVIA DE ALMEIDA GUERRA;S/N;CRISTO;(83) 3231-5664;58071430.0;PB;João Pessoa;2016;5
13329;20035;2322161;-7.103326320647991;-38.2633852958668;UNIDADE DE SAUDE DA FAMILIA PSF AGUIAR;SITIO RIACHO VERDE;S/N;SITIO;(83)4991035;58778000.0;PB;Aguiar;2016;5
13331;20062;2612224;-10.226199660412199;-37.196054632255;CLINICA DE SAUDE DA FAMILIA NOSSA SENHORA DA PIEDADE;RUA DA GLORIA;S/N;ZONA URBANA;(79)33191003;49860000.0;SE;Gracho Cardoso;2016;5
13333;20329;2410451;-5.6588387489317205;-37.8003287315358;CENTRO DE SAUDE DE APODI;AV VAN ROSADO;S/N;CENTRO;(84)3332127;59700000.0;RN;Apodi;2016;5
13336;20164;957;-8.12159;-34.9162;US 174 PSF SITIO GRANDE;AV LUXEMBURGO;254;IMBIRIBEIRA;(81) 33556685;51180260.0;PE;Recife;2016;5
13337;20072;2608936;-6.6876697540281285;-35.443375110625205;UNIDADE DE SAUDE DA FAMILIA DRWEBER DE M LULA;RUA LARGO DA MATRIZ;S/N;CENTRO;(83)9819916;58260000.0;PB;Serra da Raiz;2016;5
13339;20150;2315424;-8.67356657981847;-35.5903601646413;PSF SANTA LUZIA I;TRAV AGAMENON MAGALHAES;S/N;SANTA LUZIA;;55540000.0;PE;Palmares;2016;5
13345;20082;2354233;-7.50361919403054;-35.1667857170095;PSF ANGELO RABELO;TRV JOAO VIEIRA DE BRITO;S/N;MACUJE;(81)36371260;55890000.0;PE;Aliança;2016;5
13347;20039;2606925;-7.04103;-35.62229;UBSF III CONJ VERA CRUZ;RUA SEVERINO PAZ;S/N;CONJ VERA CRUZ;;58388000.0;PB;Alagoa Grande;2016;5
13349;20186;2777614;-6.78136467933635;-43.5771632194506;CS PERINA BATISTA DE CASTRO;QUADRA 06;S/N;VILA PARNAIBA;(89)35521247;64840000.0;PI;Guadalupe;2016;5
13350;20068;3014266;-7.157769999999998;-34.891290000000005;UNIDADE DO PSF FUNCIONARIOS I 1 ETAPA;RUA AMBROSIO VITORINO PONTES;S/N;OITIZEIRO;(83) 32189147;58087090.0;PB;João Pessoa;2016;5
13351;20125;2434385;-7.74657331766388;-34.823950567034004;USF JAGUARIBE;R BRUMADO;S/N;JAGUARIBE;(81)35441070;53900000.0;PE;Ilha de Itamaracá;2016;5
13352;20158;2631814;-8.8582445009815;-36.609646528959296;PSF JOSE AMARO DE LIMA;ST CUPIRA;S/N;RUAL;;55355000.0;PE;Paranatama;2016;5
13353;20199;2404591;-9.49344824144475;-44.5812141605608;UNID DA FAMILIA DA PLANALTINA;RUA DO FERREIRO;S/N;PLANALTINA;;64915000.0;PI;Redenção do Gurguéia;2016;5
13354;20181;2364603;-4.71649289131151;-42.0944380760181;PS CANTO DO PERIQUITO;CANTO DO PERIQUITO;S/N;ZONA RURAL;;64280000.0;PI;Campo Maior;2016;5
13356;20183;2593475;-5.89326633794508;-42.6351308599585;PSF LUCE LEIDE VILARINHO;AV NECO TEIXEIRA;S/N;SAO LUIZ;;64460000.0;PI;Água Branca;2016;5
13363;20157;2344912;-8.009;-34.855;USF ALTO DA BONDADE I;RUA DA LINHA;S/N;ALTO DA BONDADE;(81)34431561;53170285.0;PE;Olinda;2016;5
13369;20061;2322250;-7.9231917858121514;-37.166039943694;USF 05 JULIO RAIMUNDO ALEXANDRE;SITIO MULUNGU;S/N;ZONA RURAL;;58500000.0;PB;Monteiro;2016;5
13370;20044;3015831;-7.42358342115024;-38.265044208643495;PROGRAMA DE SAUDE DA FAMILIA II RURAL DE DIAMANTE;VILA VAZANTE;S/N;CENTRO;(83)4512436;58994000.0;PB;Diamante;2016;5
13371;20202;2777851;-7.56027817726113;-44.0581798553454;PS ANTONIO DE SOUSA;AVENIDA ULISSES GUIMARAES;1880;SAO JOAO;8935450006;64873000.0;PI;Sebastião Leal;2016;5
13374;20077;2604612;-7.478089999999999;-38.0428;PSF RITA SILVINO;RUA JOSE CAZE;S/N;CENTRO;(83)34591048 / 1066 R:27;58798000.0;PB;Nova Olinda;2016;5
13376;20129;2601532;-12.33203;-38.76919;PSF POVOADO DO PICADO;PRACA DA MATRIZ;S/N;PICADO;(75) 2432323;44245000.0;BA;Conceição do Jacuípe;2016;5
13379;20336;2410680;-5.58469176292403;-35.4058670997609;UBS LAGOA DO COSME;POVOADO DE LAGOA DO COSME;S/N;ZONA RURAL;8432745944;59570000.0;RN;Ceará-Mirim;2016;5
13382;20070;2701731;-7.1925698759973;-37.926519001178;USF EUDO MOURA DINIZ;RUA VIRGILIO SILVA;S/N;CAMPO NOVO;;58765000.0;PB;Piancó;2016;5
13383;20343;2501902;-5.19380123470868;-37.3568741367043;UBS DR EPITACIO DA COSTA CARVALHO;AV FRANCISCO MOTA;S/N;COSTA E SILVA;(84)3123492;59625900.0;RN;Mossoró;2016;5
13384;20038;2757419;-7.48264791987131;-36.133404750711;UBSF CENTRO;RUA NOSSA SENHORA DO DESTERRO;S/N;CENTRO;(83)33911299;58450000.0;PB;Boqueirão;2016;5
13387;20189;2366908;-9.834569905516119;-45.3469199782092;UBS DE GILBUES;RUA ANISIO DE ABREU;S/N;CENTRO;(86)35781327;64930000.0;PI;Gilbués;2016;5
13388;20075;2814498;-6.75205349922161;-38.2438802719105;ESF XXI ANDRE GADELHA;CONJ ANDRE GADELHA;S/N;ANDRE GADELHA;(83)5222684;58800300.0;PB;Sousa;2016;5
13392;20428;2502895;-10.4259288311002;-36.5618991851796;USF POV SERRAO;POVOADO SERRAO;S/N;POVOADO SERRAO;(79) 33455310;49990000.0;SE;Ilha das Flores;2016;5
13394;20789;2531844;-4.09913420677173;-45.278048515318496;UNIDADE DE SAUDE DE FAMILIA DE TIMORANTE;POV TOMORANTE;S/N;TIMORANTE;(98);65709000.0;MA;Satubinha;2016;5
13396;20427;2420511;-10.9153009698622;-37.666353409722;C S RAIMUNDA REIS;POVOADO BRASILIA;S/N;ZONA RURAL;7936319621;49400000.0;SE;Lagarto;2016;5
13404;20676;2482932;-11.172076463699;-41.4294004440296;UBSF AUGUSTO PEREIRA DA CRUZ;POV DE MATA DO MILHO;S/N;POV M MILHO;(74)6681072;44920000.0;BA;João Dourado;2016;5
13406;20668;2470470;-14.789039548603;-39.2731089520081;USF SIMAO FITTERMAN;RUA CASTRO ALVES;S/N;SAO PEDRO;(73)6130181;45606180.0;BA;Itabuna;2016;5
13407;20685;5656443;-12.407417354473901;-39.5006356828925;USF BOM JESUS DA LAPA;POVOADO PARANAGUA;S/N;ZONA RURAL;;44520000.0;BA;Rafael Jambeiro;2016;5
13409;20684;2509709;-12.407417354473901;-39.5006356828925;USF DO PARAGUASSU;RUA CASTRO ALVES;S/N;ZONA RURAL;;44520000.0;BA;Rafael Jambeiro;2016;5
13412;20654;2389568;-8.97547780401287;-39.1023700774151;USF PROCOPIO FERREIRA BARBALHO;POVOADO DE SAO JOSE;S/N;ZONA RURAL;;48660000.0;BA;Chorrochó;2016;5
13413;20650;6059619;-11.8241858482357;-41.59827232360721;UNIDADE DE SAUDE DA FAMILIA FRAN ROSA DA SILVA MAE DONA;RUA REINALDO ALVES DA SILVA;S/N;DISTRITO DE CANAL;(74) 3646-1200;44880000.0;BA;Cafarnaum;2016;5
13418;20647;3358011;-12.619879426893403;-39.1961392778533;POSTO DE SAUDE DE APORA;POVOADO DE APORA;S/N;ZONA RURAL;(75)681130;44345000.0;BA;Cabaceiras do Paraguaçu;2016;5
13419;20723;2425831;-7.23250150680521;-39.3511390686024;UBS SAO JOSE I;RUA ZECA ESMERALDO;S/N;SAO JOSE;88 35717902;63010000.0;CE;Juazeiro do Norte;2016;5
13421;20717;2726092;-3.68352;-39.58588;PSF DE PARQUE CARNAUBINHA;RUA TABELIAO CLOVIS DE BRITO FIRMEZA;S/N;ESMERINO GOMES;;62600000.0;CE;Itapagé;2016;5
13422;20601;4027841;-13.530698630843;-39.9702551831643;USF LOURIVAL ROSA DE SENA;RUA NILTON FREIRE DE ASSIS;S/N;MALVINA I;(73) 5342578;45345000.0;BA;Jaguaquara;2016;5
13423;20657;4024494;-11.0678136348721;-38.5507678985584;UNIDADE BASICA DE SAUDE DA FAMILIA ITAPICURU;FAZENDA ITAPICURU;S/N;ZONA RURAL;(75)3435-1698;48450000.0;BA;Cipó;2016;5
13426;20775;2456311;-5.2890264987944;-47.551639080046215;UBS VILA CONCEICAO;RUA 17 DE JULHO;34;VILA CONCEICAO;;65901550.0;MA;Imperatriz;2016;5
13427;20679;2493675;-11.7083895206448;-40.057783126829904;POSTO DE SAUDE FRANCISCO AUGUSTO NETO DISTRITO DE BONSUCESSO;POVOADO DE BONSUCESSO;S/N;POV BONSUCESSO;(74)36322104;44630000.0;BA;Mairi;2016;5
13431;20666;3902528;-14.7606790065761;-40.0941324233997;UNIDADE DE SAUDE DA FAMILIA DR ALMIR FERREIRA;RUA EZEQUIEL BATISTA;S/N;CENTRO;;45280000.0;BA;Iguaí;2016;5
13434;20772;2465078;-3.4638047218321697;-45.6743931770311;UBS DO POVOADO LONDRINA;POVOADO LONDRINA;S/N;POV LONDRINA;(98)6561073;65363000.0;MA;Governador Newton Bello;2016;5
13443;20621;2008645;-9.34164047241184;-37.8937554359425;POSTO DE SAUDE DE TINGUI;POVOADO TINGUI;S/N;ZONA RURAL;;57490000.0;AL;Água Branca;2016;5
13446;20715;2499185;-6.788361260213269;-38.7159037441224;PSF SEDE 1;CEL RAIMUNDO HOLANDA;S/N;CENTRO;7361088;63340000.0;CE;Ipaumirim;2016;5
13447;20759;2453738;-4.8398423194883895;-42.9965615272509;UBS NAZARE DO BRUNO;NAZARE DO BRUNO;123;ZONA RURAL;(98)5213223;65600020.0;MA;Caxias;2016;5
13450;20782;6226361;-3.00471782684317;-44.9853229522692;UBS DE SOROCABA;AVENIDA GAMELEIRA;S/N;SANTA CLARA;09833592082;65223000.0;MA;Olinda Nova do Maranhão;2016;5
13451;20729;2726467;-4.17054051;-38.4670222648935;UNIDADE BASICA DE SAUDE DA FAMILIA DA LAGOA SECA;RUA LAGOA SECA;S/N;LAGOA SECA;3481880;62870000.0;CE;Pacajus;2016;5
13453;20755;2390515;-5.35460114479049;-46.643872261046;CS ADELSON RIBEIRO DE CARVALHO EQUIPE JENIPAPO PEQUI;RUA HUMBERTO DE CAMPOS;S/N;CENTRO;( );65923000.0;MA;Amarante do Maranhão;2016;5
13455;20707;2415097;-7.2444427013395085;-39.4113492965687;CENTRO DE NUTRICAO DE CRATO;RUA IMPERADOR D PEDRO I;01;MUTIRAO;(88)5215368;63100970.0;CE;Crato;2016;5
13457;20664;5385210;-3.78555178642262;-41.913485527037395;PS FRANCISCO MACHADO DE SAMPAIO;ZONA RURAL;S/N;MOCAMBINHO;( );64245000.0;PI;São José do Divino;2016;5
13459;20761;2460130;-4.2170979000000015;-44.7899808;CENTRO DE SAUDE SANTOS DUMONT;RUA 06 CASA;06;VILA SAO JOAO;(99)36211881;65700000.0;MA;Bacabal;2016;5
13460;20714;2373181;-4.04024350050077;-38.634434780521296;UNID DE SAUDE DA FAM DE AGUA VERDE;AGUA VERDE;S/N;CENTRO;08533761009;61890000.0;CE;Guaiúba;2016;5
13462;20673;3981088;-10.832053524846199;-39.4291308507325;UNIDADE DE SAUDE DA FAMILIA DA PICADA;POVOADO DE PICADA;S/N;ZONA RURAL PICADA;75 36502249;48870000.0;BA;Nordestina;2016;5
13476;20661;4023803;-13.0948609314705;-44.1789436340332;CENTRO DE SAUDE DA SEDE;RUA PARICIO DE QUEIROZ;S/N;CENTRO;;47730000.0;BA;Canápolis;2016;5
13479;20698;7021;-12.885782718658099;-38.4311413764942;UBS NELSON PIAUHY DOURADO;RUA ENDEO NASCIMENTO;S/N;AGUAS CLARAS;(71) 36115313;41310380.0;BA;Salvador;2016;5
13481;20784;2460688;-2.62851119041435;-44.8664474487292;P S LUIZ HONORIO FREITAS;POV INAMBU;S/N;INAMBU;(98)3881207;65245000.0;MA;Peri Mirim;2016;5
13482;20678;2508133;-10.5003333091733;-37.85414457321061;UNIDADE DE SAUDE DA FAMILIA MARITA;POVOADO MARITA;S/N;ZONA RURAL;;48430000.0;BA;Paripiranga;2016;5
13484;20670;3498204;-14.582022428512197;-42.086434364317604;UNIDADE DE SAUDE DA FAMILIA DA BANANEIRA;FAZENDA BANANEIRA;S/N;ZONA RURAL;(77) 34172169;46205000.0;BA;Guajeru;2016;5
13487;20791;2645750;-2.6067209243773704;-44.1852951049792;UNIDADE DE SAUDE DA FAMILIA OLIMPICA III JAILSON ALVES VIANA;AVENIDA 04;S/N;CIDADE OLIMPICA;(098) 3276-6039;65050000.0;MA;São Luís;2016;5
13489;20795;2655888;-6.472953557967951;-44.2933988571154;UNIDADE BASICA DE SAUDE PESQUEIRO;POVOADO PESQUEIRO;1456;ZONA RURAL;;65860000.0;MA;Sucupira do Norte;2016;5
13490;20693;2520389;-12.428893228861;-39.253190203513796;USF HERALDO MOREIRA DE AZEVEDO;POVOADO DO SITIO ARAGAO;S/N;ZONA RURAL;( );44190000.0;BA;Santo Estêvão;2016;5
13494;20779;6267807;-7.09445416538222;-45.139241637527284;CENTRO DE SAUDE LUIZINHA PIRES;PRACA BARAO;S/N;CENTRO;;65895000.0;MA;Loreto;2016;5
13497;20771;3589196;-5.800727605819532;-47.363390922545;UNIDADE BASICA DE SAUDE DE RIBEIRAOZINHO DA ROCA;RUA PRINCIPAL;S/N;RIBEIRAOZINHO DA ROC;;65928000.0;MA;Governador Edison Lobão;2016;5
13504;20694;3023427;-12.42842;-39.2509;USF PAULA DA FONSECA ROCHA;POVOADO DA PAULISTA;S/N;ZONA RURAL;;44190000.0;BA;Santo Estêvão;2016;5
13505;20660;2601222;-11.671675443649;-39.2008280754078;UNIDADE BASICA DE SAUDE DA FAMILIA DE AROEIRA;AVENIDA AGEMIRO RAMOS;S/N;DISTRITO AROEIRA;(74)32621818;48730000.0;BA;Conceição do Coité;2016;5
13507;20797;2644622;-5.09649753570542;-42.9688811302173;POSTO DE SAUDE OITENTA E NOVE;BR 226 POVOADO OITENTA E NOVE;S/N;ZONA RURAL;;65630210.0;MA;Timon;2016;5
13508;20687;3815439;-11.489666983152599;-39.4241777923454;UNIDADE SAUDE DA FAMILIA ALTO DO CAMILO;RUA DA CAJAZEIRAS;S/N;CENTRO;0XX7532021299;48750000.0;BA;Retirolândia;2016;5
13510;20699;2644983;-6.274019479751401;-39.5913147926319;POSTO DE SAUDE DE EBROM;VILA DE EBROM;S/N;ZONA RURAL;0000000;63560000.0;CE;Acopiara;2016;5
13518;20711;2529084;-3.723805035;-38.589927555043204;UAPS REBOUCAS MACAMBIRA;RUA CREUZA ROCHA;S/N;JARDIM GUANABARA;(85)34526687;60346352.0;CE;Fortaleza;2016;5
13519;20796;2452049;-5.1620614528654505;-43.1887793540942;POSTO DE SAUDE BURITI CORTADO;LOCALIDADE BURITI CORTADO;S/N;ZONA RURAL;;65630210.0;MA;Timon;2016;5
13520;20605;2008815;-10.186;-36.84;ESF BARRA DO ITIUBA;POVOADO BARRA DO ITIUBA;S/N;ZONA RURAL;35531131;57290000.0;AL;Porto Real do Colégio;2016;5
13521;20786;5755174;-3.5810000000000004;-42.609;UBSF DE RETIRO;POVOADO DE RETIRO;S/N;POVOADO;;65545000.0;MA;Milagres do Maranhão;2016;5
13523;20735;2563975;-5.0969520001672;-38.36490734507311;POSTO DE SAUDE DE PEDRAS;RUA JOAO MONTEIRO;S/N;PEDRAS;4221449;62940000.0;CE;Morada Nova;2016;5
13524;20785;2644576;-2.68208724479399;-44.92000579833979;U B S DE SAUDE DE SANTA EULALIA PSFSB;SANTA EULALIA;S/N;CENTRO;;65238000.0;MA;Palmeirândia;2016;5
13525;20629;6594565;-9.25788438518493;-38.0098260716315;UNIDADE BASICA DE SAUDE MARCACAO;POVOADO MARCACAO;S/N;CENTRO;;57475000.0;AL;Pariconha;2016;5
13526;20705;2415402;-7.23175278993044;-39.4083902977886;POSTO DE SAUDE RIACHO VERMELHO;SITIO RIACHO VERMELHO;S/N;DIST SANTA FE;(88)5233376;63100970.0;CE;Crato;2016;5
13528;20726;2563894;-5.0969520001672;-38.36490734507311;POSTO DE SAUDE DE BOA AGUA;VILA BOA AGUA;S/N;BOA AGUA;4221198;62940000.0;CE;Morada Nova;2016;5
13529;20659;2400871;-8.989032117973537;-39.908081018943;UNIDADE DE SAUDE DA FAMILIA DE RIACHO SECO;DISTRITO DE RIACHO SECO;S/N;ZONA RURAL;(74) 3531-1423;48930000.0;BA;Curaçá;2016;5
13534;20776;2456141;-5.31948566436752;-47.654485702513284;UBS COQUELANDIA;AVENIDA JOAO XXIII;S/N;COQUELANDIA;99 3528-8064;65901550.0;MA;Imperatriz;2016;5
13539;20691;4758;-12.9008460044857;-38.428394794463;UBS DRA CECY DE ANDRADE;RUA GENARO DE CARVALHO;S/N;CASTELO BRANCO;(71) 3611-5214;41320100.0;BA;Salvador;2016;5
13542;20417;2623;-10.9055614471432;-37.096881866454;US WALTER CARDOSO VENEZA;RUA B;372;VENEZA;31793210;49092520.0;SE;Aracaju;2016;5
13545;20722;2563789;-5.424209833144982;-38.539695739745;POSTO DE SAUDE DO DESTERRO;SITIO DESTERRO;S/N;ZONA RURAL;(88)35761895;63480000.0;CE;Jaguaretama;2016;5
13546;20712;2327503;-3.8913595676421;-40.884375572203396;POSTO DE SAUDE DE COCAL;SITIO COCAL;S/N;COCAL;;62360000.0;CE;Ibiapina;2016;5
13549;20656;2598175;-11.09174;-38.51485;UNIDADE BASICA DE SAUDE DA FAMILIA NOVA CIPO;RUA MANAUS;S/N;NOVA CIPO;(75) 3435-1698;48450000.0;BA;Cipó;2016;5
13552;20582;2592142;-6.776880025863451;-37.703640460966895;USF VIII CACHOEIRA;VILA DE CACHOEIRA;S/N;ZONA RURAL;( );58840000.0;PB;Pombal;2016;5
13558;20421;2477653;-10.3465099141957;-36.80075646436129;UNIDADE DE SAUDE DA FAMILIA DE ESPINHEIRO;POV ESPINHEIRO RUA JOSE V BRANDAO;S/N;CENTRO;(79) 3348-1069;49950000.0;SE;Japoatã;2016;5
13559;20681;2533502;-9.40333169737823;-38.2183289682262;USF IRMA RITA;AVENIDA BOTAFOGO;S/N;CENTENARIO;(75)2825140;48605590.0;BA;Paulo Afonso;2016;5
13563;20788;2465663;-3.40899109840383;-42.5589752197253;UBSF DE LADEIRA;LADEIRA;S/N;LADEIRA;(98) 4761278;65540000.0;MA;Santa Quitéria do Maranhão;2016;5
13564;20613;5013828;-3.79854;-40.26203;UNIDADE BASICA DE SAUDE CAMPO NOVO;LOCALIDADE CAMPO NOVO;S/N;ZONA RURAL;88 36191223;62115000.0;CE;Forquilha;2016;5
13574;20680;2533227;-9.40333169737823;-38.2183289682262;USF PADRE LOURENCO;RUA PADRE LOURENCO;S/N;TANCREDO NEVES;(75)2825140;48609140.0;BA;Paulo Afonso;2016;5
13576;20731;2327279;-3.8691294193266703;-40.9174203872669;UNIDADE BASICA DE SAUDE SEBASTIAO GOMES PARENTE;RUA RAIMUNDO DE BARROS;S/N;SAO SEBASTIAO;;62350000.0;CE;Ubajara;2016;5
13577;20653;5585724;-15.4176268518309;-39.496367331491705;PSF NARCISO ARAUJO;RUA PAULO JAQUISSON;0000;JOANA ANGELICA;7332833807;45880000.0;BA;Camacan;2016;5
13578;20649;2386836;-12.536215782165199;-39.191064834593604;CENTRO DE SAUDE ANTONIO MARTINS;AV NAVIO NEGREIRO;S/N;CENTRO;(75)36811130;44345000.0;BA;Cabaceiras do Paraguaçu;2016;5
13579;20682;2508249;-9.40333169737823;-38.2183289682262;USF VARZEA;ZONA RURAL;01;POVOADO VARZEA;(75)2817440;48603040.0;BA;Paulo Afonso;2016;5
13580;20768;2453797;-4.856128692626809;-43.354647159575215;UBS PIQUIZEIRO;RUA NOSSA SENHORA DE FATIMA;210;PIQUIZEIRO;(98)5214633;65606440.0;MA;Caxias;2016;5
13582;20792;2457148;-6.4989387989042315;-43.6971545219409;POSTO DE SAUDE DO BARRO BRANCO;POVOADO BARRO BRANCO;S/N;BARRO BRANCO;(98)5512115;65665000.0;MA;São João dos Patos;2016;5
13584;20535;3026566;-6.61512;-35.29104;UNIDADE DE SAUDE DA FAMILIA MARIA JOSE FERNANDES DA SILVA;SITIO FORMOSA;S/N;ZONA RURAL;(83)32951888;58278000.0;PB;Jacaraú;2016;5
13586;20677;6587232;-11.3583061402444;-38.3310801960897;UNIDADE DE SAUDE DA FAMILIA CRUZEIRO;RUA FELIPE GOES DE SANTANA;S/N;CRUZEIRO;;48470000.0;BA;Olindina;2016;5
13587;20662;2601206;-11.549699306487696;-39.3922519683826;UNIDADE BASICA DE SAUDE DA FAMILIA DE SAO JOAO;RUA HAMILTON RIOS DE ARAUJO;S/N;DISTRITO SAO JOAO;7532621523;48730000.0;BA;Conceição do Coité;2016;5
13589;20764;2457296;-5.84607839584334;-43.83293867111079;UNIDADE BASICA DE SAUDE VICENTE PRETO;RUA ZUZA COELHO;01;JOSE HENRIQUE;(98)35721211;65685000.0;MA;Buriti Bravo;2016;5
13590;20688;4030389;-11.7462475299556;-44.9164697719097;POSTO DE SAUDE DE SAO JOSE DO RIO GRANDE;RUA CASTRO ALVES;S/N;CENTRO;(77)36242245;47970000.0;BA;Riachão das Neves;2016;5
13591;20667;6105610;-14.1374736712628;-39.7356541802101;UNIDADE DE SAUDE DA FAMILIA WALDOMIRO BARRETO;RUA DO CONTORNO;S/N;CENTRO;73 35312351;45570000.0;BA;Ipiaú;2016;5
13593;20724;2527456;-7.387397999999999;-38.772795438031004;ESF SAO MIGUEL;RUA SALUSTRIANO RODRIGUES;S/N;DISTRITO SAO MIGUEL;35521411;63210000.0;CE;Mauriti;2016;5
13597;20646;2305070;-11.396116018295;-41.53595924377321;POSTO DE SAUDE ELVIRA BORGES OLIVEIRA;LAGOA DOS BORGES;S/N;POVOADO;;44910000.0;BA;América Dourada;2016;5
13602;20609;6340490;-8.66285686583942;-36.3214966175308;USF OLHO D AGUA DOS POMBOS;POVOADO OLHO D AGUA DOS POMBOS;S/N;ESPACO RURAL;;55385000.0;PE;Lajedo;2016;5
13609;20799;5682886;-3.19336295127859;-45.0225520133959;UNIDADE DA ESF DA VILA ZIZI;VILA ZIZI;S/N;VILA ZIZI;;65215000.0;MA;Viana;2016;5
13617;20765;2603896;-1.45566701889034;-45.7280802726732;CENTRO DE SAUDE DE CANDIDO MENDES PSFSB;RUA LUIS DOMINGUES;S/N;CENTRO;(98)33961913;65280000.0;MA;Cândido Mendes;2016;5
13620;20585;2608669;-7.3764699999999985;-35.23752;UNIDADE BASICA DE SAUDE MARIA LUZAMIRIA DINIZ LIMA;RUA ALAGOAS;S/N;CENTRO;(83)2891175;58330000.0;PB;Juripiranga;2016;5
13622;20762;2306646;-2.93287754058829;-44.2968749999987;UBS FRANCISCA MARIA CANTANHEDE;RUA JOSE RUFINO;S/N;POVOADO VIDEL;(98)33461079;65143000.0;MA;Bacabeira;2016;5
13628;20460;6977790;-10.003;-42.504;UNIDADE DE SAUDE DA FAMILIA ZE DO PEIXE;POVOADO DE PASSAGEM;01;ZONA RURAL;07435342035;47240000.0;BA;Pilão Arcado;2016;5
13629;20756;2310635;-5.484066009521331;-46.81832313537461;UBS DIODATO ANTONIO DE HOLANDA;RUA SAO VICENTE DE PAULA;S/N;POVOADO GROTAO;( );65923000.0;MA;Amarante do Maranhão;2016;5
13633;20704;2482037;-4.30217091397851;-38.5012856666586;UNIDADE BASICA DE SAUDE PATOS DOS LIBERATOS;RUA RITA JACINTO;S/N;PATOS DOS LIBERATOS;;62875000.0;CE;Chorozinho;2016;5
13639;20773;5280729;-5.81114421094432;-46.128013671875;LABORATORIO ITAMAR GUARA;RUA DAS VERBENIAS;S/N;CANOEIRO;;65940000.0;MA;Grajaú;2016;5
13642;20770;2310880;-6.56808498021471;-47.447882986137714;CENTRO MUNICIPAL DE SAUDE DE ESTREITO;RUA JOAO GOMES BANDEIRA;S/N;CENTRO;;65975000.0;MA;Estreito;2016;5
13647;20633;2720833;-10.1292988371728;-36.653345012518;ESF 04 CENTRO DE SAUDE CHINARE;POVOADO CHINARE;S/N;ZONA RURAL;(82) 5541264;57280000.0;AL;Igreja Nova;2016;5
13648;20420;2745291;-10.42636;-36.8468;UNIDADE DE SAUDE DA FAMILIA JOSE RODRIGUES DOS SANTOS;POV PROJETO LADEIRINHAS A;S/N;RURAL;(79) 3348-1069;49950000.0;SE;Japoatã;2016;5
13649;20760;2460041;-4.20240194794507;-44.7535641479492;CENTRO DE SAUDE BOM PRINCIPIO;POVOADO BOM PRINCIPIO;S/N;BOM PRINCIPIO;(99)36211881;65700000.0;MA;Bacabal;2016;5
13650;20669;2424096;-11.3109527005757;-38.218612375549;U S F VARZINHA;POVOADO VARZINHA;S/N;POVOADO;;48475000.0;BA;Itapicuru;2016;5
13653;20625;2004429;-9.638487270779919;-36.5796842002284;UNIDADE DE SAUDE DA FAMILIA DE ALAGOINHA COITE DO NOIA;SITIO ALAGOINHA;S/N;ZONA RURAL;;57325000.0;AL;Coité do Nóia;2016;5
13655;20675;2506556;-11.277315616607304;-38.3708024024952;UNIDADE DE SAUDE DA FAMILIA CARRAPATINHO;POVOADO CARRAPATINHO;S/N;POVOADO;( );48470000.0;BA;Olindina;2016;5
13656;20663;6220762;-13.422347795301599;-42.1361637333109;UNIDADE DE SAUDE DA FAMILIA DO RIO DA CAIXA;POVOADO DE RIO DA CAIXA;S/N;ZONA RURAL;77 36772251;46180000.0;BA;Érico Cardoso;2016;5
13657;20781;2644207;-3.4550714492796804;-45.153636932371704;UNIDADE BASICA SAUDE DA FAMILIA DE BARRADAS;RUA PRINCIPAL;S/N;POVOADO MATA BOI;;65360000.0;MA;Monção;2016;5
13658;20727;3425908;-5.738569999999998;-39.62237;UNIDADE BASICA DE SAUDE DA FAMILIA RECREIO;AV JOSE SA AZEVEDO;S/N;RECREIO;;63610000.0;CE;Mombaça;2016;5
13661;20626;2007541;-9.496039152145109;-36.7629575729359;UNIDADE DE SAUDE DA FAMILIA SANTO ANTONIO;POVOADO SANTO ANTONIO;S/N;ZONA RURAL;;57620000.0;AL;Igaci;2016;5
13662;20720;2425777;-7.210766;-39.316993355614294;UBS PIO XII I E II;AV CARLOS CRUZ;S/N;PIO XII;;63020230.0;CE;Juazeiro do Norte;2016;5
13664;20725;2563940;-4.579453468322621;-38.365352153776996;POSTO DE SAUDE DE ARUARU;RUA ANGELO SILVA;S/N;ARUARU;3480262;62940000.0;CE;Morada Nova;2016;5
13665;20645;3029522;-11.66609;-38.01839;UNIDADE DE SAUDE DA FAMILIA DE MARAMBAIA;AVENIDA MARAMBAIA;31;CENTRO;(75)34342350;48360000.0;BA;Acajutiba;2016;5
13666;20630;6886205;-12.045167684554697;-44.26533222198361;UNIDADE DE SAUDE DA FAMILIA JOSE BARBOSA DE OLIVEIRA;VILA SANTANA;S/N;VILA;;47900000.0;BA;Cotegipe;2016;5
13667;20415;2422654;-10.2925180922231;-37.0221808560785;USF MARIA HILDA FERREIRA;RODOVIA GOVERNADOR VALADARES;S/N;JOAO ALVES;;49790000.0;SE;Aquidabã;2016;5
13668;20674;2506505;-11.506161491584301;-38.2984315978971;UNIDADE DE SAUDE DA FAMILIA DONA MARIA;POVOADO DONA MARIA;S/N;POVOADO;;48470000.0;BA;Olindina;2016;5
13669;20655;2600668;-11.668499708175302;-39.274492263792794;UNIDADE BASICA DE SAUDE DA FAMILIA WALDEMAR CARNEIRO;RUA DO CRUZEIRO;S/N;POV JUAZEIRO;(75)2621818;48730000.0;BA;Conceição do Coité;2016;5
13675;20713;2480255;-4.95523095130906;-40.8207106590259;POSTO DE SAUDE DE CAJAS DOS JORGES;DISTRITO CAJAS DOS JORGES;S/N;CENTRO;8111217;62215000.0;CE;Ipaporanga;2016;5
13678;20766;2636816;-7.8222283302116;-35.4085922241211;UBS CARAUBA TORTA;POVOADO CARAUBA;1;SITIO;;55816410.0;PE;Carpina;2016;5
13682;20783;3631613;-6.0034811496732905;-43.830621242521886;UNIDADE BASICA DE SAUDE NAZARE;UNIDADE BASICA DE NAZARE;1;ZONA RURAL;;65680000.0;MA;Passagem Franca;2016;5
13689;20730;2424355;-3.68803768376442;-40.34866803365821;CSF TERRENOS NOVOS 1;RUA RAIMUNDO ALVES;S/N;TERRENOS NOVOS;(88) 3614 2041;62031150.0;CE;Sobral;2016;5
13691;20652;2508354;-11.9571161270138;-38.3780980110157;UNIDADE DE SAUDE DA FAMILIA RIACHO DA GUIA;RUA SAGRADA FAMILIA;S/N;RIACHO DA GUIA;;48105000.0;BA;Alagoinhas;2016;5
13695;20689;6416;-12.9513144493099;-38.439531326292794;UBS ARENOSO;RUA DO COMERCIO;100;ARENOSO;(71) 3611-7301;41211405.0;BA;Salvador;2016;5
13698;20716;2562006;-3.685673109841991;-39.5835332386222;POSTO DE SAUDE DE IRATINGA;DISTRITO DE IRATINGA;S/N;CENTRO;3640313;62600000.0;CE;Itapagé;2016;5
13701;20778;6513417;-5.14303922653183;-47.1341371536241;POSTO DE SAUDE FRANCISCO TOME;POVOADO DO MUSSAMBE;100;Z RURAL;99 3535 2544;65922000.0;MA;João Lisboa;2016;5
13705;20615;2420910;-11.040015220641804;-37.8560757637013;PS POVOADO BOMFIM;POVOADO BOMFIM;00;POVOADO BOMFIM;(79)6431248;49320000.0;SE;Riachão do Dantas;2016;5
13707;20793;6397549;-7.10611581802348;-45.6455326080309;UNIDADE BASICA DE SAUDE MARIA JOSE FERREIRA;POVOADO MORRO DO CHUPE;S/N;ZONA RURAL;;65840000.0;MA;São Raimundo das Mangabeiras;2016;5
13709;20665;2400936;-8.989032117973537;-39.908081018943;UNIDADE DE SAUDE DA FAMILIA DE PEDRA BRANCA;DISTRITO DE PEDRA BRANCA;S/N;ZONA RURAL;(74) 3531-1423;48930000.0;BA;Curaçá;2016;5
13717;20777;6472524;-5.12845873832688;-45.61879634857039;UBS CALUMBI;RUA PRINCIPAL;S/N;POVOADO CALUMBI;;65948000.0;MA;Itaipava do Grajaú;2016;5
13728;20671;2510197;-9.41071709622786;-40.503552159443394;USF CENTRO DE SAUDE III;CARNELA DUTRA;S/N;ANGARI;(74)6114600;48903726.0;BA;Juazeiro;2016;5
13730;20763;6198465;-8.521742820739501;-46.7363333702074;U S F VENEZA;AVENIDA 02;S/N;VENEZA II;99 3542 1210;65800000.0;MA;Balsas;2016;5
13731;20780;2464764;-3.8182747364043097;-44.5724773406969;UNIDADE BASICA DE SAUDE COIVARAS PSF;POVOADO COIVARAS;S/N;ZONA RURAL;;65468000.0;MA;Matões do Norte;2016;5
13733;20692;3023257;-12.42842;-39.2509;USF ANTONIETA COPELLO DE CERQUIRA;LOTEAMENTO ALTO DO PORRAO;S/N;CENTRO;;44190000.0;BA;Santo Estêvão;2016;5
13734;20623;2721104;-10.009242296218599;-36.7349767684926;POSTO DE SAUDE POVOADO POCO DA LAGOA;POVOADO POCO DA LAGOA;81;ZONA RURAL;;57350000.0;AL;Campo Grande;2016;5
13735;20702;2682761;-4.3623;-39.31902;POSTO DE SAUDE DA FAMILIA SEDECENTRO;RUA ANTONIO MARTINS;239;CENTRO;(85)3430323;62700000.0;CE;Canindé;2016;5
13737;21108;2477548;-10.5919146537778;-37.674479484557;UNIDADE DE SAUDE DA FAMILIA MARIA JOSE SOARES FIGUEIROA;POVOADO GRAVATA;S/N;ZONA RURAL;(79)34591240;49512000.0;SE;Pedra Mole;2016;5
13739;20965;5378885;-8.28616976737952;-41.2066054344165;PS DA CARAIBEIRA;POVOADO CARAIBEIRA;S/N;ZONA RURAL;;64750000.0;PI;Paulistana;2016;5
13740;20948;3640310;-4.0204123357539;-42.075218732031004;PS ANAJAZINHO;ANAJAZINHO;S/N;ZONA RURAL;(86)33471278;64190000.0;PI;Batalha;2016;5
13741;21082;2477297;-10.382466316222802;-36.93742990493671;UNIDADE BASICA DE SAUDE VISGUEIRO;RUA MARIA OLIVEIRA VIEIRA;S/N;POV VISGUEIRO;33421426;49780000.0;SE;Muribeca;2016;5
13745;20928;2344475;-8.24139184899176;-35.471763610839794;USF MATIAS;SITIO MATIAS;S/N;SITIO MATIAS;(81)35371315;55636000.0;PE;Chã Grande;2016;5
13748;20951;2404842;-3.2123315334319105;-41.7448925971973;PS SALGADINHO;SALGADINHO;S/N;ZONA RURAL;(86)3631194;64230000.0;PI;Buriti dos Lopes;2016;5
13754;20939;2635615;-7.8308763587705394;-38.1070603447143;UNIDADE DE SUADE DA FAMILIA USF II JOSE LOPES DE CARVALHO;VILA CANAA;S/N;CENTRO;;56870000.0;PE;Triunfo;2016;5
13755;20962;2650703;-6.88679695129375;-41.0406088829029;POSTO DE SAUDE AROEIRAS;ZONA RURAL A 20 M DA RODOVIA PI 229;S/N;POVOADO AROEIRAS;(89) 3433-1280;64650000.0;PI;Monsenhor Hipólito;2016;5
13760;20895;2608197;-6.76013231277446;-35.4861831665029;UNIDADE DE SAUDE DA FAMILIA PSF VII SERRARIA;SITIO SERRARIA;S/N;ZONA RURAL;(83)2611510;58255000.0;PB;Belém;2016;5
13769;21128;5371368;-10.515106916427301;-39.005262851714;UNIDADE DE SAUDE DA FAMILIA MARIA SONIA ROCHA DA SILVA;URBIS;01;URBIS;;48500000.0;BA;Euclides da Cunha;2016;5
13770;20964;2324695;-6.994171137544191;-41.13615733650021;UBS DO KM 87 POV BOA VIAGEM PSF;POVOADO BOA VISTA;S/N;ZONA RURAL;;64645000.0;PI;Francisco Santos;2016;5
13771;21181;2343932;-8.87755937542735;-36.368253076532895;PSF DO PLANALTO;RUA ANTONIO VILACA;S/N;PLANALTO;(81)37841152;55435000.0;PE;São João;2016;5
13772;20908;2334739;-6.8928480148313405;-35.477385520934;UBS CACHOEIRA DR ARISTIDES VILLAR;RUA GALDINO GUEDES;S/N;DISTRITO;( );58200000.0;PB;Guarabira;2016;5
13773;21131;2719711;-9.73938526710309;-36.50428533554079;CENTRO DE SAUDE M CELINA RIBEIRO;RUA SANTA CRUZ;S/N;CENTRO;(82)5231181;57260000.0;AL;Limoeiro de Anadia;2016;5
13780;20934;2713187;-8.36429715156531;-35.2415227890004;UNIDADE DE SAUDE DA FAMILIA LOURENCO BRASILIANO;RUA TOBIAS BARRETO;S/N;MATADOURO VELHO;081-35341665;55500000.0;PE;Escada;2016;5
13781;21031;4013387;-6.0764975053297805;-37.5120589301593;CENTRO DE SAUDE DR EDINO JALES;AV GENUINO FERNANDES JALES;S/N;CENTRO;(84)33650105;59775000.0;RN;Messias Targino;2016;5
13791;20966;2651009;-3.9292874935799;-41.7090415496498;UBS GUARANI;AV SETE CIDADES;S/N;GUARANI;(86)33431249;64240000.0;PI;Piracuruca;2016;5
13793;20909;2504839;-6.981135606765539;-38.582546710966895;UNIDADE SAUDE DA FAMILIA HIGINO DIAS MOREIRA COCOS;SITIO COCOS;S/N;ZONA RURAL SUL;(83)05314399;58900000.0;PB;Cajazeiras;2016;5
13797;20945;28053;-8.06276248305241;-34.8889419445777;US 258 PSF SITIO DOS PINTOS;RUA PREF AGOSTINHO NUNES MACHADO;S/N;SITIO DOS PINTOS;(81) 33550070/0071;52171090.0;PE;Recife;2016;5
13799;20960;2650738;-7.06439137458781;-41.06316089630009;POSTO DE SAUDE LIBORIO;ZONA RURAL VIZINHO A IGREJA CATOLICA;S/N;POVOADO LIBORIO;(89) 34331280;64650000.0;PI;Monsenhor Hipólito;2016;5
13801;21179;2463431;-6.152;-44.893;UNIDADE BASICA DE SAUDE ELI ALVES CAVALCANTE;POVOADO BURITI;0;CENTRO;099036431744;65964000.0;MA;Fernando Falcão;2016;5
13808;21028;5117453;-5.9899019795618615;-37.813258490085396;UNIDADE DE SAUDE DA FAMILIA COSMA LEMOS DOS SANTOS;RUA RAIMUNDO FRANCISO DE FREITAS;S/N;CARAIBAS;(84)33972522;59865000.0;RN;Umarizal;2016;5
13814;20924;6244300;-8.09308290481544;-36.2229967117299;PSF X MANDACAIA;SITIO MANDACAIA;00;ZONA RURAL;;55170000.0;PE;Brejo da Madre de Deus;2016;5
13821;20917;2603624;-7.55121340952873;-38.332581153941604;UNIDADE BASICA DO PSF NORTE;RUA NELSON RIBEIRO LOPES;S/N;CENTRO;(83)4551096;58985000.0;PB;Santana de Mangueira;2016;5
13831;20925;2632748;-8.78223;-36.61616;UNIDADE DE SAUDE DA FAMILIA DO CAMPINHO;SITIO CAMPINHO;S/N;ZONA RURAL;(87)37831104;55360000.0;PE;Caetés;2016;5
13834;20943;2633221;-8.613517284393058;-36.76139116287121;UBSF PEDRA FIXE ANTONIO PEDRO DA SILVA;SITIO PEDRA FIXE;S/N;ZONA RURAL;(87)38331178;55270000.0;PE;Venturosa;2016;5
13837;20929;2434032;-7.5592318548671615;-34.9983762971528;PSF DO GAMBA;RUA DO CHAFARIS;S/N;GAMBA;(81)36260263;55900000.0;PE;Goiana;2016;5
13842;20932;2343827;-8.10919653733865;-35.0659561157227;PSF NOSSA SENHORA DAS GRACAS;RUA CARLOS LACERDA BR 232;S/N;N SRA DAS GRACAS;(81)35351152;54800000.0;PE;Moreno;2016;5
13845;20970;2368676;-6.70500755310039;-41.3304805755603;PS DO POVOADO SERRA DO MARACUJA;POVOADO SERRA DO MARACUJA;S/N;ZONA RURAL;;64635000.0;PI;São João da Canabrava;2016;5
13849;20936;5155479;-8.16539146735745;-34.921173467260296;USF CORREGO DA GAMELEIRA;RUA NOSSA SENHORA DO DESTERRO;444;JARDIM JORDAO;81-3462-1469;54320410.0;PE;Jaboatão dos Guararapes;2016;5
13851;21158;2601893;-12.1495870700754;-39.2484989182822;USF DE AREIA;POVOADO DE AREIA;01;ZONA RURAL;(75) 2392258;44670000.0;BA;Anguera;2016;5
13852;21186;4022688;-13.2541143730901;-43.41714164213899;UNIDADE BASICA DE SAUDE SAO JOAO E PARQUE VERDE;PRACA DA IGREJA;S/N;SAO JOAO;(77)4816545;47600000.0;BA;Bom Jesus da Lapa;2016;5
13863;20903;2356694;-6.966983063279638;-34.8394300208048;USF MONTE CASTELO;RUA MANOEL FELICIO PINTO;152;MONTE CASTELO;;58101042.0;PB;Cabedelo;2016;5
13864;20930;2674084;-7.82597780227638;-34.913027286528504;USF TAEPE;RUA RUBENS MARTINS BERTA;S/N;TAEPE;(81)35431772;53610000.0;PE;Igarassu;2016;5
13865;20926;2636085;-7.72437221003539;-35.3295704142006;UNIDADE DE SAUDE DA FAMILIA CANAFISTULA;POVOADO DE CANAFISTULA;S/N;ZONA RURAL;(81)36471156;55845000.0;PE;Buenos Aires;2016;5
13870;21024;2560097;-6.07046571160569;-35.2402746487129;UBS CICERO LOPES BANDEIRA;PAU BRASIL;S/N;ZONA RURAL;;59162000.0;RN;São José de Mipibu;2016;5
13874;21026;2693704;-6.1303496360777;-37.9837703704823;UNIDADE BASICA DE SAUDE SILEUDA MARIA NUNES;SITIO BOA VISTA;S/N;ZONA RURAL;33980020;59808000.0;RN;Serrinha dos Pintos;2016;5
13886;20912;2592797;-6.8084485;-35.0788522259515;UNIDADE DE SAUDE DA FAMILIA DE PIABUCU;SITIO PIABUCU;S/N;ZONA RURAL;;58297000.0;PB;Rio Tinto;2016;5
13888;20952;5674794;-3.0086660385131;-41.3205671310413;PSF DA BOA VISTA PSF;LOCALIDADE BOA VISTA;S/N;ZONA RURAL;;64222000.0;PI;Cajueiro da Praia;2016;5
13890;20947;2365626;-6.847207546233928;-41.2244582176196;POSTO DE SAUDE DE LAGOA DO CAJUEIRO;LAGOA DO CAJUEIRO;S/N;LAGOA DO CAJUEIRO;;64630000.0;PI;Bocaina;2016;5
13896;20890;2609134;-3.4202241897582;-42.04600811004521;PS PITOMBEIRAS;POVOADO PITOMBEIRA;S/N;ZONA RURAL;;64175000.0;PI;Murici dos Portelas;2016;5
13897;21136;3748634;-3.1189521561697595;-40.8299389910215;UNID BASICA DE SAUDE CAETANO DIAS OLIVEIRA;RUA LIVIO BARRETO;S/N;SAO RAIMUNDO;;62430000.0;CE;Granja;2016;5
13906;20906;3451763;-6.852714999999999;-35.4899649848849;UBS ALTO DA BOA VISTA IRACEMA DA SILVA PONTES;RUA PROJETADA;S/N;CONJUNTO ALTO DA BOA;;58200000.0;PB;Guarabira;2016;5
13912;20901;2342758;-6.966983063279638;-34.8394300208048;USF LEONOR VIANA;R CAROLINE CARDOSO;S/N;POCO;(83)2501271;58101502.0;PB;Cabedelo;2016;5
13913;20954;2369850;-4.84021782875047;-42.1726942062366;CENTRO DE SAUDE III;RUA CEARA;S/N;FATIMA;86 32521722;64280000.0;PI;Campo Maior;2016;5
13918;20907;2334674;-6.849562599999999;-35.48545900000001;UBS BAIRRO NOVO LUIZ TOLENTINO DE ALUSTAU;RUA JOSE EPAMINONDAS;S/N;NOVO;( );58200000.0;PB;Guarabira;2016;5
13927;20804;2655853;-6.3319015502927805;-44.1998004913317;UNIDADE BASICA DE SAUDE AGUA BRANCA;POVOADO AGUA BRANCA;456;ZONA RURAL;;65860000.0;MA;Sucupira do Norte;2016;5
13932;20900;2608081;-6.62161231040935;-35.570511817931106;UNID PSF DE CAJAZEIRAS;SITIO CAJAZEIRAS;S/N;ZONA RURAL;(83)3671125;58220000.0;PB;Bananeiras;2016;5
13941;21197;6848923;-3.54488253593435;-39.8477125167835;UNIDADE BASICA DE SAUDE RIACHAO;DISTRITO DE RIACHAO;S/N;RIACHAO;;62530000.0;CE;Miraíma;2016;5
13943;20905;3702464;-7.582941177317691;-35.790650903452104;ESF ANTONIO PAULINO DA SILVA;SITIO CARACOLZINHO;S/N;ZONA RURAL;8333471074;58492000.0;PB;Gado Bravo;2016;5
13953;21073;2476924;-10.506099631900302;-37.0548329945789;CLINICA DE SAUDE DA FAMILIA JOSEFA PAIXAO;RUA ESTRADA DE FERRO;S/N;SAO CRISTOVAO;(79)02631279;49700000.0;SE;Capela;2016;5
13957;21025;2381249;-6.210365295409981;-38.4911584854115;CENTRO DE SAUDE VERA REGO;RUA 13 DE MAIO;S/N;CENTRO;(84) 3532122;59920000.0;RN;São Miguel;2016;5
13958;20953;2778122;-7.05585122108439;-42.39207744598271;US EXU;POVOADO EXU;S/N;ZONA RURAL;;64500000.0;PI;Oeiras;2016;5
13965;20949;2364700;-5.8166062831877;-42.514579296110796;UBS AGNELO MENDES FEITOSA;CONJUNTO FRANCISCO TAVARES;S/N;HABITAT BRASIL;(86)32841107;64455000.0;PI;Barro Duro;2016;5
13966;20957;2369346;-3.6783492565154;-42.67139196395751;PS BARRINHA;LOCALIDADE BARRINHA;S/N;CENTRO;(86)3401222;64150000.0;PI;Matias Olímpio;2016;5
13970;20950;2365863;-4.0204123357539;-42.075218732031004;PS BOM ASSUNTO;BOM ASSUNTO;S/N;ZONA RURAL;(86)33471278;64190000.0;PI;Batalha;2016;5
13971;20967;5996252;-4.2760686932553496;-41.7785048523536;UBSF SUSSUARANA PSF 22;LOCALIDADE SUSSUARANA DE CIMA;00;ZONA RURAL;(86)32760016;64260000.0;PI;Piripiri;2016;5
13972;20871;2325454;-6.6251957416532505;-42.694029808043204;SMS DE FRANCISCO AYRES PSF;RUA DO AMARANTE;S/N;CENTRO;(08)65601176;64475000.0;PI;Francisco Ayres;2016;5
13975;20933;2346656;-8.0966204152407;-34.969310760498;USF EDUARDO MENEZES;RUA MARIA AUGUSTA DUTRA;S/N;SUCUPIRA;81 3251-8797;54280666.0;PE;Jaboatão dos Guararapes;2016;5
13976;20922;2630478;-8.47436;-35.74041;PSF ESTREITO DO NORTE;ESTREITO DO NORTE;S/N;ZONA RURAL;( );55680000.0;PE;Bonito;2016;5
13981;20937;2713284;-7.90044665336586;-40.152819156645606;USF TAMBORIL;FAZENDA TAMBURIL;S/N;ZONA RURAL;(87)38741595;56200000.0;PE;Ouricuri;2016;5
13983;20920;2630486;-8.47696065902685;-35.6768989562978;PSF COLONIA JAPONESA;COLONIA;S/N;ZONA RURAL;( );55680000.0;PE;Bonito;2016;5
13986;20959;2609223;-5.55148563139471;-42.617398915907;CENTRO DE SAUDE UBS DO MONTE ALEGRE;MONTE ALEGRE;S/N;ZONA RURAL;(86)258 1172;64450000.0;PI;Monsenhor Gil;2016;5
14000;21080;2423200;-10.9298944473263;-37.1187257766713;U B S MARIA JOSE S FIGUEIROA;AV MARGINAL SN;S/N;ROSA ELZE;079 3257-8939;49100000.0;SE;São Cristóvão;2016;5
14002;20955;2609630;-6.7865467071531205;-43.01892042159911;PS PAULO MARTINS;RUA MAJOR CARLINDO NUNES;1448;VIAZUL;;64800000.0;PI;Floriano;2016;5
14003;21129;2725568;-5.7525444030760005;-40.0211119651783;UNIDADE BASICA DE SAUDE SANTANA;SANTANA;S/N;CARRAPATEIRAS;;63660000.0;CE;Tauá;2016;5
14008;20931;2500027;-8.89218807220433;-35.7423019409169;POSTO DE SAUDE DA FAMILIA III;PRACA NOSSA SENHORA DA CONCEICAO;S/N;ZONA RURAL;(81)36831025;55405000.0;PE;Maraial;2016;5
14010;20972;3009440;-4.58601815914006;-42.8629297159505;UNIDADE DE SAUDE CLARICE FRANCISCA DOS SANTOS;POVOADO BANDEIRA;S/N;RURAL;;64120000.0;PI;União;2016;5
14012;20940;2428202;-7.90685176849342;-35.6096291542043;PSF III SOBRADINHO;SITIO SOBRADINHO;S/N;ZONA RURAL;(81)36541156;55675000.0;PE;Salgadinho;2016;5
14014;20921;20346;-8.29226374626136;-34.9557495117177;USF ITAPUAMA;PRAIA DE ITAPUAMA;S/N;ITAPUAMA;(81)35227900;54505560.0;PE;Cabo de Santo Agostinho;2016;5
14015;20927;3003108;-8.51510548326908;-39.3098413379707;PSF CACILDA BRANDAO CAVALCANTE;RUA MAFALDA DE JESUS;007;BEIRA RIO;(87) 3875-1192;56180000.0;PE;Cabrobó;2016;5
14019;20919;6584381;-8.3784329;-35.4495061;PSF AMARA MARIA DE ANDRADE;RUA FRANCISCO TEXEIRA 2LADO;169;CENTRO;;55515000.0;PE;Amaraji;2016;5
14023;20958;2365901;-5.9946513175962615;-42.537131309508;POSTO DO PSF GOMES;POVOADO GOMES;01;ZONA RURAL;(86)32991121;64470000.0;PI;Hugo Napoleão;2016;5
14027;20910;2608332;-6.88184022903422;-35.507812499999;UNIDADE ANCORA DO PSF II CUITEGI CHA BOA ESPERANCA;SITIO CHA DA BOA ESPERANCA;01;Z RURAL;;58208000.0;PB;Cuitegi;2016;5
14030;20918;2597241;-7.46847152709939;-37.96608924865609;USF PITOMBEIRA;DESTRITO DE PITOMBEIRA;S/N;CENTRO;83934851226;58795000.0;PB;Santana dos Garrotes;2016;5
14031;20923;2436108;-8.06951165199256;-36.384015083311894;PSF VI TAMBOR;SITIO TAMBOR DE CIMA;00;TAMBOR;(81)37471196;55170000.0;PE;Brejo da Madre de Deus;2016;5
14040;20941;2427915;-8.70468927853918;-35.0906465455374;POSTO DE SAUDE DA FAMILIA DO OITIZEIRO;RUA ALTO DA BELA VISTA;S/N;OITIZEIRO;(081) 36761154;55578000.0;PE;Tamandaré;2016;5
14041;20904;2606291;-6.32125854492169;-37.641520500182;UBS FRANCISCO MARTINS DA SILVA;DISTRITO DE PICOS;S/N;ZONA RURAL;3441-3491;58884000.0;PB;Catolé do Rocha;2016;5
14046;20942;2707012;-7.756358385085829;-40.27126550674321;USF SARAIVA;RUA WILLIS GOMES DE ANDRADE;S/N;VILA SARAIVA;(87)38701074;56250000.0;PE;Trindade;2016;5
14049;21027;3012425;-6.28140091896039;-35.819270610808296;UNIDADE DE SAUDE DA FAMILIA VII BENTO VICENTE;RUA JOAO ATAIDE DE MELO;672;CENTRO;;59240000.0;RN;Tangará;2016;5
14050;20938;2634082;-8.89547109603856;-38.4024095535267;PSF PROJETO ICO MANDANTES;AGROVILA 06 BLOCO 03;S/N;ZONA RURAL;;56460000.0;PE;Petrolândia;2016;5
14052;20916;2342804;-7.06536831063555;-36.5707010055171;UNIDADE DE SAUDE DA FAMILIA DE IPUEIRAS;DISTRITO DE IPUEIRAS;S/N;ZONA RURAL;(83) 3821240;58660000.0;PB;Juazeirinho;2016;5
14054;21175;7785593;-11.4836351;-39.4237162;UNIDADE DE SAUDE DA FAMILIA ROQUE CARNEIRO DE OLIVEIRA;RUA DO PRADO;S/N;POCINHO;7532021299;48750000.0;BA;Retirolândia;2016;5
14055;21253;4013239;-6.16697788238507;-35.5160522460927;UBS CAJUEIRO;SITIO CAJUEIRO;S/N;ZONA RURAL;;59247000.0;RN;Lagoa Salgada;2016;5
14063;21387;7868693;-4.1110738;-38.4849931;UNIDADE BASICA DE SAUDE FRANCISCO CLEITON DOS SANTOS;RUA LIA DE OLIVEIRA CORREIA;S/N;PLANALTO HORIZONTE;8533366050;62884570.0;CE;Horizonte;2016;5
14066;21281;7818327;-3.971033;-41.6809724;UBS ESPLANADA 02 CENTRO MEDICO;RUA PARAIBA;68;ESPLANADA;;64240000.0;PI;Piracuruca;2016;5
14068;21351;2369303;-7.13599312024873;-41.031200960402;PS KM 75;AVENIDA MANOEL ALVES DE SOUSA;S/N;CENTRO;( );64578000.0;PI;Campo Grande do Piauí;2016;5
14069;21523;7351038;-10.0352;-44.30373;UBS DE CURIMATA EQUIPE V;AVENIDA TELESFORO GUERRA;S/N;CENTRO;;64960000.0;PI;Curimatá;2016;5
14073;21537;3038211;-12.23504;-44.41402;UNIDADE DE SAUDE DA FAMILIA MANOEL RAMOS DE SOUZA;POVOADO DE MATA DO CEDRO;S/N;ZONA RURAL;7736181162;47950000.0;BA;Cristópolis;2016;5
14078;21559;3013200;-10.4713547229764;-43.4925985336291;UNIDADE DE SAUDE DA FAMILIA VALDIMIRO MARQUES SOARES;POVOADO DE ALTAMIRA BURITIRAMA BA;S/N;ZONA RURAL;;47120000.0;BA;Buritirama;2016;5
14081;21522;7745982;-9.8000846;-36.2847751;UBS 18 EDJA LIDIANE;CONJUNTO OLIVAL TENORIO;S/N;CENTRO;8232751183;57250000.0;AL;Campo Alegre;2016;5
14082;21539;3835200;-7.5110701505576385;-37.6422090442572;USB JOSE LOUREDO DE SANTANA;SITIO ARROZ;S/N;ZONA RURAL;(83)34811027;58748000.0;PB;Água Branca;2016;5
14089;21488;2321777;-7.5110701505576385;-37.6422090442572;UNIDADE DE SAUDE DA FAMILIA JOSE GOMES FILHO;RUA ANTONIO TIBURTINO DE SOUSA;02;GUALTERINA ALENCAR V;(83)4811026;58748000.0;PB;Água Branca;2016;5
14091;21280;3153657;-7.73386645898496;-37.99366400961621;UBS PSF VARZEA;POVOADO DA VARZEA;S/N;VARZEA;;58755000.0;PB;Princesa Isabel;2016;5
14100;21411;7866151;-3.5525711221520098;-43.2913416624069;CENTRO DE SAUDE DA FAMILIA MARIA DA PENHA;POVOADO BOM SUCESSO;S/N;BOM SUCESSO;;65510000.0;MA;Mata Roma;2016;5
14109;21534;2464462;-3.20769667625418;-43.4130334854113;UBS SAO SEBASTIAO;RUA SANTO ONOFRE;S/N;FAZENDA;;65530000.0;MA;Urbano Santos;2016;5
14110;21254;2374056;-5.886459045;-38.623005049266794;UBASF NOVA FLORESTA;RUA JOSE LUCIO MAIA;S/N;DISTRITO NOVA FLORES;(88) 3522-1001;63475000.0;CE;Jaguaribe;2016;5
14112;21944;2366541;-7.85252009217664;-42.81693608979629;PS SANTA RITA DE CASSIA;AV ABEL CRONEMBERGER;S/N;CENTRO;(89)35320105;64898000.0;PI;Pajeú do Piauí;2016;5
14113;21911;3944573;-6.21684551238996;-40.696535110472496;POSTO DE SAUDE DE BRASILIA;AV LUIS GONZAGA FREIRE;S/N;BRASILIA;;63680000.0;CE;Parambu;2016;5
14115;21814;4028619;-13.4376744923124;-40.4312875473779;U S F IRMA DULCE;RUA ANTONIO LAURITO;S/N;IRMA DULCE;(73)35332753;45360000.0;BA;Maracás;2016;5
14117;21667;2562944;-7.286070585250639;-40.4553079605091;CENTRO DE SAUDE DE SALITRE;RUA SAO PEDRO;S/N;CENTRO;5331184;63155000.0;CE;Salitre;2016;5
14118;21936;2719738;-9.91658;-36.35016;01 06 CENTRO DE SAUDE MANUEL A DE SANTANA;RUA FRANCISCO TIMOTEO;S/N;CENTRO;(82)35431114;57265000.0;AL;Teotônio Vilela;2016;5
14119;21647;2368013;-4.5567190647123885;-41.9702625274646;UBAS ARGEU BATISTA RANGEL;RUA JOAO DE MACEDO BRITO;S/N;CENTRO;86 3263 0102;64278000.0;PI;Cocal de Telha;2016;5
14125;21793;2609002;-6.7502575;-35.441719;UNIDADE DE SAUDE DA FAMILIA PSF SERTAOZINHO;PRES JOAO PESSOA;30;CENTRIO;(83)36851082;58268000.0;PB;Sertãozinho;2016;5
14127;21706;2598590;-14.85033;-40.84499;USF DO CAPINAL;POVOADO DE CABECEIRA DA JIBOIA;S/N;ZONA RURAL;7734248939;45065000.0;BA;Vitória da Conquista;2016;5
14133;21881;6662226;-6.5733110904691685;-35.1076054573049;UNIDADE BASICA DE SAUDE RENATO HERMINIO BATISTA;RODOVIA PB N 065;S/N;SITIO;(83)3297-1318;58292000.0;PB;Mataraca;2016;5
14134;21835;3882195;-15.2436375617977;-39.3521904945362;USF ASSENTAMENTO SANTO ANTONIO;ASSENTAMENTO SANTO ANTONIO;S/N;ZONA RURAL;(73) 36731277;45695000.0;BA;Arataca;2016;5
14136;21864;2482029;-4.253071546554439;-38.5564970970143;PONTO DE APOIO DE TOURADA;RUA ROSENDO JOSE DA SILVA;1099;CAMPESTRE;;62875000.0;CE;Chorozinho;2016;5
14138;21605;2369257;-6.11114501953107;-41.78946018218871;POSTO DE SAUDE DE AROAZES PSF;RUA DR ANTONIO VELOSO;490;CENTRO;(89)4681255;64310000.0;PI;Aroazes;2016;5
14139;21699;2645572;-5.928819179534742;-47.383775711058206;UNIDADE BASICA DE SAUDE SUMAUMA;RUA PARANA;S/N;CENTRO;(99);65938000.0;MA;Ribamar Fiquene;2016;5
14140;21945;2008165;-9.563;-35.824;UNIDADE DE SAUDE DA FAMILIA IV PRIMAVERA;FAZENDA PRIMAVERA;01;PRIMAVERA;(82)2661148;57120000.0;AL;Satuba;2016;5
14149;21833;5853842;-10.7057046890256;-38.172941207884605;UNIDADE DE SAUDE DA FAMILIA DO BONFIM;POVOADO BONFIM;S/N;ZONA RURAL;(75) 3658-2161;48415000.0;BA;Fátima;2016;5
14151;21704;5708370;-7.840697765350112;-35.23339033126729;UBS JARDIM NEOPOLES;RUA JOSE ROSENDO OLIVEIRA;156;JARDIM NEOPOLES;;55819910.0;PE;Carpina;2016;5
14152;21813;3009629;-10.6854164600369;-39.309768676756704;UNIDADE DE SAUDE DA FAMILIA DO POVOADO DEXAI;POVOADO DEXAI;S/N;ZONA RURAL;3274-1346;48840000.0;BA;Cansanção;2016;5
14156;21937;2719886;-9.90912079811067;-36.3498330116261;02 CENTRO DE SAUDE TEOTONIO VILELA;RUA JACINTO JERONIMO DA SILVA;S/N;CENTRO;08235431114;57265000.0;AL;Teotônio Vilela;2016;5
14157;21824;7001835;-12.11288;-43.9008;UNIDADE DE SAUDE DA FAMILIA RITA RODRIGUES DE ARAUJO;PRACA LAFAIETE VITORIO DE OLIVEIRA;S/N;CENTRO;;47940000.0;BA;Wanderley;2016;5
14163;21770;2321661;-7.73386645898496;-37.99366400961621;UBS PSF LAGOA DA CRUZ;POVOADO LAGOA DA CRUZ;S/N;ZONA RURAL;( );58755000.0;PB;Princesa Isabel;2016;5
14164;22358;7729138;-3.46715844568812;-41.5484046936035;UNIDADE BASICA DE SAUDE FAVEIRA;POVOADO FAVEIRA;S/N;ZONA RURAL;;64235000.0;PI;Cocal;2016;5
14165;22020;3785866;-11.1802840232846;-40.5129432678211;PSF DA CAIXA DAGUA;RUA 02 DE NOVEMBRO;S/N;CAIXA DAGUA;74 3622-2147;44700000.0;BA;Jacobina;2016;5
14166;22255;2591707;-6.6042463698627;-35.4372596740723;POSTO DE SAUDE DO BRAGA ANTONIO SORES DA CRUZ FILHO;SITIO BRAGA;12;ZONA RURAL;(83)33701327;58254000.0;PB;Logradouro;2016;5
14170;22104;7364482;-3.494;-39.579;UNIDADE BASICA DE SAUDE LIVRAMENTO;LOCALIDADE LIVRAMENTO;S/N;LIVRAMENTO;;62501365.0;CE;Itapipoca;2016;5
14176;22263;2757907;-7.455189228057638;-37.8010797500599;PSF III UNIDADE BASICA DE SAUDE DA FAMILIA ZONA RURAL;POVOADO CACHOEIRA DOS COSTAS;S/N;SITIO;(83)4841250;58750000.0;PB;Juru;2016;5
14178;22161;7906323;-17.5383995;-39.7440104;PSF NOVO JERUSALEM;AVENIDA LYDY TRAVAGLIO;S/N;JOAO MENDONCA;;45989246.0;BA;Teixeira de Freitas;2016;5
14179;22109;7789440;-10.574559570598;-40.265064239502;USF ULISSES FELIX DE OLIVEIRA;POVOADO DE BREJAO DA GROTA;S/N;ZONA RURAL;;44780000.0;BA;Antônio Gonçalves;2016;5
14180;22366;6290604;-6.15869433436922;-35.1241762279568;UBS CARNAUBA;RUA DA INTEGRACAO;S/N;CARNAUBA;84-32480119;59168000.0;RN;Senador Georgino Avelino;2016;5
14182;22254;2556626;-16.375167232256402;-39.5841719409864;UNIDADE BASICA DE SAUDE DO ROSA NETO;RUA SAO JUDAS TADEU;21;ROSA NETO;(73)3261-6146;45823210.0;BA;Eunápolis;2016;5
14186;22291;2606518;-6.84612393379192;-38.3467698097218;UBS II JOSE CASIMIRO GOMES;RUA SEBASTIAO ANDRADE DA SILVA;S/N;EDILSON ALVES;;58819000.0;PB;Marizópolis;2016;5
14188;22354;7901860;-6.218271700000002;-39.1959729;UNIDADE BASICA DE SAUDE JOAQUIM ALVES NETO;RUA JOSE VITORINO;S/N;CENTRO;;63515000.0;CE;Quixelô;2016;5
14189;22101;2554526;-5.7572650909422185;-39.629659652708796;UNIDADE BASICA DE SAUDE JOAO CASTELO MARTINS;RUA ANTONIO NONATO DE CARVALHO;S/N;TEJUBANA;;63610000.0;CE;Mombaça;2016;5
14191;22115;3520676;-5.014690160751201;-42.79704809188721;UNIDADE BASICA DE SAUDE MARCOS G DA SILVEIRA NOVA TERESINA;AV JANGO;S/N;PEDRA MOLE;86 3231 6746;64065000.0;PI;Teresina;2016;5
14198;22165;7130627;-3.49275;-45.2501;UNIDADE DE SAUDE PACS BAIRRO DE FATIMA;RUA DO FIO;S/N;BAIRRO DE FATIMA;;65360000.0;MA;Monção;2016;5
14200;22075;2717751;-5.876880884170362;-46.70069217681751;CENTRO DE SAUDE RAMIRO MARTINS VIANA;RUA ANTONIO BATISTA;280;CENTRO;(99) 35320241;65925000.0;MA;Sítio Novo;2016;5
14209;22616;3020924;-13.758562803268001;-41.7727231979358;USF CENTRO II;RUA SANTA RITA;S/N;CENTRO;(77)3448-2121;46165000.0;BA;Dom Basílio;2016;5
14210;22690;5110009;-13.2517755031582;-43.419449329375;UNIDADE BASICA DE SAUDE CAVALHADAS;AVENIDA ALMIRANTE BERUTTE;S/N;CAVALHADAS;77 3481 - 7763;47600000.0;BA;Bom Jesus da Lapa;2016;5
14212;22642;2726297;-3.8470602035521297;-40.4129505157459;CENTRO DE SAUDE DA FAMILIA DE ALMAS;DISTRITO DE ALMAS;S/N;ZONA RURAL;;62184000.0;CE;Cariré;2016;5
14216;22797;7021615;-5.50117183563524;-36.5082550048828;UESF AFONSO LIGORIO BEZERRA SOBRINHO;RUA FRANCISCO DAS CHAGAS SOUZA;S/N;NOVA DESCOBERTA;(84) 3533-2493;59510000.0;RN;Afonso Bezerra;2016;5
14217;22493;3639916;-17.5564139;-39.7432244;PSF KAIKAN SUL;RUA DOS IMIGRANTES;129;KAIKAN SUL;;45992542.0;BA;Teixeira de Freitas;2016;5
14218;22698;2404486;-5.9954881668089115;-42.7034497261035;UNIDADE BASICA DE SAUDE VITORIA ALENCAR;AVENIDA PETRONIO PORTELA;S/N;NOVA VIDA;(86)32891256;64435000.0;PI;São Gonçalo do Piauí;2016;5
14219;22682;7093470;-3.95064;-40.47261;POSTO DE SAUDE DE ANIL;SITIO ANIL;S/N;RURAL;;62184000.0;CE;Cariré;2016;5
14223;22417;2407019;-5.13703107833847;-42.8000950813281;UNIDADE BASICA DE SAUDE DR LEONIDAS DEOLINDO SACI;PRACA PREFEITO JOAO MENDES;S/N;SACI;(86) 32159161;64020200.0;PI;Teresina;2016;5
14224;22506;3924904;-12.002842426299699;-42.6274681091296;UNIDADE DE SAUDE DA FAMILIA JOSE BARBOSA CAMPOS;RUA PROJETADA;S/N;PARQUE DAS ARVORES;77-36442062;47560000.0;BA;Brotas de Macaúbas;2016;5
14225;22508;2724839;-3.6299454464258;-39.6308921277523;POSTO DE SAUDE DE CAMARA;DISTRITO DE CAMARA;S/N;CENTRO;3460313;62600000.0;CE;Itapagé;2016;5
14226;22556;6410294;-11.419032812118196;-40.2975726127613;UNIDADE DE SAUDE DA FAMILIA CINELEX;RUA AMADO MACIEL DE ALMEIDA;S/N;CINELEX II;;44710000.0;BA;Serrolândia;2016;5
14227;22467;3008320;-5.80377459526045;-35.823390483855206;UNIDADE BASICA DE SAUDE MARIA LUIZA DA CONCEICAO;RUA N S DA CONCEICAO;S/N;N S DA CONCEICAO;(84)2690088;59470000.0;RN;Riachuelo;2016;5
14232;22488;2524244;-12.092596003418901;-41.644248389869105;UNIDADE DE SAUDE DA FAMILIA VICENSA DA CONCEICAO;DISTRITO DE SEGREDO;S/N;DIST SEDREDO;;46990000.0;BA;Souto Soares;2016;5
14233;22633;2428822;-7.5788712501523685;-34.830780029295894;POSTO MEDICO E DENTARIO CARNE DE VACA;RUA SAO JORGE;119;DISTRITO DE CARNE DE;(81)36260263;55900000.0;PE;Goiana;2016;5
14234;22646;3538419;-13.25101;-43.41115;UNIDADE BASICA DE SAUDE SANTA CATARINA;AVENIDA SANTA CATARINA;S/N;AMARALINA;(77)34815039;47600000.0;BA;Bom Jesus da Lapa;2016;5
14239;22497;6428630;-10.8209967613217;-41.210296154021;USF DO POVOADO DE AURORA SENHOR OTAVIANO ALVES DE OLIVEIRA;POVOADO DE AURORA;S/N;AURORA;;44718000.0;BA;Ourolândia;2016;5
14240;22489;7541295;-5.73926;-39.62328;UNIDADE BASICA DE SAUDE DE CIPO;DISTRITO DE CIPO;S/N;ZONA RURAL;88 35831168;63610000.0;CE;Mombaça;2016;5
14242;22799;2722569;-9.962271451949778;-36.4349341392507;USF 09 AGUA DE MENINOS;POVOADO AGUA DE MENINOS;S/N;ZONA RURAL;(82)35431114;57265000.0;AL;Teotônio Vilela;2016;5
14243;22466;7824076;-5.6217422;-37.2544065;UNIDADE BASICA DE SAUDE ESPEDITO GENESIO DA SILVA;PA NOVA VIDA;S/N;ZONA RURAL;(84) 996930035;59670000.0;RN;Upanema;2016;5
14246;22445;5677262;-11.3357278753122;-38.9609581594029;UNIDADE DE SAUDE DA FAMILIA BOMBINHA;RUA NOVA SOURE;70;BOMBINHA;;48760000.0;BA;Araci;2016;5
14249;22836;6010989;-9.90497946739168;-36.35723590850721;USF 15 NEUZA JOSEFA DO NASCIMENTO FIRMINO;RUA VEREADOR MANOEL FIRMINO;179;CENTRO;82354311114;57265000.0;AL;Teotônio Vilela;2016;5
14252;22868;2636476;-7.71164059638955;-35.565811258773714;POSTO DE SAUDE DA FAMILIA DE FIGUEIRAS;SITIO FIGUEIRAS;S/N;FIGUEIRAS;;55745000.0;PE;Orobó;2016;5
14256;22986;2723824;-4.23261;-39.1921;UNIDADE BASICA DE SAUDE PREFEITO RAIMUNDO DIAS MARTINS;RUA FERNANDO BARROSO;S/N;SLTO DA BELA VISTA;3241142;62730000.0;CE;Caridade;2016;5
14258;22929;2417324;-11.197405253261001;-38.0633174402509;U S F SAMBAIBA;PSF POVOA SAMBAIBA;S/N;POVOADO;;48475000.0;BA;Itapicuru;2016;5
14260;22944;2724987;-4.28688883781421;-38.4263563156117;PONTO DE APOIO DE NOVO HORIZONTE;NOVO HORIZONTE;S/N;LAGOA DO CEDRO;;62875000.0;CE;Chorozinho;2016;5
14262;22802;2722593;-10.0108516216275;-36.390559673308296;USF 10 IMBURI DO INACIO;POVOADO IMBURI DO MATAO;S/N;ZONA RURAL;8235431114;57265000.0;AL;Teotônio Vilela;2016;5
14263;23152;2492962;-15.424665212630801;-40.4657793045032;UNIDADE DE SAUDE DA FAMILIA HERMES JOSE MUNIZ;RUA SAO JOSE;35;CENTRO;77 3274-2608;45760000.0;BA;Macarani;2016;5
14264;22811;2722585;-9.916584599999998;-36.3501553;USF 04 FRANCISCA ASSIS BORGES PEREIRA;RUA SAO CIPRIANO;S/N;CENTRO;8235431114;57265000.0;AL;Teotônio Vilela;2016;5
14266;23174;2524198;-12.092596003418901;-41.644248389869105;UNIDADE DE SAUDE DA FAMILIA NIRALDO LOURENCO DOS SANTOS;POVOADO DE CAMPO ALEGRE;S/N;POV CAMPO ALEGRE;;46990000.0;BA;Souto Soares;2016;5
14268;22839;2722615;-9.90749788301097;-36.35556314222049;USF 12 MANOEL JACINTO G DA SILVA;POVOADO GERAIS;S/N;ZONA RURAL;8235431114;57265000.0;AL;Teotônio Vilela;2016;5
14271;22808;2722682;-9.955887794494341;-36.396117210387104;USF 08 GULANDIM;POVOADO GULANDIM;S/N;ZONA RURAL;(82)35431114;57265000.0;AL;Teotônio Vilela;2016;5
14272;23150;2326086;-6.4492964744566;-41.9112968444812;PS GIL MARQUES;GIL MARQUES;08;GIL MARQUES;;64530000.0;PI;Novo Oriente do Piauí;2016;5
14275;23004;2511029;-11.3039767742154;-39.7322273254383;UNIDADE DE SAUDE DA FAMILIA DE SISALANDIA;DISTRITO DE SISALANDIA;S/N;ZONA RURAL;(75)32652099;48880000.0;BA;Santaluz;2016;5
14276;23050;3983706;-7.68136382102944;-37.2142553329457;ESFSB M1 DE BONFIM;DISTRITO DE BONFIM;100;CENTRO;34881055;56700000.0;PE;São José do Egito;2016;5
14277;23026;3957772;-16.375167232256402;-39.5841719409864;UNIDADE BASICA DE SAUDE LOURDES SEIXAS;AV SUDOESTE;S/N;SANTA LUCIA;73-3261-6146;45822230.0;BA;Eunápolis;2016;5
14279;23107;2493381;-12.512724642984901;-38.495309845373995;USF MILITAO DAMASCENO MAURICIO;FAZENDA MASSAPE;S/N;MASSAPE;7136558020;43850000.0;BA;São Sebastião do Passé;2016;5
14280;22892;7131135;-3.492;-45.25100000000001;UNIDADE SAUDE DA FAMILIA PALMEIRINHA;RUA BARAO;S/N;PALMEIRINHA;;65360000.0;MA;Monção;2016;5
14281;22997;2532247;-12.9357333313259;-38.619159746346995;UNIDADE DE SAUDE DA FAMIILIA DE GAMBOA;RUA JOSE EPIFANIO;S/N;GAMBOA;(71)36332350;44470000.0;BA;Vera Cruz;2016;5
14282;23034;3983854;-3.50022912025441;-39.5977950096119;UNIDADE BASICA DE SAUDE MOURAO;RUA JOAQUIM RODRIGUES TEIXEIRA;S/N;MOURAO;;62500785.0;CE;Itapipoca;2016;5
14283;22818;2722623;-9.901192188262652;-36.3637804985036;USF 05 SINEIDE FREIRE MONTEIRO;AVENIDA MARIA JEANE MOREIRA SAMPAIO;2073;SAO MIGUEL;8235431114;57265000.0;AL;Teotônio Vilela;2016;5
14284;22950;3438449;-8.723418245686341;-39.1165879396428;UNIDADE DE SAUDE DA FAMILIA UMBUZEIRO;POVOADO UMBUZEIRO;100;ZONA RURAL;(75)32872387;48680000.0;BA;Abaré;2016;5
14286;23103;2388812;-14.564502239226902;-39.5531201362598;UNIDADE DE SAUDE DA FAMILIA CELSINA CASTRO DOS SANTOS;RUA SAO VICENTE;S/N;MARIA GABRIELA;(73)2411110;45638000.0;BA;Coaraci;2016;5
14291;22975;2426838;-4.45709109306322;-38.65267038345221;POSTO DE SAUDE DE CAPIVARA;CAPIVARA;S/N;CAPIVARA;3371101;62750000.0;CE;Aracoiaba;2016;5
14294;22827;2722577;-9.90749788301097;-36.35556314222049;USF 07 JUMELICIA M CONCEICAO;POVOADO ALTO DA ROSA;S/N;ZONA RURAL;(82)35431114;57265000.0;AL;Teotônio Vilela;2016;5
14295;22934;2721740;-9.780610799789141;-36.3573002815236;UBS 03 ARNOBIO DA ROCHA TAVARES;RUA MANOEL JOAQUIN DA SILVA;S/N;POVOADO PIMENTEIRA;;57250000.0;AL;Campo Alegre;2016;5
14296;23172;2509482;-10.834;-38.536;UNIDADE DE SAUDE DA FAMILIA DO POVOADO CURRAL FALSO;POVOADO CURRAL FALSO;S/N;CURRAL FALSO;;48400000.0;BA;Ribeira do Pombal;2016;5
14297;22828;2722631;-9.91658;-36.35016;USF 11 TEN JOSE ALBINO;LOT PARQUE DO FUTURO;S/N;CENTRO;(82)35431114;57265000.0;AL;Teotônio Vilela;2016;5
14299;22973;2517221;-4.83392858315588;-40.319068513295896;UNIDADE DE SAUDE DA FAMILIA SEDE II;RUA CIRO OTAVIO;S/N;DISTRITO DE SUCESSO;(88)36171178;63750000.0;CE;Tamboril;2016;5
14300;22890;7789459;-10.5738845856965;-40.2798271179199;USF ROSALIA DE CARVALHO SANTOS;AVENIDA ARAGUACI FONSECA SN;S/N;PAU FERRO;;44780000.0;BA;Antônio Gonçalves;2016;5
14301;23120;8015775;-13.2541143730901;-43.41714164213899;UNIDADE BASICA DE SAUDE LAGOA GRANDE;PRACA DA IGREJA;S/N;LAGOA GRANDE;;47600000.0;BA;Bom Jesus da Lapa;2016;5
14302;22913;2815354;-7.56891489028909;-37.83509016036879;PSF IV UNIDADE BASICA DE SAUDE DA FAMILIA ZONA RURAL;SITIO CATOLE;S/N;SITIO;(83)4841250;58750000.0;PB;Juru;2016;5
14304;23549;3392996;-5.11715054512009;-42.39630460739011;POSTO DE SAUDE BOM PASSAR;LOCALIDADE BOM PASSAR;01;ZONA RURAL;;64290000.0;PI;Altos;2016;5
14305;23495;3983838;-3.49541187286367;-39.5822596549976;UNIDADE BASICA DE SAUDE ESTACAO;AVENIDA FRANCISCO NANOSA FERNANDES ALVES;S/N;ESTACAO;;62502228.0;CE;Itapipoca;2016;5
14307;23215;2565455;-5.14962673187241;-39.178683757780796;UNIDADE BASICA DE SAUDE ANANELIA F DA SILVA;VILA DE URUQUE;S/N;ZONA RURAL;8210587;63800000.0;CE;Quixeramobim;2016;5
14308;23263;2564637;-4.33124184608447;-38.4816098213185;UNIDADE BASICA DE SAUDE TRIANGULO I;AVENIDA JORGE ALBINO;S/N;TRIANGULO;;62875000.0;CE;Chorozinho;2016;5
14311;23596;2426803;-4.37039380697671;-38.8094409691659;POSTO DE SAUDE DE VARZANTES;RUA SAO JOAO EVANGELISTA;S/N;VARZANTES;33375517;62750000.0;CE;Aracoiaba;2016;5
14313;23347;2369729;-4.6841990947722;-41.4247441291797;PS DE SAO GONCALO;POVOADO SAO GONCALO;S/N;ZONA RURAL;(86)32810028;64253000.0;PI;Milton Brandão;2016;5
14315;23301;2417359;-11.3109527005757;-38.218612375549;U S F TAPERA DO LIMA;POVOADO TAPERA DO LIMA;S/N;POVOADO;;48475000.0;BA;Itapicuru;2016;5
14317;23324;3910881;-4.45916175842272;-38.8986396789539;UNIDADE DE SAUDE DE VIDELINA;RUA VIDELINA;S/N;CENTRO;85-3326-1246;62748000.0;CE;Capistrano;2016;5
14318;23597;7212976;-4.55123269636525;-39.5793992310064;UNIDADE BASICA DE SAUDE DE CAIPIRA;FAZ CAIPIRA;S/N;MORRO BRANCO;;62720000.0;CE;Itatira;2016;5
14319;23208;7698771;-9.78053753575168;-36.348188817501104;UBS 01 E 10 JORGE CORREIA;RUA OSCAR DA CUNHA LIMA;S/N;CENTRO;08232751183;57250000.0;AL;Campo Alegre;2016;5
14321;23242;2469847;-13.115063888382199;-38.891418627708795;UNIDADE DE SAUDE DA FAMILIA DE MUTA;RUA DA ESTRADA;01;MUTA;75 3642-5156;44480000.0;BA;Jaguaripe;2016;5
14322;23425;4011201;-6.954259872436321;-39.54580307006721;POSTO DE SAUDE DE LAMBEDOURO;SITIO LAMBEDOUROO;S/N;SITIO LAMBEDOURO;(88)35441258;63185000.0;CE;Farias Brito;2016;5
14323;23406;2632829;-8.7002813816068;-36.269774436949604;PSF LOTEAMENTO VILELA;LOTEAMENO VILELA;S/N;ZONA RURAL;;55385000.0;PE;Lajedo;2016;5
14324;23457;6931839;-6.223025321960268;-38.6702013015736;ESF CATAVENTO;DISTRITO DE SAO VICENTE;62;CATAVENTO;;63430000.0;CE;Icó;2016;5
14325;23212;5064732;-8.50211977958655;-39.3150687217701;PSF DEOCLECIO PIRES DA SILVA;JOLINDA CALDAS;S/N;BONITINHO;(87) 3875-1310;56180000.0;PE;Cabrobó;2016;5
14326;23379;5982839;-2.95229673385612;-40.4775166511524;UBASF DE BAIXIO;BAIXIO;01;BAIXIO;;62598000.0;CE;Jijoca de Jericoacoara;2016;5
14327;23327;7899262;-5.4643856;-36.5661908;UBS MOACYR AVELINO BEZERRA;ASSENTAMENTO ALTO DA FELICIDADE II;S/N;ASSENTAMENTO ALTO DA;;59510000.0;RN;Afonso Bezerra;2016;5
14328;23535;2006545;-10.127409696578699;-36.1760258674611;USF BARRO PRETO;RUA LINDOLFO SIMOES;S/N;CENTRO ZONA URBANA;;57230000.0;AL;Coruripe;2016;5
14331;23323;6907334;-9.24292445182774;-35.5683445930471;UNIDADE DE SAUDE DE SAUDE MARIA ELIZA DA SILVA;FAZENDA;S/N;ZONA RURAL;;57930000.0;AL;Passo de Camaragibe;2016;5
14332;23333;2310589;-5.51254034042342;-46.788003444670295;UBS LUIS MENDES PEREIRA;AV SAO JOSE;S/N;POV MUNDO NOVO;(98)5322000;65923000.0;MA;Amarante do Maranhão;2016;5
14333;23427;7372221;-14.67;-40.471;USF TAQUARAL;RUA TAQUARAL;S/N;TAQUARAL;;45190000.0;BA;Planalto;2016;5
14336;23524;3020185;-11.34407043457;-38.962626457213204;UNIDADE DE SAUDE DA FAMILIA TIRACOLO;RUA SETE DE SETEMBRO;S/N;TIRACOLO;;48760000.0;BA;Araci;2016;5
