index;gid;co_cnes;lat;long;no_fantasia;no_logradouro;nu_endereco;no_bairro;nu_telefone;co_cep;uf;cidade;ano_ubs_det;mes_ubs_det
0;27;2105462;-15.342934053612499;-43.67032887596379;UAPS NOVA ESPERANCA;AV JOAO TEIXEIRA FILHO;566;CENTRO;(38)38331252;39508000.0;MG;Jaíba;2016;5
8;64;2119684;-16.842480897903;-40.3966641426075;POSTO DE SAUDE DE JIRIBA;POVOADO DE JIRIBA;S/N;ZONA RURAL;;39945000.0;MG;Palmópolis;2016;5
10;316;2210339;-16.754519633283;-41.5078082034317;CENTRO MUNICIPAL DE ESPECIALIDADES EM SAUDE;TRAVESSA PAULO BEZERRA LOPES;S/N;QUADRA;(33)37338070;39615000.0;MG;Ponto dos Volantes;2016;5
12;43;2169878;-19.054261783513;-42.92672189227171;CENTRO DE SAUDE DE DORES DE GUANHAES;RUA DO ROSARIO;315;CENTRO;(33)3426 1379;35894000.0;MG;Dores de Guanhães;2016;5
19;288;2149664;-17.8841221332545;-44.577326774595896;CENTRO DE SAUDE DE LASSANCE;RUA DONA SILVERIA MOREIRA;176;CENTRO;(38)37591317;39250000.0;MG;Lassance;2016;5
23;157;2162008;-21.132046791510103;-42.3610748978922;CENTRO DE SAUDE SANTA TEREZINHA;RUA VISCONDE DO RIO BRANCO;S/N;STA TEREZINHA;(32)37291227;36889266.0;MG;Muriaé;2016;5
42;115;2120127;-15.870223045348698;-41.4303660392749;UNIDADE BASICA DE SAUDE RURAL ANTONIO JOSE DA CRUZ TO CRUZ;AV RIO BAHIA;S/N;TANCREDO NEVES;;39980000.0;MG;Cachoeira de Pajeú;2016;5
94;22;23698;-19.811320000000002;-43.99987;CENTRO DE SAUDE LAGOA;RUA JOSE SABINO MACIEL;176;LAGOA;31-3277-5563/ 5552;31578060.0;MG;Belo Horizonte;2016;5
95;296;2105098;-15.799028458366802;-43.307682943762295;CENTRO DE SAUDE DR OSCAR MAURICIO PORTO;AVENIDA MANOEL ATHAYDE;2485;SANTA CRUZ;(38)38214201;39447339.0;MG;Janaúba;2016;5
99;180;2160153;-19.8779582977289;-44.91258144378529;PSF DAS COMUNIDADES RURAIS DE NOVA SERRANA;RUA MARIA MARCIANA DOS SANTOS;608;ZONA RURAL CAPAO;03732272025;35519000.0;MG;Nova Serrana;2016;5
118;164;2709570;-21.29569;-42.72777;ESF RURAL;LARGO DO ROSARIO;S/N;CATAGUARINO;(32)34239132;36779000.0;MG;Cataguases;2016;5
127;265;2098989;-21.224915384709;-43.7761933160596;UBS SANTA EFIGENIA;PRACA CONEGO NELSON DE SOUZA;68;SANTA EFIGENCIA;(32)33392112;36204076.0;MG;Barbacena;2016;5
140;290;2183382;-20.4728898996102;-45.124679888893006;PSF LAZARO MEDEIROS DE ITAPECERICA;AV MINISTRO GABRIEL PASSOS;S/N;BOM JESUS;(37)33411321;35550000.0;MG;Itapecerica;2016;5
144;645;2150255;-19.646108150481602;-44.00871992111079;ESF DR LUND;RUA CRISTOVAO DE ASSIS;S/N;DR LUND;(31)36626125;33600000.0;MG;Pedro Leopoldo;2016;5
145;606;2100894;-17.1998369693751;-46.8329143524156;POSTO DE SAUDE SAO SEBASTIAO;RUA JOAQUIM BROCHADO;910;VILA SAO SEBASTIAO;;38600000.0;MG;Paracatu;2016;5
147;587;2199343;-19.2372131;-42.4481935;PRIMEIRA EQUIPE PSF DE BELO ORIENTE BRAUNAS;RUA PROFESSOR ANSELMO;468;BRAUNAS;(33)32584242;35197000.0;MG;Belo Oriente;2016;5
153;568;2190079;-19.8948483229345;-44.0368660488128;CENTRO DE APOIO A SAUDE DA FAMILIA RESSACA;RUA QUATORZE;284;MILANES;(31)3352 5860;32140480.0;MG;Contagem;2016;5
154;620;2187450;-19.8824858665461;-43.854053020475995;SABARA CENTRO DE SAUDE VILAS REUNIDAS;RUA TIRADENTES;S/N;GENERAL CARNEIRO;(31)36727444;34585140.0;MG;Sabará;2016;5
157;459;2776316;-22.426;-45.453;UBS VILA RUBENS ITAJUBA;AVENIDA VINTE E UM DE NOVEMBRO;129;VILA RUBENS;35 3692-1814;37505169.0;MG;Itajubá;2016;5
158;712;3015653;-19.21763;-45.001940000000005;UNIDADE BASICA DE SAUDE CENTRO;RUA JOSE CIPRIANO DE CAMPOS;111;CENTRO;37 35234142;35640000.0;MG;Pompéu;2016;5
168;594;2104792;-17.2877532077502;-43.94941473873839;CENTRO DE SAUDE MUNICIPAL ENGENHEIRO NAVARRO;AV JOSE MARQUES CALDEIRA;267;CENTRO;(38)32531177;39363000.0;MG;Engenheiro Navarro;2016;5
169;741;2148080;-18.291667699813303;-44.053802490233096;POSTO DE SAUDE DE RODEADOR DE MONJOLOS;PRACA FRANCISCA DO SERRO;S/N;RODEADOR;3837271159;39215000.0;MG;Monjolos;2016;5
178;583;2214288;-22.3334044019156;-45.52734375;UBS SAO JOSE DO ALEGRE;RUA DA SAUDADE;173;CENTRO;(35)36451233;37510000.0;MG;São José do Alegre;2016;5
188;595;2219212;-16.7329180240626;-43.852572441099795;CENTRO DE SAUDE CINTRA;RUA MONTE PLANO;892;CINTRA;38 32293339 3340;39400392.0;MG;Montes Claros;2016;5
203;697;2144352;-20.8953162458046;-45.275861361123106;PSF VILA AMAURY;RUA ARINOS ALVES ANDRADE;S/N;ANA ALVES;(35)38321921;37270000.0;MG;Campo Belo;2016;5
214;508;2204533;-15.952563805561098;-44.861312742376604;POSTO DE SAUDE DA FAMILIA LAPA DO ESPIRITO SANTO;LAPA DO ESPIRITO SANTO;S/N;ZONA RURAL;;39300000.0;MG;São Francisco;2016;5
242;494;2104938;-16.5664951547913;-42.888012880146;UBS VALE DAS CANCELAS;POVOADO VALE DAS CANCELAS;S/N;ZONA RURAL;(38)32381135;39570000.0;MG;Grão Mogol;2016;5
243;692;2157098;-19.545542209328698;-44.1331662414131;UNIDADE BASICA DE SAUDE ARACI BARBOSA DOS SANTOS;AV INDUSTRIAL;75;ARACAS;(31)37131200;35730000.0;MG;Capim Branco;2016;5
250;751;2203804;-14.882533483912301;-44.0812622895275;UBSI ALDEIA SUMARE I;POLO SUMARE;000;ZONA RURAL;(38)3613-8115;39475000.0;MG;São João das Missões;2016;5
253;484;2220210;-19.111919403075603;-46.6833758354173;UNIDADE BASICA DE SAUDE DA FAMILIA DR JOSE WANDERLEY;RUA PETUNIA;211;CENTRO;(34) 3833-1171;38760000.0;MG;Serra do Salitre;2016;5
256;757;2182904;-16.9227218627925;-43.6766624450671;POSTO DE SAUDE DE GAMELEIRA;AV MARCOS CALDEIRA;07;CENTRO;(38)32368101;39592000.0;MG;Glaucilândia;2016;5
271;643;6647928;-21.3512849807733;-46.141483783720595;PSF DO BAIRRO SAO VICENTE PREFEITO WELLINGTON AMARAL;RUA ANGELO PALMIERI NETO;58;SAO VICENTE;3532933283;37140000.0;MG;Areado;2016;5
272;715;6387918;-15.3573788763445;-42.9635229642327;UBS BARREIRO BRANCO;RUA PROJETADA;697;BARREIRO BRANCO;;39526000.0;MG;Catuti;2016;5
275;460;2121557;-18.5871827602381;-49.1992664337144;CENTRO DE SAUDE FRANCISCO NEVES;RUA DOS GOMES;65;CENTRO;(34)32671232;38390000.0;MG;Centralina;2016;5
276;629;2202174;-20.7881283760065;-43.6899447441088;CENTRO DE SAUDE DE SANTANA DOS MONTES;LADEIRA AMERICO LEAO;20;CENTRO;(31)37261331;36430000.0;MG;Santana dos Montes;2016;5
285;635;2113856;-21.199965476989103;-43.972370624541;UBS VEREADOR IRINEU ARIMATEIA DO NASCIMENTO;AV GUANABARA;300;JARDIM BANDEIRANTE;(32)33511166;36212000.0;MG;Barroso;2016;5
294;496;2193132;-19.481032097265;-42.520351111410704;UNIDADE DE SAUDE DO BETHANIA;AV ALBERTO GIOVANINI;S/N;BETHANIA;(31)38298490;35164546.0;MG;Ipatinga;2016;5
321;493;2134535;-16.990691287823;-42.3497731636506;UNIDADE MATERNO INFANTIL;RUA DO ROSARIO;400;ROSARIO;(33)37381122;39644000.0;MG;Francisco Badaró;2016;5
323;485;2211491;-22.249417304991997;-45.9282159805284;CENTRO DE SAUDE DA FAMILIA JOSE NARCISO KERSUL POUSO ALEGRE;RUA JOAO DE BARROS COBRA;115;FOCH;(35)34494204;37558320.0;MG;Pouso Alegre;2016;5
330;1123;22713;-20.020770000000002;-44.029709999999994;CENTRO DE SAUDE INDEPENDENCIA;RUA MARIA ANTONIETA;151;INDEPENDENCIA;(31)32779116;30672000.0;MG;Belo Horizonte;2016;5
334;987;2795035;-21.8352305889123;-44.812073707579295;USF SEBASTIAO MASSAFERA;RUA AUGUSTO MACIEL;65;BREJINHO;(35)33462117;37445000.0;MG;Cruzília;2016;5
337;1191;2119560;-16.2475726793913;-40.1469330149968;UNIDADE DE SAUDE DA FAMILIA PREVENCAO E SAUDESANTA M SALTO;RUA JOSE DIAS GONCALVES;123;PLANALTO;(33)37271448;39928000.0;MG;Santa Maria do Salto;2016;5
339;1183;3912132;-20.940389016757603;-45.82846362311751;CENTRO DE SAUDE UNIDADE BASICA GLORIA;RUA QUERUBINO MOSCARDINI;228;GLORIA;35 3854-1216;37175000.0;MG;Ilicínea;2016;5
343;951;2152525;-18.9189986093056;-48.2779501847345;UBSF DOM ALMIR;AVENIDA CIRINEU A AZEVEDO;100;JARDIM SUCUPIRA;(34)32121277;38407508.0;MG;Uberlândia;2016;5
346;1038;6921108;-15.3187801661895;-44.7588506340981;UAPS VILA AMELIA;AV VILA AMELIA;01;VILA AMELIA;(38)3625-6120;39490000.0;MG;Bonito de Minas;2016;5
347;1049;3180093;-16.73886;-43.83978;ESFSBMI JARDIM PALMEIRAS II;AVENIDA NECO DELFINO;289;DELFINO MAGALHAES;(38) 32293460;39402181.0;MG;Montes Claros;2016;5
349;1106;2146975;-20.8608913421625;-46.3957571983324;PSF MARIA LAURA DE JESUS;RUA SANTISSIMA TRINDADE;115;CEA;(35)35232176;37940000.0;MG;Alpinópolis;2016;5
351;1116;2212439;-22.290701866149302;-46.615226268767;CEO JACUTINGA;RUA SEBASTIAO RODRIGUES DE SOUZA;S/N;CENTRO;(35)34431022;37590000.0;MG;Jacutinga;2016;5
357;1032;8002568;-19.8295927047724;-43.1258010864245;CENTRO DE SAUDE MONLEVADE CENTRO;RUA TIETE;748;CENTRO INDUSTRIAL;38520013;35930462.0;MG;João Monlevade;2016;5
368;1079;2796414;-21.133458495541397;-46.6213268893431;PSF DE SAUDE DE BIGUATINGA;RUA SATURNINO GOMES DA SILVEIRA;S/N;BIGUATINGA;35546167;37855000.0;MG;São Pedro da União;2016;5
375;1146;2191806;-15.9957396984096;-41.2792611122119;UNIDADE DE SAUDE DA FAMILIA AMIGOS DA FAMILIAPEDRA AZUL;AVENIDA DR ANTERO DE LUCENA RUAS;948;CENTRO;(33)37511769;39970000.0;MG;Pedra Azul;2016;5
393;1107;2147912;-15.6107836516614;-41.7467850898706;CENTRO DE SAUDE DE BERIZAL;PRACA SOLON LEAL IVO;S/N;PLANALTO;(38)38458102;39555000.0;MG;Berizal;2016;5
405;1063;2121743;-18.7224519252772;-49.1938805580125;PSF1 CASA DE SAUDE JOAQUIM RODRIGUES COSTA;RUA 17;1217;YVETE G DANIEL;(34)32661401;38380000.0;MG;Canápolis;2016;5
433;1884;5627265;-20.3639991114517;-41.962679807371394;PSF RURAL GRACIANO;FAZENDA GRACIANO;S/N;ZONA RURAL;3333411981;36970000.0;MG;Manhumirim;2016;5
465;2299;2115670;-20.0028204917902;-44.087641239165;UNIDADE DE SAUDE LUZIA NUNES VICENTE;RUA MANTIQUEIRA;12;JARDIM DAS ROSAS;(31)35336052;32432060.0;MG;Ibirité;2016;5
489;2289;2162695;-21.1939817415146;-42.61603959028079;UBS ANTONIO CARLI BERTAZZO;RUA ANTONIO CLEMENTINO;S/N;TABOOES;(32)34261627;36790000.0;MG;Miraí;2016;5
490;2376;2211696;-22.2303029951548;-45.937144275826505;UBS YARA UBS MOACIR DE CARVALHO POUSO ALEGRE;RUA DAS MARGARIDAS;S/N;JARDIM YARA;(34)34494179;37550313.0;MG;Pouso Alegre;2016;5
511;2316;2181517;-19.5840503585078;-42.6439423108068;CENTRO DE CONVIVENCIA LIBERATO DE PAULA E SILVA;AVENIDA UM;377;ALEGRE;(31)38477680;35181020.0;MG;Timóteo;2016;5
512;2026;6555918;-18.898008019968398;-43.08175572077911;PSF SAO JOSE;PRACA SAO JOSE;12;DISTRITO DE SAO JOSE;33-3424-2073;39745000.0;MG;Senhora do Porto;2016;5
532;2741;2218348;-19.831800701790602;-43.3480400193056;PSF I;RUA SANTA EFIGENIA;138;SANTA EFIGENIA;38201844;35935000.0;MG;São Gonçalo do Rio Abaixo;2016;5
551;2497;2775344;-20.705623626708398;-46.618487834929105;PSF COIMBRAS I;RUA BUENOS AIRES;S/N;CALIFORNIA;(35)3522 -6512;37904114.0;MG;Passos;2016;5
582;2510;2197049;-20.9135270118707;-42.026202678679205;EQUIPE 02 DE SAUDE DA FAMILIA ZONA URBANA;AVENIDA IMACULADA CONCEICAO;333;QUEBRA COPOS;(32)37511741;36844000.0;MG;Tombos;2016;5
583;2537;2116774;-19.753228200000002;-43.9888064;VESPASIANO CENTRO DE SAUDE ILDEU DINIZ;RUA HUM;S/N;APARECIDA SUELY;(31)36211000;33200000.0;MG;Vespasiano;2016;5
617;2567;2113864;-21.176286999031;-43.9753811243157;UBS DR PERICLES FRANCISCO RODRIGUES;RUA BERLIM;57;JARDIM EUROPA;(32)33511166;36212000.0;MG;Barroso;2016;5
622;2747;2204223;-15.486321438480802;-44.3596105277538;UBS BARAO DE SAO ROMAO;RUA BARAO DE SAO ROMAO;395;CENTRO;(38)36211475;39480000.0;MG;Januária;2016;5
631;2507;2210371;-17.432689576716598;-41.0001132091318;PSF JOSE SANTANA;RUA ALAGOAS;S/N;CIDADE ALTA;(33)35351330;39814000.0;MG;Pavão;2016;5
645;2428;5320348;-19.965379240085102;-44.197551103266605;UBS CAIC CAPELINHA;AVENIDA NOVA YORK;S/N;CAPELINHA;31.3597.6529;32677518.0;MG;Betim;2016;5
647;2637;2133881;-16.790231466292802;-42.5554776191699;UNIDADE BASICA DE SAUDE SAO NORBERTO;PRACA SAO NORBERTO;S/N;LELIVELDIA;( );39640000.0;MG;Berilo;2016;5
671;2795;2160412;-20.1961433887476;-44.76124048232899;PROGRAMA SAUDE DA FAMILIA UNIDADE III DE CARMO DO CAJURU;RUA QUATRO;S/N;JARDIM ALVORADA;(37)3244-1674;35557000.0;MG;Carmo do Cajuru;2016;5
675;2582;2139715;-17.5975701770905;-44.730346582732295;POSTO DE SAUDE PAULO VI;RUA C;275;PAULO VI;(38)37314769;39260000.0;MG;Várzea da Palma;2016;5
690;2439;3557472;-19.92749;-43.92573;CENTRO DE SAUDE GRANJA DE FREITAS;RUA SAO VICENTE;405;GRANJA DE FREITAS;(31)32775727/5725;30130007.0;MG;Belo Horizonte;2016;5
699;2713;6498663;-19.800335953907197;-41.7173533200378;ESTRATEGIA DE SAUDE DA FAMILIA PAZ;RUA CABOCLO BALBINO;425;VILA VICENTINA;;36950000.0;MG;Ipanema;2016;5
750;2636;2101173;-19.1912383018129;-46.2427530916274;UNIDADE BASICA DE SAUDE OLHOS D AGUA;RUA JOAQUIM RODRIGUES DE MIRANDA;10;OLHOS DAGUA;;38810000.0;MG;Rio Paranaíba;2016;5
754;2518;2164639;-20.056496858596198;-48.1075644493089;CENTRO MUNICIPAL DE SAUDE ALONSO FERREIRA DOS SANTOS;AVENIDA 29;152;CENTRO;(34) 3324-1313;38110000.0;MG;Água Comprida;2016;5
776;2605;2149680;-17.895115180520502;-44.579358558748105;ESF ESTRATEGIA DA SAUDE DA FAMILIA NOVA LASSANCE;RUA IZIDORO RAMOS DE OLIVEIRA;130;NOVA LASSANCE;(38)37591263;39250000.0;MG;Lassance;2016;5
795;2843;2126141;-19.9399387836451;-44.11442041396971;UBS ANTONIO SABINO DE SOUZA IMBIRUCU;AVENIDA SANITARIA 1 A;300;JARDIM PERLA;(31)35973232;32677518.0;MG;Betim;2016;5
805;3111;2103842;-18.5049140453333;-42.0849752426135;CENTRO DE SAUDE DE MARILAC;RUA RIO DE JANEIRO;97;CENTRO;(33)32921618;35115000.0;MG;Marilac;2016;5
812;2947;2160072;-19.4654345512384;-45.604419708250596;UNIDADE BASICA DE SAUDE DE DORES DO INDAIA;RUA RUI BARBOSA;28;CENTRO;037-3551-2579;35610000.0;MG;Dores do Indaiá;2016;5
816;2930;2098601;-20.8576512336725;-43.4782648086535;JOSE GORDIANO DE SAO JOSE PSF;RUA SANTANA;371;CENTRO;(31)37531138;36460000.0;MG;Rio Espera;2016;5
831;3068;6302262;-17.2586739063258;-41.7471456527698;PSF MARIA AUXILIADORA LOPES OLIVEIRA;RUA GAMELEIRA;S/N;ZONA RURAL;(33)35311255;39810000.0;MG;Caraí;2016;5
836;2844;24015;-19.90746;-43.94487;CENTRO DE SAUDE SAO CRISTOVAO;RUA ITAPECERICA;555;LAGOINHA;(31)32776011;31210220.0;MG;Belo Horizonte;2016;5
860;2894;3660249;-16.523941755294302;-42.4093508720386;POSTO SAUDE SAO JOAO VACARIA;RUA DO CRUZEIRO;04;ZONA RURAL;(33)37362001;39630000.0;MG;Virgem da Lapa;2016;5
861;2854;2125900;-19.917923212050802;-44.273529052733096;UBS MARIMBA;RODOVIA MG 060;3188;MARIMBA;(31)3596.2899;32623245.0;MG;Betim;2016;5
865;2937;2794268;-21.975896655915697;-44.6028244646275;CENTRO DE SAUDE ANNIBAL EMATNE;RUA FELIPE SENADOR;1057;CAMPO PRATICO;(35)33441921;37450000.0;MG;Aiuruoca;2016;5
872;3136;6504426;-19.698626821519;-43.9599562982337;UNIDADE BASICA DE SAUDE CACHOEIRA;RUA JOSE AUGUSTO GONCALVES;150;CACHOEIRA;;33350000.0;MG;São José da Lapa;2016;5
874;2992;2762552;-20.746618509292;-46.86492919921739;PSF III SAO JUDAS TADEU;RUA JUVENTINO LEMOS;375;CENTRO;( );37970000.0;MG;Pratápolis;2016;5
895;3126;2220822;-17.3010807061062;-41.523126865366;PSF CENTRAL DE CATUJI;RUA ELIEZER PINHEIRO;S/N;CENTRO;(33)88385607;39816000.0;MG;Catuji;2016;5
930;3024;6800025;-21.902961730956395;-45.5816745758043;CENTRO DE SAUDE DR STENIO CAIO NOGUEIRA JUNQUEIRA;RUA CAPITAO REZENDE COSTA;19;INCONFIDENTES;;37490000.0;MG;São Gonçalo do Sapucaí;2016;5
941;2846;5595231;-20.095130162918302;-43.7908543768367;RIO ACIMA POSTO DE SAUDE DONA LILITA MORGAN;AV ISRAEL PINHEIRO;001;JATOBA;(31)35451160;34300000.0;MG;Rio Acima;2016;5
944;2936;3301222;-19.042494932809202;-47.917992316725396;CENTRO DE SAUDE DONA LICA;RUA ELMIRO ALVES DA SILVA;200;SANTANA;(34)32452536;38490000.0;MG;Indianópolis;2016;5
945;2990;2161737;-20.956989526748103;-42.601482868193294;POSTO DE SAUDE ARTUR FERNANDES;VENTANIA;458;ZONA RURAL;;36555000.0;MG;Ervália;2016;5
959;3039;3843467;-21.8287289142602;-45.248050689695994;PSF RURAL;CONGONHAL;S/N;ZONA RURAL;;37420000.0;MG;Cambuquira;2016;5
972;2977;2218755;-21.7609243086743;-43.3488172724747;UBS MONTE CASTELO PSF;RUA DR OSWALDO MASCARENHAS;S/N;MONTE CASTELO;(32)36697858;36081120.0;MG;Juiz de Fora;2016;5
978;2806;2157306;-19.4835603824475;-44.1583906670617;UNIDADE BASICA DE SAUDE JUSA ABREU;ZITO GUISCEN;60;CENTRO;(31)37111335;35738000.0;MG;Prudente de Morais;2016;5
987;3174;2184753;-16.4013639;-46.9141045;UNIDADE BASICA DE SAUDE ESF BELA VISTA;RUA ITAPUA;53;BELA VISTA;(38)36760058;38610000.0;MG;Unaí;2016;5
1002;2816;6506097;-17.895115180520502;-44.579358558748105;UNIDADE BASICA DE SAUDE DA FAMILIA DR CARLOS CHAGAS;RUA NOSSA SENHORA DO CARMO;611;CENTRO;3837591239;39250000.0;MG;Lassance;2016;5
1011;3143;5086604;-20.004161596297603;-44.062042236326796;UNIDADE DE SAUDE VILA IDEAL;AV PAU BRASIL;14;VILA IDEAL;3135992037;32425225.0;MG;Ibirité;2016;5
1016;3178;2119897;-16.4417689423789;-41.00711544237971;UNIDADE BASICA DE SAUDE DE SAO JOSE;RUA SAO JOSE;45;SAO JOSE;( );39960000.0;MG;Jequitinhonha;2016;5
1031;2885;2147904;-15.3973215529759;-42.8665147238001;UBS SAO BENTO;RUA ABILIO ANTONIO ALMEIDA;S/N;BAIRRO SAO BENTO;;39527000.0;MG;Mato Verde;2016;5
1070;3150;2103885;-18.805260413755697;-42.6218202062038;CENTRO DE SAUDE DE DIVINOLANDIA DE MINAS;RUA SAO JOSE;326;CENTRO;(33)34141184;39735000.0;MG;Divinolândia de Minas;2016;5
1090;2945;2143461;-19.852219820022;-44.6157360076891;UBS NOSSA SENHORA DE FATIMA;RUA OURO PRETO;431;NOSSA SENHORA DE FAT;(37)32361799;35660013.0;MG;Pará de Minas;2016;5
1104;2814;2796848;-19.800279999999997;-41.71264;ESTRATEGIA SAUDE DA FAMILIA EQUIPE VIDA;R DIAMANTE;15;CENTRO;(33)33141495;36950000.0;MG;Ipanema;2016;5
1111;2926;2114488;-20.0440084934229;-41.6882228851306;CENTRO DE SAUDE DE CHALE;RUA CICERO GOMES;5;CENTRO;(33)3345-1207;36985000.0;MG;Chalé;2016;5
1128;3425;23086;-19.87353;-43.93295;CENTRO DE SAUDE PADRE FERNANDO DE MELO;RUA CONCEICAO VIDIGAL PAULUCCI;150;PALMARES;(31)32776072;31150000.0;MG;Belo Horizonte;2016;5
1134;3224;2709686;-19.6390807628626;-43.237016201018;UNIDADE DR FERNANDO MONTEIRO DE BARROS;AV BRASIL;50;AREAO;(31)3839-2225;35900367.0;MG;Itabira;2016;5
1147;3457;2195852;-18.7290384400921;-47.4959724312194;PSF SALU ALVES FERREIRA;RUA SAO CARLOS;145;CELSO BUENO;(34)38493104;38500000.0;MG;Monte Carmelo;2016;5
1157;3346;7216084;-17.6733364470817;-42.501237121582;ESF VISTA ALEGRE;ANEL RODOVIARIO;1511;VISTA ALEGRE;;39680000.0;MG;Capelinha;2016;5
1160;3339;7013388;-21.01576;-46.523720000000004;ESF NOSSA SENHORA APARECIDA;RUA PREFEITO JOAO SILVA;610;NOSSA SENHORA APAREC;35 3563-1345;37948000.0;MG;Bom Jesus da Penha;2016;5
1167;3368;7770626;-18.586105346679698;-41.4903526306152;UNIDADE BASICA DE SAUDE PLANALTO;RUA VINTE DE JULHO;13;PLANALTO;3332469200;35275000.0;MG;São Félix de Minas;2016;5
1174;3430;2157330;-18.112548103742302;-44.2752188423279;CENTRO DE SAUDE DEOCLECIANO MACHADO AUGUSTO DE LIMA;PRACA PREFEITO JOAO CAETANO;418;CENTRO;(38)37581210;39219000.0;MG;Augusto de Lima;2016;5
1184;3395;2111101;-20.0059989819425;-41.749072816426;UNIDADE SAUDE DA FAMILIA VERDE VIDA S J MANTIMENTO;RUA VIRGILIO GONCALVES;S/N;CENTRO;(33)33351121;36990000.0;MG;São José do Mantimento;2016;5
1186;3407;5455499;-18.8528824033102;-41.947081334028795;ESF SANTA TEREZINHA;RUA OMAR MAGALHAES;940;SANTA TEREZINHA;33 32754720;35030740.0;MG;Governador Valadares;2016;5
1211;3576;3121275;-18.59874;-48.69945;UNIDADE PRO SAUDE VO MALAQUIA;RUA MANOEL HIPOLITO MACHADO;S/N;BOA VISTA;(34)32816535;38480000.0;MG;Tupaciguara;2016;5
1219;29413;2173093;-20.2725154;-42.1859229;ESF SAO PEDRO DO AVAI;AV BOM PASTOR;S/N;SAO PEDRO;33 3378 5139;36900000.0;MG;Manhuaçu;2016;5
1272;3550;6769721;-16.859872448364197;-44.91410683871779;UBS AMELIA DO COUTO MORENO;AVENIDA 8 DE DEZEMBRO;272;NOVO HORIZONTE;;39350000.0;MG;Ibiaí;2016;5
1276;3468;2167700;-21.7846925499931;-45.964969563160494;UNIDADE BASICA PROG SAUDE DA FAMILIA SAO SEBASTIAO;PRACA VEREADOR JOAQUIM FRANCISCO DA COSTA SOBRINHO;342;PAIOLINHO;;37757000.0;MG;Poço Fundo;2016;5
1292;3435;5915694;-16.699982505765902;-43.8704024255276;ESFSBMII JB AMAZONAS;RUA MARCOS RIBEIRO;167;SANTOS REIS;(38) 3229-3353;39401167.0;MG;Montes Claros;2016;5
1297;3296;2120208;-16.2247956209704;-41.47630906692;UNIDADE DE SAUDE 03 TUPARECE;RUA AGENOR OLEGARIO SOARES;S/N;TUPARECE;3337531595;39620000.0;MG;Medina;2016;5
1306;3423;2184923;-16.1698557321158;-42.2935064722757;UNIDADE BASICA DE SAUDE SANTO ANTONIO;RUA PEDRO ALVARES CABRAL;25;SANTO ANTONIO;(38)38411460;39560000.0;MG;Salinas;2016;5
1320;3507;2208288;-18.483263321987103;-41.3912087843896;CENTRO DE SAUDE CARMELITA FRANCISCA DE OLIVEIRA;RUA PROFESSOR ANTONIO BASTOS;99;GAMELEIRA;(33)35821223;39848000.0;MG;São José do Divino;2016;5
1329;3226;2119757;-16.609407845473598;-40.5718939337966;UNIDADE BASICA DE SAUDE DE RIO DO PRADO;RUA DOUTOR LUIS B MENEZES;119;CENTRO;;39940000.0;MG;Rio do Prado;2016;5
1338;3241;2101785;-16.5555596351619;-45.9814310073839;P S F BRASILINHA BONFINOPOLIS;AVENIDA JOSE AMARO BRADAO FILHO;582;BRASILINHA;038 3675 1503;38650000.0;MG;Bonfinópolis de Minas;2016;5
1340;3473;3616096;-18.868728876113302;-48.8869714736924;UNIDADE DE SAUDE DA FAMILIA MARINA GOMES DA SILVA;RUA MARCIANO SALVIANO DA COSTA;22;SANTO ANTONIO;( 34)32830527;38475000.0;MG;Monte Alegre de Minas;2016;5
1348;3491;5452155;-21.2493559380963;-46.580596484703996;ESTRATEGIA SAUDE DA FAMILIA DA MATA DO SINO;PRACA RODRIGUES ANTONIO MAGALHAES;255;MATA DO SINO;3535532069;37805000.0;MG;Juruaia;2016;5
1349;3417;2184184;-21.4610624313348;-42.9653835296618;UBS EURIPEDES LOPES;RUA MONSENHOR BELOTI;22;CENTRO;(32)32651248;36690000.0;MG;Descoberto;2016;5
1350;3223;2143445;-19.8647379639463;-44.60538018789371;UBS SANTOS DUMONT;PRACA ALFREDO LEITE XAVIER;140;SANTOS DUMOMT;(37)32317791;35660340.0;MG;Pará de Minas;2016;5
1359;3204;2709813;-19.632139205932;-43.205966949461605;PSF PRAIA;RUA GUARANI;22;PRAIA;(31)3839-2224;35900270.0;MG;Itabira;2016;5
1362;3481;2149257;-20.891768932341897;-42.8806471824634;POSTO DE SAUDE DE MONTE CELESTE;VILA MONTE CELESTE;S/N;ZONA RURAL;;36530000.0;MG;São Geraldo;2016;5
1416;3693;2152479;-18.8980615139002;-48.338298797606;UBS TOCANTINS;RUA JOAQUIM CARRIJO NETO;758;TOCANTINS;(34)32172210;38415270.0;MG;Uberlândia;2016;5
1471;3991;2204614;-15.3184380950909;-42.0114224428155;UBS DE MANDACARU;POVOADO DE MANDACARU;S/N;ZONA RURAL;;39540000.0;MG;São João do Paraíso;2016;5
1488;3840;2182793;-15.102641864892002;-44.0931858020531;UNIDADE BASICA DE SAUDE CENTRAL;RUA OLIVIA RODRIGUES;S/N;CENTRO;(38)36131148;39470000.0;MG;Itacarambi;2016;5
1496;3839;2219832;-19.494081476791198;-42.6300299682617;UNIDADE DE SAUDE DA FAMILIA SAO DOMINGOS;R VIOLETA;189;SAO DOMINGOS;(31)38467716;35170305.0;MG;Coronel Fabriciano;2016;5
1500;3672;2763605;-20.90594;-46.99695;USF DR JOAO GRAU BRIGAGAO JD PLANALTO;AVENIDA CENTRAL;736;PLANALTO;(35)35391081;37950000.0;MG;São Sebastião do Paraíso;2016;5
1524;3838;2124270;-20.1441744103498;-44.200187609063605;UNIDADE SAUDE FAMILIA PIEDADE DO PARAOPEBA;RUA DOS PASSOS;S/N;PIEDADE;(31)35715086;35460000.0;MG;Brumadinho;2016;5
1526;3871;2796821;-20.732775685773802;-42.2781805292376;ESF CAMINHO DO SOL;RUA MACHADO DE ASSIS;114;SAO PEDRO DO GLORIA;3237422054;36815000.0;MG;Fervedouro;2016;5
1537;3943;6210058;-17.9910384302438;-46.901966885848;UNIDADE BASICA DE SAUDE HORACIO MARTINS DA SILVA;PRACA DA LIBERDADE;100;CENTRO;34 38138191;38780000.0;MG;Vazante;2016;5
1550;3955;2127350;-19.437689781188396;-44.249603748320204;CENTRO DE SAUDE MANOA;GERANIO;381;CARMO;;35700463.0;MG;Sete Lagoas;2016;5
1555;3749;5591996;-19.7592126249565;-42.0742639715865;ADAO SABINO DE SOUZA PSF 2;RAIMUNDO ADRIANO DA SILVA;S/N;SAO JOSE;3333238000;35325000.0;MG;Piedade de Caratinga;2016;5
1572;3985;7038933;-17.7192558945955;-42.2427749633789;UNIDADE BASICA DE SAUDE VILA NOVA;RUA TIMIRIM;S/N;ESPLANADA;;39685000.0;MG;Angelândia;2016;5
1585;3761;7842279;-21.699008157955998;-42.957623898983;U B S PREF NELSON DE SOUZA DE MATTOS;RUA OSVALDO MACHADO;S/N;CENTRO;;36608000.0;MG;Maripá de Minas;2016;5
1588;3798;7734182;-18.8623947;-41.941893900000004;UBS VILA ISA ESTADO;RUA VIRGILIO VIEIRA;70;VILA ISA;;35020800.0;MG;Governador Valadares;2016;5
1621;3959;2776936;-20.286479999999997;-42.344840000000005;ESF BOA VISTA;RUA PRESIDENTE CASTELO BRANCO;S/N;BOA VISTA;31 38732147;35367000.0;MG;Matipó;2016;5
1624;3995;5977959;-20.7441844539654;-46.8609173417016;PSF IV SANTA RITA;RUA CAPITAO LEOPOLDO;S/N;CENTRO;;37970000.0;MG;Pratápolis;2016;5
1626;3684;2794225;-21.7198312282556;-44.981868267058;UNIDADE MISTA DE SAUDE DR PAULO CESAR DE OLIVEIRA;RUA PLINIO PEDRO MARTINS;480;AREADO;(35)32371580;37408000.0;MG;São Thomé das Letras;2016;5
1644;3729;2116804;-19.6930304397712;-43.919915186737796;VESPASIANO UNIDADE BASICA DE SAUDE JARDIM GLORIA;RUA AARAO REIS;35;JARDIM GLORIA;(31)36211000;33200000.0;MG;Vespasiano;2016;5
1645;3609;6566243;-15.706061124801199;-41.7932796478259;CENTRO DE SAUDE DE BARREIROS;AV AMAZONAS;S/N;CENTRO;;39555000.0;MG;Berizal;2016;5
1683;4005;2148072;-19.382801055907603;-44.0573430061328;POSTO DE SAUDE LAGOINHA FUNILANDIA;RUA JOAQUIM GONCALVES LOURENCO;170;LAGOINHA;(31)37136205;35736000.0;MG;Funilândia;2016;5
1690;4013;2182874;-16.9481277465815;-43.6147999763476;POSTO DE SAUDE DE LARANJAO;AVENIDA JOSE VIEIRA;30;CENTRO;(38)32368121;39592000.0;MG;Glaucilândia;2016;5
1721;4138;2126532;-20.3954998659809;-42.1521577505494;UNIDADE SAUDE DA FAMILIA MATA SIRITINGA SAO JOAO MANHUACU;RUA SEBASTIAO GOMES DA SILVA;S/N;CENTRO;;36918000.0;MG;São João do Manhuaçu;2016;5
1752;4161;2206749;-21.176286999031;-43.9753811243157;UBS DR MARIO BRAZ DE SOUZA;RUA RITAPOLIS;12;BAIRRO PRAIA;(32)33511166;36212000.0;MG;Barroso;2016;5
1758;4370;2184338;-21.79951429367;-42.9450416564929;UNIDADE BASICA DE SAUDE PASCOAL TASSI;PRACA TIRANDENTES;28;CENTRO;(32)32871167;36650000.0;MG;Senador Cortes;2016;5
1759;4344;7375921;-18.2753242363297;-42.6690101623535;UNIDADE BASICA DE SAUDE FLAVIA ALEXANDRA DE OLIVEIRA COSTA;RUA E;25;NOVO PROGRESSO;(33)34331272;39707000.0;MG;São José do Jacuri;2016;5
1763;4007;2112345;-21.240713596343397;-45.0022530555712;PROGRAMA DE SAUDE DA FAMILIA 14;RUA NICOLAU CHEREM;S/N;NILTON TEIXEIRA;;37200000.0;MG;Lavras;2016;5
1798;4187;2169215;-17.0776850228809;-44.2087100149448;UBS PLINIO FLAVIO;RUA CLOVIS PRATES;398;CENTRO;(38)32371222;39380000.0;MG;Claro dos Poções;2016;5
1809;4393;5776546;-18.5993525644429;-48.6937358802059;PSF DR JOSE CARLOS RODRIGUES DA SILVA;RUS JOSE FERREIRA E MARQUES;178;PAINEIRAS;;38480000.0;MG;Tupaciguara;2016;5
1816;4337;2199416;-19.5250528393467;-42.624346577298;UNIDADE DE SAUDE CALADINHO E CEO II;AVENIDA TANCREDO DE ALMEIDA NEVES;5104;CALADINHO DE CIMA;(31)38467712;35170302.0;MG;Coronel Fabriciano;2016;5
1822;4105;2210363;-17.432689576716598;-41.0001132091318;PSF SAUDE NOVA LIMEIRA;AV JUCELINA PINHEIRO;633;LIMEIRA;(33)35351856;39814000.0;MG;Pavão;2016;5
1830;4392;2163020;-20.9774816036218;-43.194701671599105;UBS DE DORES DO TURVO;RUA FRANCISCO GROSSI;S/N;CENTRO;32-35761472;36513000.0;MG;Dores do Turvo;2016;5
1867;4207;2208784;-20.769063234328602;-43.1878137588488;CENTRO DE SAUDE DE PRESIDENTE BERNARDES;PRACA UNIAO;18;CENTRO;(32)35381188;36475000.0;MG;Presidente Bernardes;2016;5
1874;4102;2119633;-16.141161852922302;-40.291428834106604;UNIDADE DE SAUDE DA FAMILIA ESF AVAI;RUA 19 DE JANEIRO;20;AVAI ZONA RURAL;(33)37231514;39930000.0;MG;Jacinto;2016;5
1879;4037;2114461;-19.9823820590967;-41.6921281814563;POSTO DE SAUDE DE BANANAL CHALE;AVENIDA DORNELAS;11;DISTRITO PROFESSOR S;;36985000.0;MG;Chalé;2016;5
1882;4052;2157926;-18.3236856182628;-44.1193167724144;CENTRO DE SAUDE DE MONJOLOS;RUA BONFIM;290;CENTRO;(38)37271101;39215000.0;MG;Monjolos;2016;5
1904;4068;2125978;-19.965379240085102;-44.197551103266605;UBS ANALIA MARQUES DE OLIVEIRA CITROLANDIA;AVENIDA DOUTOR JOSE MARIANO;833;CITROLANDIA;(31)35306471;32641754.0;MG;Betim;2016;5
1908;4282;3306135;-21.86723;-43.31885;UNIDADE BASICA MARIA AUGUSTA BARBOSA;RUA GOVERNADOR VALADARES;408;CENTRO;(32)32732227;36120000.0;MG;Matias Barbosa;2016;5
1915;4137;5044448;-22.793122529982902;-46.0534644126879;ESF PONTE NOVA UBS BENEDITO ZEFERINO DA SILVA;ESTRADA DA PONTE NOVA;S/N;PONTE NOVA;;37650000.0;MG;Camanducaia;2016;5
1924;4269;6427774;-18.7736284732813;-40.9869861602771;PSF SANTO ANTONIO MANTENA;RUA EUGENIA MOL;141;SANTO ANTONIO;33-3241-2246;35290000.0;MG;Mantena;2016;5
1931;4121;2115476;-20.638675689696697;-41.919085979460505;UNIDADE DE SAUDE FAMILIA PIONEIRA ESPERA FELIZ;RUA CAPARAO;487;JOAO CLARA;(32)37461607;36830000.0;MG;Espera Feliz;2016;5
1969;4110;2141191;-18.8439479825625;-50.1234651115175;PSF JOSE PAULO FERNANDES;AVENIDA AIDA ANDRADE CHAVES;408;CENTRO;(34)32518131;38320000.0;MG;Santa Vitória;2016;5
1977;4088;2194708;-18.8439479825625;-50.1234651115175;PSF DR JOSE CARLOS RODRIGUES DA SILVA;RUA RONDON PACHECO;461;VILA RICA;(34)3251-8595;38320000.0;MG;Santa Vitória;2016;5
1980;4074;2208644;-20.8648073673242;-42.242517471312205;POLICLINICA SEBASTIAO DIAS FILHO;RUA LILIA MOREIRA;S/N;CENTRO;(32)37551068;36895000.0;MG;Vieiras;2016;5
1990;4422;2104547;-15.9548413753505;-44.8673486709582;CENTRO DE SAUDE SAO FRANCISCO;R HERMANO DIAMANTINO;1475;CENTRO;(38) 3631-2213;39300000.0;MG;São Francisco;2016;5
2048;4521;2212056;-22.307218777599;-45.3710536907549;UBS MANOEL GONCALVES MARIA DA FE;RUA MARIA DE LOURDES FERRAZ VIANA;S/N;CANUDOS;(35)36621640;37517000.0;MG;Maria da Fé;2016;5
2055;4633;2189895;-19.9293386936182;-44.1138839721667;UNIDADE DE REFERENCIA A SAUDE DA FAMILIA PETROLANDIA;RUA REFINARIA DUQUE DE CAXIAS;297;PETROLANDIA;33525261;32072170.0;MG;Contagem;2016;5
2063;4686;22950;-19.94957;-44.0006;CENTRO DE SAUDE ALTO VERA CRUZ;RUA GENERAL OZORIO;959;ALTO VERA CRUZ;31 3277-9038;30285320.0;MG;Belo Horizonte;2016;5
2082;4742;2098571;-21.602479219436002;-44.1054296493517;CENTRO DE SAUDE DE SANTANA DO GARAMBEUPSF;PRACA PAIVA DUQUE;S/N;CENTRO;(32)33341169;36146000.0;MG;Santana do Garambéu;2016;5
2093;4437;6683436;-20.5828560244396;-46.92403586064201;PSF DONA HORACIA ALVES DE SOUSA;RUA JOSE DIAS;420;PEIXOTO;(35) 3541-3245;37980000.0;MG;Cássia;2016;5
2100;4724;2105322;-16.3209151363553;-43.70541289989821;UBS III JACINTO TEIXEIRA DA SILVA;AV VINTE E SEIS;58;CENTRO;(38)32351343;39472000.0;MG;Capitão Enéas;2016;5
2101;4642;2133563;-17.0838668461656;-42.695682624201396;UNIDADE BASICA RODOLFO COELHO AMARAL;RUA HERMELINDO PINTO DE MATTOS;S/N;SAO JOSE;(33)37648000;39655000.0;MG;Leme do Prado;2016;5
2126;4562;2183439;-19.473180770873498;-45.6023597717272;ESTRATEGIA DE SAUDE DA FAMILIA JUIZ DE FORA;AVENIDA MINAS GERAIS;609;JUIZ DE FORA;037-3551.1755;35610000.0;MG;Dores do Indaiá;2016;5
2128;4718;6577164;-15.359349363287699;-42.9618644714355;UBS MALHADINHA;COMUNIDADE DE MALHADINHA;S/N;ZONA RURAL;;39526000.0;MG;Catuti;2016;5
2133;4423;2142147;-21.7614805698388;-42.8901100158679;POSTO DE SAUDE PREGOS;SEBASTIAO SOUZA FERREIRA;S/N;CENTRO;(32)32871167;36650000.0;MG;Senador Cortes;2016;5
2145;4493;2165910;-19.928501844405503;-47.5414466857896;ESF EMIDIO PINHEIRO DIAS;AV HARIF WAZIR;905;TURA;(34) 3353-2136;38195000.0;MG;Conquista;2016;5
2147;4584;2141027;-19.485143423079897;-42.632060050963105;UNIDADE DE SAUDE DA FAMILIA FLORESTA;R CASTANHEIRA;260;FLORESTA;(31)38467719;35170230.0;MG;Coronel Fabriciano;2016;5
2148;4545;7237480;-19.952;-44.343;JUATUBA UBS CENTRO;RUA JOAO SALIBA;115;CENTRO;;35675000.0;MG;Juatuba;2016;5
2157;4665;2704919;-19.797277450560898;-44.00917053222529;UBR ALARICO MODESTO;RUA LARANJEIRAS;190;CEREJEIRAS;(31)36386560;33880000.0;MG;Ribeirão das Neves;2016;5
2178;4656;2195631;-19.863576339353102;-47.4365553163874;UBS DR FRANCISCO PAULINO DA COSTA PSF SAUDE EM CASA 01;RUA INACIO AMARO DE LOIOLA;160;CAJURU;;38190000.0;MG;Sacramento;2016;5
2179;4693;5455618;-18.618083505857197;-42.283027891501;UNIDADE BASICA ESF SAO SEBASTIAO DO BUGRE;RUA VALADARES;104;CENTRO;33 3291-1349;39712000.0;MG;Coroaci;2016;5
2183;4680;2195895;-18.7359702587122;-47.509346008299396;PSF CISELISIO ROCHA THOMAZ;RAU DUARTE DA COSTA;1325;JARDIM DOS IPES;;38500000.0;MG;Monte Carmelo;2016;5
2191;4734;2212846;-22.067295312880802;-46.5687274932848;UNID MATERNO INFANTIL DE ANDRADAS;RUA ERICO BUZATO;S/N;ALTO ALEGRE;(35)37313313;37795000.0;MG;Andradas;2016;5
2200;4698;6482147;-18.986831256465898;-41.989129111595396;PSF JOSE DA SILVA MAIA;AVENIDA ISIDORO NALON;290;VILA EUGENIO;33-32361025;35138000.0;MG;Alpercata;2016;5
2214;4446;2201860;-20.8953162458046;-45.275861361123106;PSF SAO BENEDITO;RUA TEODORICO MARTINS SALDANHA;105;SAO BENEDITO;(35)38323775;37270000.0;MG;Campo Belo;2016;5
2224;4561;2126931;-19.2814289520739;-44.403116870288;UNIDADE BASICA DE SAUDE ANTONIO DA COSTA VIANA;RUA RANDOLFO SIMOES;703;DOM BOSCO;(31)37143194;35774000.0;MG;Paraopeba;2016;5
2225;4789;2148064;-19.3699873329839;-44.0630858803589;POSTO DE SAUDE NUCLEO JOAO PINHEIRO FUNILANDIA;PRC GUSTAVO TAMEIRAO;S/N;CENTRO;(31)37136600;35736000.0;MG;Funilândia;2016;5
2246;4652;3001296;-18.6426435;-48.178430600000006;UNIDADE BASICA DE SAUDE DA FAMILIA PARAISO;PRACA ANTONIO MARCELINO DIAS;S/N;PARAISO;(34)36903007;38445011.0;MG;Araguari;2016;5
2248;4426;2172534;-16.0009569335552;-44.276127237154796;UBS DE NOVA MINDA;COMUNIDADE DE NOVA MINDA;16;ZONA RURAL;(38)32319103;39335000.0;MG;Japonvar;2016;5
2275;4810;2212587;-22.1438562870019;-46.453971862791605;UBS VEREADOR MANOEL ADOLFO MARQUES;PRACA ANTONIO BORGES SANTOS;S/N;CAMPESTRINHO;(35)37311802;37795000.0;MG;Andradas;2016;5
2296;5140;23019;-19.81515;-44.00222;CENTRO DE SAUDE VILA MARIA;AVN DOS SOCIAIS;305;VILA MARIA;(31)32776756;30690200.0;MG;Belo Horizonte;2016;5
2301;4895;2099829;-20.244645703406302;-42.8956813088344;UNIDADE BASICA DE SAUDE MARIETA LOBO PEREIRA;RUA CORONEL JOAO JOSE;58;CENTRO;(31)38835288;35442000.0;MG;Rio Doce;2016;5
2311;4935;2208652;-20.8653406932197;-42.2458035423231;UBS HEBERT DE SOUZA 1;ROSA CIRELI;S/N;ADOLFO RAFAEL FAVA;;36895000.0;MG;Vieiras;2016;5
2312;4883;2166518;-19.666407108306302;-48.308215141295;AMBULATORIO MUNICIPAL ARI DE ANDRADE ESF;RUA HELVECIO ALVES FERREIRA;S/N;CENTRO;(34) 3323-1141;38150000.0;MG;Veríssimo;2016;5
2315;4928;3752283;-20.2984106540674;-45.5408835411059;PSF BRASILIA DE ARCOS;RUA CAPITAO JOSE APOLINARIO;1079;BRASILIA;37 3351-5430;35588000.0;MG;Arcos;2016;5
2319;5183;2208695;-21.297962665557197;-42.267193794249295;UNIDADE BASICA DE SAUDE JOSE MARIA DA ROCHA;RUA JOAO ARQUETE;S/N;SILVEIRA CARVALHO;(32)3727-2085;36870000.0;MG;Barão de Monte Alto;2016;5
2322;5014;5865646;-21.3146352767938;-42.81163930892821;ESF JOSE FRANCISCO BRAGA;RUA NILO LACERDA WERNECK;01;BAIRRO BELA VISTA;;36784000.0;MG;Dona Eusébia;2016;5
2326;5169;2103753;-18.192252202490803;-42.417802450459796;POSTO DE SAUDE GLUCINIO STA MARIA DO SUACUI;RUA CORONEL CALDEIRA;48;GLUCINIO;;39780000.0;MG;Santa Maria do Suaçuí;2016;5
2330;4861;2218321;-19.9275147914881;-43.1677937507617;CENTRO DE SAUDE DE RIO PIRACICABA;AVENIDA DOM JOAQUIM SILVERIO;210;PRAIA;(31)3854-2615;35940000.0;MG;Rio Piracicaba;2016;5
2332;4830;2212358;-22.2533298263696;-45.7039881925124;UBS IRMA EUDOXIA STA RITA SAPUCAI PSF 1;RUA DAS HORTENCIAS;9090;BARACAI;(35)34713282;37540000.0;MG;Santa Rita do Sapucaí;2016;5
2348;4985;2160323;-20.2266991138452;-44.3983697891222;CENTRO DE SAUDE SANTA TEREZINHA DE ITATIAIUCU;RUA SAO JOSE;235;SANTA TEREZINHA;(31)35722033;35685000.0;MG;Itatiaiuçu;2016;5
2362;4828;2146320;-18.6482695268138;-48.191605379029205;UNIDADE BASICA DE SAUDE DA FAMILIA SAO SEBASTIAO;AVENIDA DAS PALMEIRAS;60;SAO SEBASTIAO;(34)36903022;38443112.0;MG;Araguari;2016;5
2366;5037;2098717;-21.224915384709;-43.7761933160596;UBS CORREIA DE ALMEIDA;RUA JOSE RUFINO FERREIRA;S/N;CORREIA DE ALMEIDA;(32)33309106;36208000.0;MG;Barbacena;2016;5
2377;5016;6434592;-20.940389016757603;-45.82846362311751;PROGRAMA DE SAUDE DA FAMILIA RURAL;FRANCISCO DE OURO;S/N;CENTRO;35 38541216;37175000.0;MG;Ilicínea;2016;5
2379;5179;2102269;-18.5348582267756;-42.616374492644;CENTRO DE SAUDE DE CANTAGALO;RUA FRANCISCO BORGES;S/N;CENTRO;3334119001;39703000.0;MG;Cantagalo;2016;5
2383;5092;23108;-19.8669543;-43.9241315;CENTRO DE SAUDE SAO PAULO;RUA ANGOLA;357;SAO PAULO;(31)32776674;31910060.0;MG;Belo Horizonte;2016;5
2388;5126;5865638;-21.323874696549698;-42.8069340637792;ESF NILMA RIBEIRO WERNECK TEIXEIRA;RUA NILO LACERDA WERNECK;01;BAIRRO BELA VISTA;32- 3453-1336;36784000.0;MG;Dona Eusébia;2016;5
2389;5125;2141604;-21.7221051209875;-43.062047262085706;PROGRAMA SAUDE DA FAMILIA OESTE;RUA PROFESSOR CLAUDIO RIBEIRO PENCHEL;27;CAMPO LEOPOLDINA;(32)32711118;36600000.0;MG;Bicas;2016;5
2394;5185;23663;-19.80508;-43.9664;CENTRO DE SAUDE JARDIM EUROPA;RUA EDIMBURGO;140;JARDIM EUROPA;31-3277-1831/ 7509;31620530.0;MG;Belo Horizonte;2016;5
2397;4975;2122146;-21.268243789672198;-42.9371237754809;POSTO DE SAUDE GERALDO BONATOCAMPESTRE;PRACA SANTANA;S/N;SANTANA DE CAMPESTRE;(32) 3451-7150;36783000.0;MG;Astolfo Dutra;2016;5
2406;4859;2169479;-19.4590107742798;-43.11014984412379;UNIDADE BASICA DE SAUDE LINCOLN MARTINS MOREIRA;AV JOSE MARIANO PIRES;209;CENTRO;(31)38381391;35910000.0;MG;Santa Maria de Itabira;2016;5
2415;4970;2159023;-19.220957177094398;-45.00187085850679;UNIDADE BASICA DE SAUDE MORRO DOCE;RUA ANTONIO CANDIDO CASTELO BRANCO FILHO;281;MORRO DOCE;(37)35231914;35640000.0;MG;Pompéu;2016;5
2417;4905;6843913;-19.105696678161102;-41.99676275253171;ESF JANDIR VIEIRA;RUA VEREADOR ALFREDO ACACIO;21;SAO JOSE DO ACACIO;;35130000.0;MG;Engenheiro Caldas;2016;5
2425;5154;2102293;-18.827691078185502;-42.440636157988294;CENTRO DE SAUDE DE SANTA EFIGENIA DE MINAS;RUA SAO VICENTE DE PAULO;15;CENTRO;(33)32971211;39725000.0;MG;Santa Efigênia de Minas;2016;5
2437;5114;2191903;-19.8582172393793;-44.9960303306567;PSF NOVO HORIZONTE DE NOVA SERRANA;AVENIDA NORTE SUL;1552;MARIANA MARTINS;(037)32252112;35519000.0;MG;Nova Serrana;2016;5
2443;5161;2116383;-19.5173299312586;-43.74547719955321;JABOTICATUBAS CENTRO DE SAUDE JOSE EVARISTO RODRIGUES;DOM CARLOS VASCONCELOS;350;CENTRO;(31)36831103;35830000.0;MG;Jaboticatubas;2016;5
2445;4967;2122162;-21.268275976180398;-42.8989076614367;POSTO DE SAUDE SOBRAL PINTO;AVENIDA CORONEL POVOA;S/N;SOBRAL PINTO;(32) 3451-8168;36782000.0;MG;Astolfo Dutra;2016;5
2446;4879;2099985;-20.5717035009858;-43.01128164717521;POSTO DE SAUDE SAO JOAQUIM;VILA SAO JOAQUIM;S/N;ZONA RURAL;(31)38935296;35436000.0;MG;Guaraciaba;2016;5
2456;5095;2101564;-16.1648583412166;-46.1774897575365;POSTO DE SAUDE SAGARANA;AVENIDA C;S/N;SAGARANA;(38)36352392;38680000.0;MG;Arinos;2016;5
2461;5396;2182882;-16.9001483917231;-43.64338159561029;POSTO DE SAUDE DE TABOCAL;AV MARIA ROSA DE JESUS;83;ZONA RURAL;(38)32368121;39592000.0;MG;Glaucilândia;2016;5
2477;5329;2794608;-21.7617721380658;-45.5450741387173;UBS D MARIANINHA;RUA VALDIR LISBOA;64;COHAB;(35)32631534;37405000.0;MG;Monsenhor Paulo;2016;5
2482;5279;2102072;-16.9115638732905;-46.2304043769823;POSTO DE SAUDE VILA SANTO ANTONIO;RUA GREGORIO CANDIDO FONSECA;S/N;DISTRITO DE SANTO AN;;38654000.0;MG;Dom Bosco;2016;5
2483;5201;2124262;-20.1441744103498;-44.200187609063605;UNID SAUDE DA FAMILIA CASA BRANCA;RUA UM;50;CASA BRANCA;(31)35753457;35460000.0;MG;Brumadinho;2016;5
2491;5311;6861563;-14.850283877695801;-43.91782643656649;UBS FRANCISCO JOSE DE SOUZA;RUA DUQUE DE CAXIAS;436;GAMELEIRA;38-36163161;39478000.0;MG;Matias Cardoso;2016;5
2503;5297;2208555;-20.7811546325678;-42.437653541563705;UBS DE MONTE ALVERNE;RUA PRINCIPAL;10;ZONA RURAL;(32)37531410;36893000.0;MG;Miradouro;2016;5
2530;5408;2115530;-20.940005779265803;-44.92652893066279;PSF EDSON INHOTA RODRIGUES;RUA MICHAEL CHARLES FLEMING;21;SAO BENEDITO;(35)38632515;37262000.0;MG;Santo Antônio do Amparo;2016;5
2554;5290;5711207;-19.713534607102;-47.98362489557421;UNIDADE MATRICIAL DE SAUDE GEORGE CHIREE JARDIM;RUA FRANCISCO MUNHOZ LOPES;499;ALFREDO FREIRE;34-33149471;38056055.0;MG;Uberaba;2016;5
2556;5386;2114453;-20.0457787513727;-41.642239093779295;POSTO DE SAUDE DE AGUA LIMPA CHALE;COR AGUA LIMPA;S/N;ZONA RURAL;;36985000.0;MG;Chalé;2016;5
2557;5289;6435890;-16.2058726888409;-44.4275330930915;ESF CRISTINA ROCHA;AVENIDA BRASIL;1010;CRISTINA ROCHA;38 3231-3024;39330000.0;MG;Brasília de Minas;2016;5
2561;5527;2153718;-21.5805387496942;-43.4865260124194;UBS PAULA LIMA;RUA VICENTE GAVIO;S/N;PAULA LIMA;(32)36907505;36030000.0;MG;Juiz de Fora;2016;5
2562;5349;2100614;-19.240783452987102;-46.069364547728206;UNIDADE BASICA DE SAUDE CAPELINHA DO ABAETE;RUA VIRGILIO COUTO;124;CAPELINHA ABAETE;;38800000.0;MG;São Gotardo;2016;5
2567;5593;7556926;-19.9108791397809;-48.3506155014038;UNIDADE BASICA DE SAUDE DONA BITA;RUA ITUIUTABA;S/N;ALAGOAS;;38120000.0;MG;Conceição das Alagoas;2016;5
2575;5229;2203197;-17.0115274631444;-43.6687777057549;UNIDADE BASICA DE SAUDE SAO JOAO BATISTA;RUA A;10;CENTRO;(38)32511278;39397000.0;MG;Guaraciama;2016;5
2577;5409;2161818;-20.9900103366547;-43.01108120377621;UBS DIVINESIA;PRACA PADRE NELSON TAFURI;S/N;CENTRO;(32)35351192;36546000.0;MG;Divinésia;2016;5
2584;5300;2216647;-20.416643422487898;-42.9096842699379;POSTO DE SAUDE JOSE PINTO DA PAIXAO;RUA TOCANTINS;02;SAO PEDRO;(31)38175030;35430279.0;MG;Ponte Nova;2016;5
2615;5211;23434;-19.95806;-43.98457;CENTRO DE SAUDE AMILCAR VIANNA MARTINS;RUA NELSON DE SENA;090;CIQUENTENARIO;(31)32779610;30570060.0;MG;Belo Horizonte;2016;5
2619;5472;6915922;-16.2210667133327;-42.8633737564074;UBS BOCAINA;POVOADO BOCAINA;1;ZONA RURAL;;39570000.0;MG;Grão Mogol;2016;5
2621;5314;6000304;-14.8366820812221;-42.8153729438769;UBS IRACY LULA MENDES;AV PRINCIPAL;S/N;ITAMIRIM;;39510000.0;MG;Espinosa;2016;5
2641;5545;23191;-19.87695;-43.91714;CENTRO DE SAUDE DOM JOAQUIM;AV JOAQUIM JOSE DINIZ;200;DOM JOAQUIM;(31)32775701;31920120.0;MG;Belo Horizonte;2016;5
2649;5433;2108925;-19.6930304397712;-43.919915186737796;VESPASIANO UNIDADE BASICA DE SAUDE VILA ESPORTIVA;RUA CORINTHIANS;70;VILA ESPORTIVA;(31)36215933;33200000.0;MG;Vespasiano;2016;5
2651;5367;2157942;-18.2878101900473;-44.22169822052339;CENTRO DE SAUDE DE SANTO HIPOLITO;RUA PROJETADA B LOTEAMENTO ANDREOLO BENFICA VILEL;S/N;CENTRO;(38)37261182;39210000.0;MG;Santo Hipólito;2016;5
2657;5474;2119641;-16.141161852922302;-40.291428834106604;UNIDADE DE SAUDE DA FAMILIA ESF BOM JARDIM;PRACA OTELINO SOL;S/N;ZONA RURAL;33 3723 1514;39930000.0;MG;Jacinto;2016;5
2661;5441;2161834;-21.132046791510103;-42.3610748978922;CENTRO DE SAUDE DR CLOVIS DE AQUINO;RUA PEDRO LICA MUGLIA;S/N;AEROPORTO;(32)37291253;36887034.0;MG;Muriaé;2016;5
2662;5401;2156431;-18.365814685821;-44.457871913908605;CENTRO DE SAUDE MUNICIPAL DE CORINTO;PRACA JUSCELINO KUBISTCHEK;30;CENTRO;;39200000.0;MG;Corinto;2016;5
2678;5215;2210878;-18.0459198091503;-41.110558389941396;ESF CIDADE NOVA;RUA PROJETADA;S/N;CIDADE NOVA;(33)35261373;39850000.0;MG;Ataléia;2016;5
2685;5586;23167;-19.88458;-43.93425;CENTRO DE SAUDE CIDADE OZANAN;RUA OZANAN;365;IPIRANGA;(31)32776264;31160110.0;MG;Belo Horizonte;2016;5
2690;5414;2118033;-18.1769616222933;-46.8125356350839;UNIDADE BASICA DE SAUDE D ANTONIA ISIDIA;RUA JOSE DE DEUS GODINHO;38;CENTRO;;38785000.0;MG;Lagamar;2016;5
2696;5342;4044266;-22.336972066806897;-45.0954251629558;PSF DE VIRGINIA;RUA ANTONIO DA COSTA PINTO;611;CENTRO;(35)33731344;37465000.0;MG;Virgínia;2016;5
2701;5361;6368379;-19.937524293775;-43.9264531735304;CENTRO DE SAUDE SANTO ANTONIO;RUA IRINEU PINTO;255;SAO JOAO BATISTA;3277-5562/ 1867;31510020.0;MG;Belo Horizonte;2016;5
2708;5322;2140993;-19.5242071151728;-42.6136922836291;UNIDADE DE SAUDE DA FAMILIA SANTA TEREZINHA;R VINTE UM;195;SANTA TEREZINHA;(31)38467714;35171140.0;MG;Coronel Fabriciano;2016;5
2722;5383;7256094;-15.515882017308;-43.061428070068395;UBS ANTONIO JOSE DA SILVEIRA;FAZENDA TABUA;S/N;ZONA RURAL;;39517000.0;MG;Pai Pedro;2016;5
2725;5218;2210576;-17.864600699999997;-40.3251719;UNIDADE DE SAUDE FAMILIA LATICINIO;RUA CARIJOS;80;LATICINIO;(33)36215096;39860000.0;MG;Nanuque;2016;5
2729;5589;2190842;-19.836738109588;-44.14776563644279;UNIDADE DE SAUDE DA FAMILIA RETIRO III USF 03;AVENIDA RETIRO DOS IMIGRANTES;S/N;RETIRO;(31)3352-5264;32050710.0;MG;Contagem;2016;5
2749;5690;6347177;-16.754519633283;-41.5078082034317;UNIDADE BASICA DE SAUDE CENTRAL;PRACA DOS ANDRADES;65;CENTRO;(33) 3733 8010;39615000.0;MG;Ponto dos Volantes;2016;5
2789;5612;22845;-19.88547;-43.90852;CENTRO DE SAUDE SANTA INES;RUA ITUMIRIM;50;SANTA INES;(31)32775663;31080170.0;MG;Belo Horizonte;2016;5
2792;5606;6583814;-18.352285623549896;-44.44860219955321;UNIDADE BASICA DE SAUDE VILA SAO JOAO;RUA DAVI CEZAR;205;SAO JOAO;38 3751-3128;39200000.0;MG;Corinto;2016;5
2814;5771;2119862;-15.687667804847699;-40.738533408469294;UNIDADE BASICA DE SAUDE MATA VERDE;RUA TIRADENTES;07;CENTRO;(33)37221257;39915000.0;MG;Mata Verde;2016;5
2815;5943;2133946;-16.9503017552809;-42.461353774306005;UNIDADE BASICA DE SAUDE VIVA BERILO;RUA JOAO AMARAL;S/N;CENTRO;;39640000.0;MG;Berilo;2016;5
2829;5906;2777053;-20.553188323974;-41.850743293761;UNIDADE SAUDE FAMILIA DINAMICA ESPERA FELIZ;FAZENDA PARAISO;S/N;ZONA RURAL;;36830000.0;MG;Espera Feliz;2016;5
2832;5857;2709554;-21.376739999999998;-42.70165;ESF DR JOSE FRANCISCO JUNQUEIRA REIS;RUA DEPUTADO ORMEU BOTELHO;72;BANDEIRANTES;(32)34292637;36773122.0;MG;Cataguases;2016;5
2842;5844;22632;-19.99671;-44.00817;CENTRO DE SAUDE EDUARDO MAURO DE ARAUJO;RUA ERIDANO;540;MIRAMAR;(31)32775937;30644100.0;MG;Belo Horizonte;2016;5
2844;5814;2164116;-19.767616852522103;-43.850007260632104;UNIDADE DE SAUDE PALMITAL;RUA ESTEFANIA SALES SOTERO;01;PALMITAL;31 36372446;33140180.0;MG;Santa Luzia;2016;5
2846;5868;2145391;-19.0405833721155;-47.918801307676794;CENTRO DE SAUDE BATISTA NAVES;RUA GETULIO MAGALHAES;82;CENTRO;(34)32451213;38490000.0;MG;Indianópolis;2016;5
2861;5608;2203332;-15.0516469177914;-42.955964349258004;AMBULATORIO MEDICO DE MAMONAS;RUA ALCEBIADES RIBEIRO DOS SANTOS;173;SANTANA;(38)38141189;39516000.0;MG;Mamonas;2016;5
2868;5860;2145804;-18.7412931756593;-47.688974802145395;POLICLINICA DR AMAURY FERREIRA DA SILVA;AVENIDA PADRE JULIO DE RAZ;81;CENTRO;(34)38431655;38525000.0;MG;Estrela do Sul;2016;5
2870;5892;2104075;-15.6609818;-44.1671123;PROGRAMA DE SAUDE DA FAMILIA ESF VIDA E ESPERANCA;RUA JOSE FERREIRA AMORIM;02;SANTO ANDRE;;39455000.0;MG;Ibiracatu;2016;5
2874;5885;2103397;-19.6007202041095;-42.2998154822517;CENTRO DE SAUDE DE VARGEM ALEGRE;AVENIDA CANDIDO MACHADO;845;CENTRO;(33)33241166;35199000.0;MG;Vargem Alegre;2016;5
2890;5776;2198606;-19.892494512089698;-43.8255570903302;SABARA CENTRO DE SAUDE RAVENA;TRAVESSA CANDIDO LUCIO F PINTO;S/N;RAVENA;(31)36723704;34740000.0;MG;Sabará;2016;5
2893;5614;5696410;-18.4940908207838;-41.103687832357004;PSF JOSE FERREIRA SOARES;RUA HENRIQUE TEIXEIRA DE SIQUEIRA;230;CENTRO;33 32418001;35298000.0;MG;Nova Belém;2016;5
2898;5990;22594;-19.99113;-44.03844;CENTRO DE SAUDE FRANCISCO GOMES BARBOSA;AVN NELIO CERQUEIRA;0015;TIROL;(31)32775826;30662060.0;MG;Belo Horizonte;2016;5
2904;5870;3824373;-21.0266625881189;-42.841873168944105;UBS ANACLETO LOPES GOMES;RUA TEREZA VIANA;S/N;BARRA DOS COUTOS;03235517974;36520000.0;MG;Visconde do Rio Branco;2016;5
2909;5843;2195178;-21.375532;-42.317487799999995;CENTRO DE SAUDE DR MARCO ANTONIO DE FREITAS;RUA PAULA FREITAS;327;CENTRO;(32)34461118;36750000.0;MG;Palma;2016;5
2913;5661;6461018;-19.9908681368469;-44.4289912352272;MATEUS LEME CENTRO DE SAUDE IMPERATRIZ;RUA RIO VERDE;252;IMPERATRIZ;;35670000.0;MG;Mateus Leme;2016;5
2917;5638;2796279;-18.75346;-44.42998;UNIDADE BASICA DE SAUDE VILA DE LOURDES DE CURVELO;RUA NILO PECANHA;400;VILA DE LOURDES;(38)37211000;35790000.0;MG;Curvelo;2016;5
2919;5778;6457118;-18.483263321987103;-41.3912087843896;UNIDADE BASICA DE SAUDE SENHOR FRANCISCO FIRMINO RODRIGUES;RUA DOMINGO SERRADOR;S/N;ZONA RURAL;;39848000.0;MG;São José do Divino;2016;5
2924;5811;2099071;-21.1993646621698;-43.7980484962451;UBS NOVE DE MARCO;RUA PAULO COELHO;63;NOVE DE MARCO;(32)33392110;36202801.0;MG;Barbacena;2016;5
2939;5825;6335721;-16.4417689423789;-41.00711544237971;UNIDADE BASICA DE SAUDE DO VATICANO;RUA ESMERALDA;130;VATICANO;37411817;39960000.0;MG;Jequitinhonha;2016;5
2951;5869;2764202;-21.9692552089685;-45.3484082221972;CENTRO DE SAUDE CAMPINHO;AV DR JOSE NICOLAU;56;CENTRO;(35)32712346;37480000.0;MG;Lambari;2016;5
2962;5921;2208512;-20.8905565738672;-42.3412871360767;UNIDADE BASICA DE SAUDE MAXIMIANO GOMES MARTINS;PRACA BENEDITO VALADARES;S/N;CENTRO;(32)37531203;36893000.0;MG;Miradouro;2016;5
2968;5957;2172704;-16.6893234476865;-44.358495294650204;CENTRO DE SAUDE DA FUNDACAO NACIONAL DE SAUDE;PRACA GETULIO VARGAS;1500;CENTRO;(38)32281643;39340000.0;MG;Coração de Jesus;2016;5
2969;5894;5969646;-18.4940908207838;-41.103687832357004;UBS FLORENTINO RODRIGUES CORREIA;RUA JULIO JOSE VERLY;150;POVOADO DE SANTO ANT;33 32418523;35298000.0;MG;Nova Belém;2016;5
3009;6212;2157942;-18.2878101900473;-44.22169822052339;CENTRO DE SAUDE DE SANTO HIPOLITO;RUA PROJETADA B LOTEAMENTO ANDREOLO BENFICA VILEL;S/N;CENTRO;(38)37261182;39210000.0;MG;Santo Hipólito;2016;5
3013;6369;2156946;-19.267690095515896;-45.5588633859591;CENTRO DE SAUDE DE QUARTEL GERAL;RUA MANOEL CAEIRO;360;CENTRO;(37)35431160;35625000.0;MG;Quartel Geral;2016;5
3020;6196;3962520;-21.2618386745447;-46.1476635932909;PSF CRUZEIRO WAGNER MOREIRA ALVES;RUA SAO VICENTE;1900;CRUZEIRO;(35)32942267;37145000.0;MG;Alterosa;2016;5
3041;6392;2099489;-20.4048342075769;-42.900266200303996;SAMMDU SERVICO DE ATENDIMENTO MEDICO MUNICIPAL DE URGENCIA;PRACA ANIBAL LOPES;1;TRIANGULO;(31)38176850;35430001.0;MG;Ponte Nova;2016;5
3051;6345;3618528;-16.121370000000002;-43.69106;CENTRO DE SAUDEUNIDADE BASICA PSF V SANTANA;RUA PE SILVESTRE;S/N;SANTANA;;39472000.0;MG;Capitão Enéas;2016;5
3052;6274;7522282;-18.0790886549425;-43.2475090026855;UNIDADE BASICA DE SAUDE REAL;RUA DO CAMPO;S/N;ZONA RURAL;(038) 35231300;39180000.0;MG;Felício dos Santos;2016;5
3057;6288;23159;-19.850820000000002;-43.89692;CENTRO DE SAUDE NAZARE;RUA CRUZ DE MALTA;73;NAZARE;(31)32776730;31990240.0;MG;Belo Horizonte;2016;5
3089;6006;2117614;-14.420364778569699;-44.363620582557104;UBS ALIANCA;RUA VOLTAIRE;98;CENTRO;;39495000.0;MG;Montalvânia;2016;5
3104;6105;2100541;-19.3127001913321;-46.0531440401029;UNIDADE BASICA DE SAUDE NOSSA SENHORA DE FATIMA;RUA PEDRO BOUGLEUX;471;N SR DE FATIMA;(34)36717139;38800000.0;MG;São Gotardo;2016;5
3107;6247;6317936;-20.1441744103498;-44.200187609063605;UNIDADE DE SAUDE DA FAMILIA TEJUCO;RUA JOAO DOS SANTOS;322;TEJUCO;35792121;35460000.0;MG;Brumadinho;2016;5
3117;6356;3180182;-16.73178;-43.83863;ESFSBMII MONTE CARMELO II;RUA OLIVINA;240;SANTA LUCIA;(38) 32298560 3560;39402090.0;MG;Montes Claros;2016;5
3118;6142;2126117;-19.950195550918;-44.1202783584582;UBS CRISTOVINA C G DE SOUZA TERESOPOLIS;RUA GATURANA;200;JARDIM TERESOPOLIS;(31)35913883;32684010.0;MG;Betim;2016;5
3130;6084;2101572;-15.8554601669307;-45.7304835319506;;;;;;;MG;Arinos;2016;5
3149;6029;2133237;-18.6158931255335;-43.5628724098193;CENTRO DE SAUDE PRESIDENTE KUBITSCHEK;RUA PLINIO RODRIGUES DE OLIVEIRA;28;CENTRO;(38)35451122;39135000.0;MG;Presidente Kubitschek;2016;5
3157;6282;2794950;-20.94089;-45.82692;PSF ROSARIO;RUA LY DE OLIVEIRA;06;JOSE MENALI;(35)3854-1216;37175000.0;MG;Ilicínea;2016;5
3160;6347;7814607;-16.134690099999997;-42.5117238;UNIDADE BASICA DE SAUDE SEDE;RUA B;275;CENTRO;;39558000.0;MG;Fruta de Leite;2016;5
3173;6187;6213588;-16.2247956209704;-41.47630906692;UNIDADE DE SAUDE 07 SAUDADE;RUA HORTENCIA;80;SAUDADE;3337531595;39620000.0;MG;Medina;2016;5
3193;6123;2194538;-17.991053049641604;-42.38964323008471;PSF SANTO ANTONIOAGUA BOA;RUA PRINCIPAL;01;DISTRITO STO ANTONIO;(33)35151213;39790000.0;MG;Água Boa;2016;5
3198;6241;2126435;-19.965379240085102;-44.197551103266605;UBS OSVALDO CRUZ VIANOPOLIS;RUA CONCEICAO SILVA LIMA;75;VIANOPOLIS;(31)35909181;32628118.0;MG;Betim;2016;5
3199;6362;2172550;-16.0009569335552;-44.276127237154796;UBS DE MANGAI;PONTE MANGAI;23;ZONA RURAL;(38)32319103;39335000.0;MG;Japonvar;2016;5
3200;6146;2126176;-19.9444985389704;-44.12678003311029;UBS ANTONIO CAETANO LARANJEIRAS;PRACA ADOLFO MENEZES DOS ANJOS;67;LARANJEIRAS;(31)3592.1711/2877;32676564.0;MG;Betim;2016;5
3204;6114;2141108;-19.8310518264765;-42.403299808501004;UNIDADE DE SAUDE FILOMENO PEREIRA BITARAES;AVENIDA PREFEITO CARLITO CAETANO CAMPOS;120;CENTRO;(31)33531184;35345000.0;MG;Córrego Novo;2016;5
3208;6492;2125927;-19.930089712142397;-44.188921451567296;UBS HOMERO GIL;RUA DIVINOPOLIS;153;HOMERO GIL;(031)3595.7777/3539.2483;32606710.0;MG;Betim;2016;5
3224;6656;2709678;-19.64031;-43.22338;UNIDADE CHICO OSORIO;RUA MARECHAL JOFRE;001;AGUA FRESCA;(31)3839-2222;35900455.0;MG;Itabira;2016;5
3241;6730;2160315;-20.444286795933;-44.7625667724609;CENTRO DE SAUDE GALBA VELOSO DE CLAUDIO;AVENIDA ARAGUAIA;131;CENTRO;037-3381.2199;35530000.0;MG;Cláudio;2016;5
3266;6605;2166321;-19.331291913985602;-47.0061421394335;ESF IV ANTINHA;RUA ROSA MARIA CAMELO LEAO;S/N;ZONA RURAL;(34) 3637-0018;38170000.0;MG;Perdizes;2016;5
3267;6409;2219735;-21.5334713459009;-43.1919336318957;UBS ALVARO RABELO VASCONCELOS;RUA FARMACEUTICO VESPACIANO PINTO VIEIRA;25;SANTA LUZIA;(32)32745731;36152000.0;MG;Goianá;2016;5
3277;6439;2140160;-16.321209674297;-43.71489456748961;CENTRO DE SAUDE FNS;RUA VINTE E TRES;58;CENTRO;;39472000.0;MG;Capitão Enéas;2016;5
3279;6676;3022137;-21.142308712005;-46.344323158262796;PSF DO RIO CLARO;ZONA RURAL;S/N;RURAL;;37860000.0;MG;Nova Resende;2016;5
3293;6516;2113414;-17.0797169208522;-44.205336570738496;CENTRO DE SAUDE GERALDO OLIVEIRA PEDROGA;RUA CLOVIS PRATES;398;CENTRO;(38)32371222;39380000.0;MG;Claro dos Poções;2016;5
3296;6737;2190389;-19.9636270178151;-44.138114074707005;UNIDADE BASICA DE SAUDE SANTA HELENA;RUA DELIO DA CONSOLACAO ROCHA;705;SANTA HELENA;(31)3352-5268;32015180.0;MG;Contagem;2016;5
3305;6523;2147971;-19.8284232616419;-42.6336908340442;UNIDADE DE SAUDE DE BAIXA VERDE;RUA D;S/N;DISTRITO BAIXA VERDE;( );35984000.0;MG;Dionísio;2016;5
3312;6522;2199831;-18.0913715113298;-42.5657456966687;POSTO DE SAUDE SANTO ANTONIO DOS ARAUJOS;RUA CONEGO LAFAIETE;358;DISTRITO SANTO ANTON;(33)3432-1206;39795000.0;MG;São Sebastião do Maranhão;2016;5
3315;6621;2101548;-18.405232429503897;-46.4247035980211;UNIDADE BASICA DE SAUDE ANDORINHAS;RUA SATURNINO ROSA XAVIER;661;ANDORINHA;(34)38112136;38750000.0;MG;Presidente Olegário;2016;5
3321;6413;2202913;-16.1220166651675;-44.587154388427706;CENTRO DE SAUDE SANTO ANTONIO;R EVA BOTELHO;411;CIDADE NOVA;(38) 3231 -6163;39336000.0;MG;Luislândia;2016;5
3328;6782;6170137;-18.618083505857197;-42.283027891501;PSF SEBASTIAO ANDRADE;RUA JOSE ANTONIO MONTEIRO;369;CENTRO;;39711000.0;MG;Coroaci;2016;5
3335;6487;5304075;-20.3834795951837;-42.2510147094714;UBS DA FAMILIA I PAULINA BAPTISTA PEREIRA;PRACA CONEGO ARNALDO;S/N;CENTRO;;36913000.0;MG;Santa Margarida;2016;5
3348;6759;2190036;-19.896336793899;-44.09255504608029;UNIDADE BASICA DE SAUDE BARROQUINHA;RUA DO REGISTRO;1676;PRAIA;3352 - 3770;32044350.0;MG;Contagem;2016;5
3362;6705;2108534;-15.8447206020351;-41.0962486267078;UNIDADE DE SAUDE ALTINO RODRIGUES DOS SANTOS;RUA BREJINHO;S/N;POVOADO DE ARACAJI;;39970000.0;MG;Pedra Azul;2016;5
3368;6465;2134446;-17.8677629385127;-42.5592310545725;UNIDADE AUXILIAR DE SAUDE FRANCISCO ASSIS ANDRADE ARICANDU;AV DO CONTORNO;135;CENTRO;(33)35159000;39678000.0;MG;Aricanduva;2016;5
3373;6510;2102889;-18.986831256465898;-41.989129111595396;PSF ARNALDO RODRIGUES DE ANDRADE;RUA MAGALHAES PINTO;130;CENTRO;(33)32361025;35138000.0;MG;Alpercata;2016;5
3380;6501;5509289;-18.32511745676;-42.1464105249464;PSF MARIA RIBEIRO DE FIGUEIREDO;RUA SENHORA APARECIDA;43;CENTRO;;39785000.0;MG;São José da Safira;2016;5
3381;6792;2146290;-18.6482695268138;-48.191605379029205;UNIDADE BASICA DE SAUDE DA FAMILIA BRASILIA;PRACA JUCELINO KUBITSCHEK;S/N;BRASILIA;3436903268;38441076.0;MG;Araguari;2016;5
3385;6429;5678129;-20.1983642578119;-44.016101360319794;UNIDADE DE SAUDE DA FAMILIA PALHANO;AVENIDA NOSSA SENHORA DA CONCEICAO;09;PALHANO;;35460000.0;MG;Brumadinho;2016;5
3388;6692;5855187;-16.2058726888409;-44.4275330930915;ESF VARGEM GRANDE;RUA PRINCIPAL;001;DISTRITO VARGEM GRAN;38 3231-5011;39330000.0;MG;Brasília de Minas;2016;5
3393;6481;2182033;-19.7660220154979;-44.085823649141;UNIDADE DE SAUDE DA FAMILIA NOVA PAMPULHA I;RUA HUM;577;CONJ NOVA PAMPULHA;(31)34966852;33937280.0;MG;Ribeirão das Neves;2016;5
3396;6626;2764954;-20.7056128978723;-46.6182088851915;PSF PARQUE DA ESTACAO DR FORTUNATO BORSARI;RUA LEOPOLDINA;S/N;JD CALIFORNIA;(35)35227374;37904070.0;MG;Passos;2016;5
3398;6404;2208466;-17.8013694472947;-41.7883855248752;CENTRO DE SAUDE FATIMA GUSMAO;R LAFAYETTE FREIRE;160;MARISTELA;(33)35251839;39827000.0;MG;Poté;2016;5
3407;6785;2213095;-22.502008746016603;-45.2725963577217;UBS CLAUDIO BENEDITO DE FREITAS DELFIM MOREIRA;AV JUSCELINO KUBSTCHEK DE OLIVEIRA;1;CENTRO;(35)36241210;37514000.0;MG;Delfim Moreira;2016;5
3421;6524;5707846;-22.756746357753897;-46.146863289284;ESF CRUZEIRO UBS DOUTOR FRANCISCO DE SOUZA;ANGELO CAETANO DOS SANTOS;550;CRUZEIRO;;37650000.0;MG;Camanducaia;2016;5
3425;6505;2194619;-20.3954998659809;-42.1521577505494;CENTRO DE SAUDE DE SAO JOAO DO MANHUACU;RUA RAIMUNDO MAGESTE VIEIRA;S/N;CENTRO;;36918000.0;MG;São João do Manhuaçu;2016;5
3431;6533;5553741;-17.349582095609698;-44.9510653804875;UAPS EUSTAQUIO DE QUEIROZ;RUA CLOVIS PEIXOTO;78;INDUSTRIAL;;39270000.0;MG;Pirapora;2016;5
3445;6449;2195046;-21.7715227603906;-42.5404143333423;CENTRO DE SAUDE DR LICINIO DE OLIVEIRA SERTA;RUA ANTONIO RIBEIRO DOS REIS FILHO;65;CENTRO;(32)34631232;36720000.0;MG;Volta Grande;2016;5
3459;6726;2201844;-20.8953162458046;-45.275861361123106;PSF ARNALDOS;RUA IRINEU FRANCISCO DA SILVA;95;ARNALDOS;(35)38322746;37270000.0;MG;Campo Belo;2016;5
3469;6425;2121778;-18.7190937995905;-49.204094409941206;PSF3 HERMENEGILDO DE FREITAS;RUA 13;355;BELA VISTA;(34)3266 3525;38380000.0;MG;Canápolis;2016;5
3472;6636;2170620;-19.833670899999998;-43.1679465;CENTRO SOCIAL URBANO;AV LUZIA BRANDAO FRAGA DE SOUZA;S/N;LOANDA;38511879;35931023.0;MG;João Monlevade;2016;5
3477;6758;2189992;-19.961364269256002;-44.0189123153674;UNIDADE BASICA DE SAUDE JARDIM INDUSTRIAL;RUA HENRIQUE ZIKLER;97;JARDIM INDUSTRIAL;(31)33635255;32215390.0;MG;Contagem;2016;5
3487;7165;2182750;-15.102641864892002;-44.0931858020531;POSTO DE SAUDE DE SERRARIA;SERRARIA;S/N;ZONA RURAL;;39470000.0;MG;Itacarambi;2016;5
3495;6934;2119161;-18.872140645980302;-41.95243120193361;ESF SAO PAULO I E II;RUA DONA ZULMIRA PEREIRA DA SILVA;444;SAO PAULO;;35030140.0;MG;Governador Valadares;2016;5
3505;6993;2212536;-22.657619187118698;-45.8565920384671;UBS ELIZEU R DE BARROS ESF;RUA ANTONIO GOMES PINTO;163;CENTRO;(35)36541228;37680000.0;MG;Gonçalves;2016;5
3507;7188;2193477;-19.413250826196002;-42.4181656693639;POSTO DE SAUDE DO VALE VERDE;RUA 16;161;VALE VERDE;(33)33240001;35198000.0;MG;Ipaba;2016;5
3509;7152;2141620;-21.7093491554254;-43.063359260557796;PROGRAMA SAUDE DA FAMILIA NORDESTE;AVENIDA GOVERNADOR VALADARES;S/N;CENTRO;(32)32711118;36600000.0;MG;Bicas;2016;5
3514;6937;2104083;-15.669170291788099;-44.16495486640929;CENTRO DE SAUDE DE IBIRACATU;RUA JOSE FERREIRA AMORIM;S/N;SANTO ANDRE;(38) ------------;39455000.0;MG;Ibiracatu;2016;5
3518;6957;23183;-19.88908;-43.94427;CENTRO DE SAUDE CACHOEIRINHA;RUA CORONEL;171;CACHOEIRINHA;(31)32776006;31130260.0;MG;Belo Horizonte;2016;5
3521;6941;2775492;-16.2189424037929;-44.901766777037295;PSF JOSE MENDES DA ROCHA;RUA RAIMUNDO GABRIEL;S/N;CENTRO;;39318000.0;MG;Icaraí de Minas;2016;5
3523;6881;2205130;-19.8295499100958;-44.1682058467865;ESMERALDAS CENTRO DE SAUDE NOVO RETIRO;AVENIDA DAS PALMEIRAS;181;NOVO RETIRO;(31)35383958;35740000.0;MG;Esmeraldas;2016;5
3533;7184;2777193;-22.29468;-44.93867;USF COMUNIDADE JARDIM;ANTONIO PEREIRA LEITE;256;RENNE CHARLIER;(35)33612054;37464000.0;MG;Itanhandu;2016;5
3541;7019;2775433;-20.70143;-46.60419;PSF JARDIM POLIVALENTE;RUA HONDURAS;S/N;POLIVALENTE;(35)3526 8645;37900586.0;MG;Passos;2016;5
3547;7112;3911608;-19.440888342152398;-42.554681121826206;UNIDADE DE SAUDE BETHANIA II;RUA ALBERTO GIOVANINI;S/N;BETHANIA;;35164017.0;MG;Ipatinga;2016;5
3548;7053;2099861;-20.1719098245167;-42.523900934801;UNIDADE BASICA DE SAUDE IPSEMG;RUA SILVA BASTOS;239;CENTRO;(33)33521171;35360000.0;MG;São Pedro dos Ferros;2016;5
3550;6915;2222086;-18.892954587935897;-41.9463157653796;ESF JARDIM PRIMAVERA;RUA ANAFESTE PARDINE;620;VILA ISA;;35043050.0;MG;Governador Valadares;2016;5
3571;6858;7341709;-19.9569924784256;-44.7013735771179;PSF DONA MARIA ANGELICA DE JESUS;RUA ANTONIO PINTO;176;SAO GERALDO;(37)3246-1370;35695000.0;MG;Igaratinga;2016;5
3581;6980;2103427;-18.5795889082626;-41.9233604609168;PROGRAMA SAUDE DA FAMILIA DE MATHIAS LOBATO;RUA BATISTA MIRANDA;S/N;CENTRO;3332841439;35110000.0;MG;Mathias Lobato;2016;5
3588;6938;2218925;-16.2194359302516;-44.9027323722826;UNIDADE MISTA DE ICARAI;RUA DONA LECA;100;CENTRO;(38)3634-7127;39318000.0;MG;Icaraí de Minas;2016;5
3591;7072;7051379;-20.921799926294103;-42.8348779678345;UNIDADE BASICA DE SAUDE SANTO ANTONIO;RUA CAPITAO MACHADO;S/N;SANTO ANTONIO;(32) 3556 1165;36530000.0;MG;São Geraldo;2016;5
3611;7032;2204118;-16.859872448364197;-44.91410683871779;UBS ANTONIO FONSECA MOTA;RUA JOSE TOMAZ DA FONSECA;S/N;ANIZIA CORDEIRO;(38)37461348;39350000.0;MG;Ibiaí;2016;5
3612;7100;2772485;-15.81;-43.31429;CENTRO DE SAUDE MILTON BOREM DE ALMEIDA JUNIOR;RUA JARAGUA;396;NOVA ESPERANCA;(38)38211099;39442144.0;MG;Janaúba;2016;5
3624;6860;2100959;-18.9386473163882;-46.6733926485071;CENTRO DE SAUDE MANOEL JOAQUIM PEREIRA;RUA 13 DE MAIO;565;CENTRO;(34)38351407;38735000.0;MG;Cruzeiro da Fortaleza;2016;5
3626;6854;2181584;-19.701941013335603;-44.1889643669115;ESMERALDAS POSTO DE SAUDE MELO VIANA;RUA COLETORA UM;10;MELO VIANA;(31)35384793;35740000.0;MG;Esmeraldas;2016;5
3644;6918;6844286;-19.5873570442194;-43.9034700393664;LAGOA SANTA UNIDADE BASICA DE SAUDE PALMITAL;RUA ALVARO RUFINO;119;PALMITAL;31 36881496;33400000.0;MG;Lagoa Santa;2016;5
3649;6935;2104946;-16.563874483108002;-42.893929481505104;CENTRO DE SAUDE DE GRAO MOGOL;RUA SARGENTO COELHO;S/N;CENTRO;(38)32381135;39570000.0;MG;Grão Mogol;2016;5
3654;7011;2098997;-21.224915384709;-43.7761933160596;UBS SAO PEDRO;RUA ANTONIO ALVES DE OLIVEIRA;S/N;SAO PEDRO;(32)3392111;36204342.0;MG;Barbacena;2016;5
3658;6866;2149281;-20.919331312179;-43.2448267936694;UBS RIBEIRAO DE SANTO ANTONIO;RUA ANTONIO EGIDIO CABRAL;S/N;CENTRO;(32)35341166;36542000.0;MG;Brás Pires;2016;5
3665;7002;2211106;-17.7857470182657;-40.2431685749409;PSF SERRA VERDE DE SERRA DOS AIMORES;RUA ITABIRA;S/N;SERRINHA;(33)36251083;39868000.0;MG;Serra dos Aimorés;2016;5
3666;7006;2218917;-16.229585409164;-45.02847433090079;PSF MARIA DAS DORES ROCHA;ZONA RURAL;S/N;ZONA RURAL;;39318000.0;MG;Icaraí de Minas;2016;5
3667;6827;2111098;-19.3767070770258;-42.1063899993884;CENTRO DE SAUDE DE DOM CAVATI;RUA MACHADO DE ASSIS;173;CENTRO;(33)33571122;35148000.0;MG;Dom Cavati;2016;5
3681;7038;2119935;-16.296595474783498;-41.7911317349164;UNIDADE BASICA MARIA LOPES CAMPANHA;RUA PEDRO PINTO DE OLIVEIRA;S/N;CENTRO;(33)37231107;39628000.0;MG;Comercinho;2016;5
3685;6968;2763893;-19.8319423198694;-43.8442468643176;SABARA CENTRO DE SAUDE KM 14;BR 381;S/N;BORBA GATO;(31)36911016;34650200.0;MG;Sabará;2016;5
3696;6908;2156709;-19.563900959713898;-44.443397045028604;UNIDADE DE SAUDE MARIA CONCEICAO REZENDE FORTUNA DE MINAS;RUA ALVORADA;441;CENTRO;(31)37167154;35760000.0;MG;Fortuna de Minas;2016;5
3704;6910;2103036;-18.5617897297728;-41.9012165865176;PROGRAMA SAUDE DA FAMILIA FREI INOCENCIO;RUA SENHOR DO BONFIM;11;CENTRO;(33)32841360;35112000.0;MG;Frei Inocêncio;2016;5
3707;29518;22608;-19.98788;-44.03605;CENTRO DE SAUDE TUNEL DE IBIRITE;RUA MARLY PASSOS;225;TIROL;(31)32775964;30660000.0;MG;Belo Horizonte;2016;5
3742;6823;2159554;-20.118874311446604;-44.874837398527795;CS DANILO PASSOS;RUA ANTONIO NETO;1768;DANILO PASSOS I;(37)3222-9179;35500313.0;MG;Divinópolis;2016;5
3747;7127;2208806;-20.7643252584537;-43.183160126209295;UBS MARIA SOARES DE ALMEIDA;PRACA JOSE SOARES;25;SAO NICOMEDES;(32)35381188;36475000.0;MG;Presidente Bernardes;2016;5
3752;6840;7583591;-19.848233755979603;-44.588731010437;UBS RECANTO DA LAGOA;PRACA RAIMUNDO LEITE;S/N;RECANTO DA LAGOA;;35660001.0;MG;Pará de Minas;2016;5
3774;7063;2203251;-15.4923847142697;-42.203584820466105;UBS JESUINA MARIA DE JESUS;RUA SAO JOAO DO PARAISO;75;ZONA RURAL;38999601709;39536000.0;MG;Indaiabira;2016;5
3776;6998;2185512;-16.475680865687803;-43.488735281491;UBS DE CATUNI;CATUNI;S/N;ZONA RURAL;;39580000.0;MG;Francisco Sá;2016;5
3784;7074;2148870;-20.8612024784082;-42.80380725860471;UNIDADE DE SAUDE CELIO FRANCO;AVENIDA JOSE MARIA DOS SANTOS;S/N;CENTRO;(32)35551300;36550000.0;MG;Coimbra;2016;5
3789;7024;5393914;-18.9692151546473;-41.8625450134265;UNIDADE BASICA ESF EZEQUIEL ALVES DE CARVALHO;RUA EDVALDO MARQUES DE LANA;181;SAO GERALDO DO TUMIR;;35126000.0;MG;Tumiritinga;2016;5
3795;6936;2104865;-16.5664951547913;-42.888012880146;POSTO DE SAUDE DE BARROCAO;POVOADO DE BARROCAO;S/N;ZONA RURAL;(38)32381135;39570000.0;MG;Grão Mogol;2016;5
3806;7340;2119900;-16.167883872985403;-41.207013130186795;UNIDADE BASICA DE SAUDE DA ESTIVA;RUA SANTA GOMES;24;ZONA RURAL;;39960000.0;MG;Jequitinhonha;2016;5
3810;7488;2796856;-20.3639991114517;-41.962679807371394;UNIDADE SAUDE FAMILIA DAS MANGUEIRAS MANHUMIRIM;PRACA DA RODOVIARIA;10;CENTRO;(33)33411981;36970000.0;MG;Manhumirim;2016;5
3811;7379;2221632;-21.734443902968696;-43.3289408683764;UBS LINHARES I PSF;R ODILON BRAGA;S/N;LINHARES;(32)36907747;36060500.0;MG;Juiz de Fora;2016;5
3814;7502;2120658;-19.9908681368469;-44.4289912352272;MATEUS LEME CENTRO DE SAUDE SERRA AZUL;RUA SERGIPE;240;CENTRO SERRA AZUL;(31)35375134;35670000.0;MG;Mateus Leme;2016;5
3818;7262;2199300;-19.4402724492355;-42.2146925147824;PRIMEIRA UNIDADE PSF DE IAPU;CORREGO DOS RAMOS;S/N;ZONA RURAL;( );35190000.0;MG;Iapu;2016;5
3820;7347;6901808;-15.902999999999999;-44.305;CENTRO DE SAUDE DE LONTRA;AVENIDA MONTES CLAROS;741;CENTRO;(38) 3234-8102;39437000.0;MG;Lontra;2016;5
3821;7422;2221683;-21.7609243086743;-43.3488172724747;UBS SANTO ANTONIO PSF;RUA PEDRO TROGO;285;SANTO ANTONIO;(32)36907127;36071410.0;MG;Juiz de Fora;2016;5
3828;7518;2117819;-15.924513065499198;-44.00895510849671;UBS DE DINIZLANDIA;FAZENDA DINIZLANDIA;S/N;ZONA RURAL;(38)32341101;39430000.0;MG;São João da Ponte;2016;5
3829;7292;2213168;-22.7697403889151;-46.2195568578145;UBS APIO CARDOSO ITAPEVA;RUA TOBIAS ANDRADE;230;CENTRO;(35)34342190;37655000.0;MG;Itapeva;2016;5
3847;7405;7559534;-22.300069890832702;-44.93596023082729;UBS TEREZA LEVENHAGEN;AV FERNANDO COSTA;814;CENTRO;35-3361-3815;37464000.0;MG;Itanhandu;2016;5
3849;7345;6335616;-16.447874307632002;-41.0098600387561;UNIDADE BASICA DE SAUDE SANDRA FERREIRA DE SOUSA FIGUEIREDO;RUA FREI QUERUBIM;322;NOVA ESPERANCA;3337411423;39960000.0;MG;Jequitinhonha;2016;5
3856;7397;2153122;-21.772574186324395;-43.370976448057796;UBS SAO PEDRO;RUA JOSE LOURENCO KELMER;00;SAO PEDRO;(32)36907688;36036330.0;MG;Juiz de Fora;2016;5
3857;7425;2179598;-21.484515666961002;-44.32620763778559;PSF CIANITA CENTRO DE SAUDE DE MADRE DE DEUS DE MINAS;RUA CEL ANTONIO BERNARDINO;1;CRUZEIRO;(32)33381036;37305000.0;MG;Madre de Deus de Minas;2016;5
3863;7542;2145928;-18.8724946975703;-48.879804611204605;CENTRO DE SAUDE DONA ANTUNINHA DELFINO;AVENIDA DA SUADADE;17;CENTRO;(34)32830531;38475000.0;MG;Monte Alegre de Minas;2016;5
3864;7372;6808255;-15.9010651064361;-40.1800141591305;UNIDADE DE SAUDE DA FAMILIA SAUDE E CIDADANIA;RUA JOSE SERGIO FERREIRA;71;CENTRO;3388367562;39920000.0;MG;Jordânia;2016;5
3867;7519;5266939;-22.2436344623559;-45.709304809569;USF 05 SANTA RITA DO SAPUCAI;RUA DEODATO SEDA;453;MARISTELA;3534712438;37540000.0;MG;Santa Rita do Sapucaí;2016;5
3868;7282;2164841;-19.758824527739197;-47.91071398925779;UNIDADE MATRICIAL DE SAUDE ROBERTO ARABE ABDANUR;RUA EDELWEISS TEIXEIRA;60;MERCES;(34) 3316 2448;38061515.0;MG;Uberaba;2016;5
3869;7398;2153394;-21.7111730575555;-43.4102869033801;UBS JOQUEI CLUBE II PSF;R ANTONIO GUIMARAES PERALVA;S/N;JOQUEI CLUBE II;(32)36907904;36085120.0;MG;Juiz de Fora;2016;5
3878;7214;2195267;-20.9232366085046;-42.256443500517605;UBS JOSE FERREIRA CAMPBELL;ESTRADA DO GAVIAO;S/N;ZONA RURAL;(32)37241231;36855000.0;MG;Eugenópolis;2016;5
3882;7424;2221705;-21.730914115905104;-43.340163230894696;UBS MARUMBI PSF;R BARAO DO RETIRO;1472;MARUMBI;(32)36907802;36051470.0;MG;Juiz de Fora;2016;5
3884;7299;2141132;-18.9599025249476;-49.4557714462266;POSTO DE SAUDE TANCREDO MARQUEZ DE ANDRADE;RUA PRESIDENTE ROOSEVELT;1225;MARIA VILELA;3432688927;38301056.0;MG;Ituiutaba;2016;5
3899;7294;2775336;-20.7458353042597;-46.745817661284;PSF CELESTINA ALVES BANDEIRA ITAU;AV BENEDITO DAMASCENO DA SILVA;279;SAGRADA FAMILIA;(35)35364499;37975000.0;MG;Itaú de Minas;2016;5
3901;7220;2191865;-19.8647379639463;-44.60538018789371;UBS SAO CRISTOVAO;RUA AZARIAS GOMES DE OLIVEIRA;304;SAO CRISTOVAO;37 3236 1959;35660001.0;MG;Pará de Minas;2016;5
3903;7290;2120216;-16.5647864341731;-41.500124931334206;UNIDADE BASICA DE SAUDE DE ITAOBIM;RUA DA BAHIA;408;CENTRO;;39625000.0;MG;Itaobim;2016;5
3905;7514;2102080;-16.651464700698398;-46.270852088926894;CENTRO DE SAUDE DOM BOSCO;RUA MARIA ALVES;525;CENTRO;(38) 9 999135001;38654000.0;MG;Dom Bosco;2016;5
3914;7267;3810453;-22.2950796548768;-44.935921904662706;UNIDADE DE SAUDE DA FAMILIA MANSOES;RUA NEUSA ANTUNES;06;PORTAL;35 33611190;37464000.0;MG;Itanhandu;2016;5
3925;7575;2794284;-22.117768671360196;-45.0533731031446;CENTRO DE SAUDE CARIOCA;JOSE BERNARDES;38;CARIOCA;33312126;37470000.0;MG;São Lourenço;2016;5
3938;7497;2114380;-20.2324068546289;-41.849606037138706;POSTO DE SAUDE DE PINHEIRO DE MINAS MARTINS SOARES;R PRINCIPAL;S/N;CENTRO;(33)33422000;36972000.0;MG;Martins Soares;2016;5
3940;7452;2104016;-19.5935046672815;-41.967816352843;CENTRO DE SAUDE NOSSA SRA DAS GRACAS IMBE DE MINAS;AVENIDA CANDIDO;243;CENTRO;(33)33251462;35323000.0;MG;Imbé de Minas;2016;5
3960;7350;2140381;-19.168695674132604;-42.674701682306;CENTRO DE SAUDE DE JOANESIA;R JOAQUIM DIAS DE MOURA;21;CENTRO;(33)32521405;35194000.0;MG;Joanésia;2016;5
3966;7373;2221624;-21.7228138446802;-43.397841453550996;UBS JOQUEI CLUBE I PSF;RUA ANTONIO ARMANDO PEREIRA;140;JOQUEI CLUBE;(32)36907917;36083730.0;MG;Juiz de Fora;2016;5
3985;7592;2102099;-19.032922983169;-46.154530048369;CENTRO DE SAUDE DE ARAPUA;RUA ANTONIO PRUDENCIO PAULA;40;CENTRO;(34)38561240;38860000.0;MG;Arapuá;2016;5
4005;7230;2139650;-15.874031782149801;-42.5071120262134;UBS JARDIM;FAZENDA JARDIM;S/N;ZONA RURAL;;39530000.0;MG;Rio Pardo de Minas;2016;5
4024;7530;2196387;-18.9408129613496;-46.9974382401645;UBS MORADA NOVA;AV JACARANDAS;3399;MORADA NOVA;(34)38315928;38748670.0;MG;Patrocínio;2016;5
4045;7297;7690649;-18.892360098093604;-48.3073219656944;UBSF JARDIM BRASILIA II;RUA BIOT SANTOS;100;JARDIM BRASILIA;;38401086.0;MG;Uberlândia;2016;5
4052;7800;6247415;-19.311298933699998;-47.5271443343503;UAPS GERALDO AFONSO DA SILVA;AVENIDA JOAQUIM HONORIO DA SILVA;280;SAO JUDAS TADEU;;38175000.0;MG;Santa Juliana;2016;5
4055;7831;2102056;-17.843416929244498;-46.5139460563646;CENTRO S LAGOA GRANDE COM LEITO DE OBSERVACAO;RUA PRESIDENTE OLEGARIO;615;PLANALTO;(34)38611442;38755000.0;MG;Lagoa Grande;2016;5
4056;7783;2148005;-19.2755877971644;-44.403197765349;UNIDADE BASICA DE SAUDE DR JOSE TEOFILO PEREIRA SIMOES;PRACA MANOEL ANTONIO DA SILVA;211;CENTRO;(31)37141133;35774000.0;MG;Paraopeba;2016;5
4059;7977;2112620;-20.3867763678658;-43.50644751971371;OURO PRETO UNIDADE BASICA DE SAUDE VEREDAS;RUA VEREADOR JULIO FORTES;S/N;SANTA RITA;(31)35593280;35409000.0;MG;Ouro Preto;2016;5
4089;7785;2184842;-14.7559221144299;-43.93676152235311;EQUIPE PSF SAO JOSE DAS TRAIRAS;SAO JOSE DAS TRAIRAS;S/N;SAO JOSE DAS TRAIRAS;;39460000.0;MG;Manga;2016;5
4090;7714;3306100;-16.395139999999998;-46.91725;UNIDADE DE SAUDE ESF NOVO HORIZONTE;RUA JOSE DE MELO;186;NOVO HORIZONTE;(38)36775049;38610000.0;MG;Unaí;2016;5
4096;7638;2117207;-20.507416572351698;-44.394495906352994;PIEDADE DOS GERAIS CENTRO DE SAUDE JOSE DE AVILA E SILVA;NOSSO SENHOR DO BONFIM;329;CENTRO;(31)35781107;35476000.0;MG;Piedade dos Gerais;2016;5
4099;7906;2155753;-19.220957177094398;-45.00187085850679;UNIDADE BASICA DE SAUDE VOLTA DO BREJO;RUA TOGALMA SOARES MACIEL;357;VOLTA DO BREJO;(37)35234469;35640000.0;MG;Pompéu;2016;5
4102;7721;2209470;-17.4091656808734;-41.222096610120104;POSTO DE SAUDE DE AMERICANIHA DE NOVO ORIENTE DE MINAS;RUA LONDRINA;201;AMERICANINHA;(33)35327010;39817000.0;MG;Novo Oriente de Minas;2016;5
4121;7815;5502721;-16.2247956209704;-41.47630906692;UNIDADE DE SAUDE 06 ALIANCA;AVENIDA LUIZ TANURE;S/N;ALIANCA;3337531595;39620000.0;MG;Medina;2016;5
4122;7720;2209497;-17.4095320701594;-41.179525852202204;POSTO DE SAUDE DE FREI GONZAGA;PRACA TANCREDO NEVES;S/N;CENTRO;(33)5328103;39817000.0;MG;Novo Oriente de Minas;2016;5
4166;7678;2208725;-21.231367431896103;-42.2601856954861;UNIDADE MISTA DE SAUDE DE BARAO DO MONTE ALTO;RUA OTONIO ANTUNES;S/N;CENTRO;(32)37271118;36870000.0;MG;Barão de Monte Alto;2016;5
4208;7661;2156504;-19.4508862495417;-44.7481942176806;UNIDADE CANDIDO GONCALVES DOS REIS;AV DR ARTHUR SILVA BERNARDES;203;CENTRO;(37)32741203;35669000.0;MG;Papagaios;2016;5
4216;7621;2111136;-15.594542347344401;-43.606022262399705;POSTO SAUDE BARREIRO DO RIO VERDE;RUA JOSE DE PAULA COSTA;100;BARREIRO DO RIO VERD;(38)36258103;39458000.0;MG;Verdelândia;2016;5
4217;7949;2145510;-19.168891649263802;-47.670570749698;CENTRO DE SAUDE DR JOSE SOARES DE FARIA;AV FLORIANO PEIXOTO;1464;CENTRO;(34)33561400;38160000.0;MG;Nova Ponte;2016;5
4225;7926;2193868;-15.155338588724199;-42.873165494039505;UNIDADE BASICA DE SAUDE EUTIMIA ANTUNES JORGE;RUA RUI BARBOSA;365;PERNAMBUCO;;39500000.0;MG;Monte Azul;2016;5
4230;7955;3328392;-21.8380844593042;-44.8090696334826;USF SAUDE COMUNIDADE CENTRO;RUA MARIA CANDIDA PEREIRA MACIEL;S/N;CENTRO;(35)33462235;37445000.0;MG;Cruzília;2016;5
4232;7679;2212609;-22.7417635917657;-46.3750505447374;UBS DE TOLEDO;RUA BENJAMIN MACEDO;467;CENTRO;(35)34361127;37630000.0;MG;Toledo;2016;5
4234;7791;2209462;-17.4091656808734;-41.222096610120104;CENTRO DE SAUDE SINVALDO RAMALHO DOS SANTOS;RUA SETE DE SETEMBRO;77;CENTRO;(33)532-8103;39817000.0;MG;Novo Oriente de Minas;2016;5
4236;7978;2196522;-18.9408129613496;-46.9974382401645;UBS SANTA TEREZINHA;RUA OSCAR RODARTE;1604;SANTA TEREZINHA;(34)38317289;38742078.0;MG;Patrocínio;2016;5
4241;7957;2218208;-19.935847434269103;-43.4848824690371;UNIDADE BASICA DE SAUDE DR JAIR PEREIRA COSTA;LUIZ AUGUSTO DIAS;780;COCAIS;(31)38373320;35970000.0;MG;Barão de Cocais;2016;5
4250;7911;3000737;-18.8772153854365;-48.8765859603868;UNIDADE DE SAUDE DA FAMILIA ALFREDO ALVES MARTINS;RUA LUIS BIANCHI;35;FLAMENGO;(34)32830532;38475000.0;MG;Monte Alegre de Minas;2016;5
4259;7777;2104873;-16.5606129169459;-43.2613062858569;POSTO DE SAUDE POVOADO DO SITIO;POVOADO DO SITIO;S/N;ZONA RURAL;(38)32381135;39570000.0;MG;Grão Mogol;2016;5
4264;7693;6677002;-22.286638029799;-46.6123411663105;ESF III JACUTINGA MARINA PIERONI PRADO;RUA TORINO PIERONI;000;ALTO DE SAO PEDRO;;37590000.0;MG;Jacutinga;2016;5
4273;7921;2115107;-20.8299461552485;-42.1545386689724;CENTRO DE SAUDE DE PEDRA DOURADA;RUA ALEXANDRE FAVA;25;CENTRO;(32)37481012;36847000.0;MG;Pedra Dourada;2016;5
4281;7749;3022129;-21.0105907917017;-46.401078701017894;PSF PETUNIA;ZONA RURAL;S/N;PETUNIA;( );37860000.0;MG;Nova Resende;2016;5
4283;7816;6770533;-15.3238044714656;-44.7580284448541;UAPS JOAO AMANCIO DE SOUZA;COMUNIDADE DE GIBAO;S/N;ZONA RURAL;(38)3625-6120;39490000.0;MG;Bonito de Minas;2016;5
4294;7927;6328725;-15.3238019191961;-41.7487889593795;UBS BANANEIRA;FAZENDA BANANEIRA;S/N;ZONA RURAL;;39553000.0;MG;Ninheira;2016;5
4296;7711;2184761;-16.3541579246516;-46.8953347206102;UNIDADE BASICA DE SAUDE ESF CACHOEIRA;RUA SANTA LUZIA;263;CACHOEIRA;(38)36763956;38610000.0;MG;Unaí;2016;5
4324;8230;2162709;-21.1939817415146;-42.61603959028079;UBS ATAULPHO ALVES;R PROF ARLINDO CEZAR B BENEVENUTE;509;CENTRO;(32)34261212;36790000.0;MG;Miraí;2016;5
4362;8262;2105837;-21.5416361511493;-43.5075913951105;CENTRO MEDICO MUNICIPAL FARMACEUTICO LIBERO CUNHA;RUA ABILIO BITTAR;117;CENTRO;(32)32551500;36108000.0;MG;Ewbank da Câmara;2016;5
4381;8035;2149508;-17.3441398143763;-44.93086338043079;UAPS SANTOS DUMONT;R JOSE DINIZ FERREIRA;183;SANTOS DUMONT;;39270000.0;MG;Pirapora;2016;5
4383;8162;5830206;-16.1698557321158;-42.2935064722757;UNIDADE BASICA DE SAUDE MARIO DA COSTA GUEDES;RUA BEIRA RIO;380;SAO FIDELIS;38-3841-4025;39560000.0;MG;Salinas;2016;5
4406;8399;2201984;-20.0859045982355;-44.780917167662295;PROGRAMA SAUDE DA FAMILIA MARIA VILELA MENEZES RABELO COSTA;ZONA RURAL;S/N;SANTO ANTONIO DA SER;;35557000.0;MG;Carmo do Cajuru;2016;5
4410;8367;2116545;-19.6258505201125;-43.8952876969413;LAGOA SANTA UNIDADE BASICA DE SAUDE AERONAUTAS;RUA ARMANDO TROMPOVSKI;26;AERONAUTAS;31-36881431;33400000.0;MG;Lagoa Santa;2016;5
4419;8086;3247163;-17.35797;-44.90433;UAPS SAO GERALDO;RUA EFIGENIA DE OLIVEIRA;105;SAO GERALDO;;39270000.0;MG;Pirapora;2016;5
4421;8148;2127016;-19.200363859421;-44.2469237128616;UNIDADE BASICA DE SAUDE VICENTINA MARIA COSTA SOUZA;RUA JOAO DE PAULA MOURA;101;CENTRO;(31)37156222;35777000.0;MG;Araçaí;2016;5
4436;8112;2211742;-22.2303029951548;-45.937144275826505;UBS FAISQUEIRA UBS LUIZ GONZAGA RAMOS POUSO ALEGRE;RUA EVA PEREIRA MATOS;S/N;FAISQUEIRA;(35)34494397;37555146.0;MG;Pouso Alegre;2016;5
4437;8137;2125919;-19.9472558498377;-44.200723171232795;UBS ROGERIO GUSTAVO REZENDE ANGOLA;RUA ARLINDO JOSE DOS SANTOS;160;NOVO HORIZONTE;(31)35938128/3595681;32606018.0;MG;Betim;2016;5
4446;8209;6781411;-16.1320910169931;-45.7370281843675;UBS MAE JOANA GONCALVES LISBOA PA SANTA CRUZ;COMUNIDADE SANTA CRUZ;S/N;Z RURAL;;38649000.0;MG;Urucuia;2016;5
4460;8351;2196344;-18.9408129613496;-46.9974382401645;UBS SAO JOAO DA SERRA NEGRA;JOSE MARIA DE ALKIMIN;S/N;CENTRO;(34)38365128;38740080.0;MG;Patrocínio;2016;5
4463;8252;2123320;-21.2188696861261;-44.613139629362706;ESF PADRE FRANCISCO DE ANDRADE;RUA PADRE ANTONIO DOS SANTOS;131;CENTRO;(35)38421296;36370000.0;MG;Nazareno;2016;5
4465;8300;2201003;-21.066327095031102;-43.7633728981005;UNIDADE DE ATENCAO PRIMARIA A SAUDE DE RESSAQUINHA;PRACA DOM OSCAR DE OLIVERIA;S/N;ROSA MISTICA;(32)33411337;36270000.0;MG;Ressaquinha;2016;5
4466;8229;2758547;-20.784994387043103;-47.0967829718718;PSF SAO TOMAS;RUA FRANCISCO GUERRIERI;384;ROSARIO;(35) 3535-1259;37960000.0;MG;São Tomás de Aquino;2016;5
4468;8043;2149486;-17.349582095609698;-44.9510653804875;UAPS FABIO ALVES RODRIGUES FILHO;RUA PROFESSORA ALZIRA FERREIRA;303;CIDADE JARDIM;;39270000.0;MG;Pirapora;2016;5
4469;8126;6734707;-22.2724082578295;-46.167168239535705;UNIDADE BASICA DE SAUDE DA SANTA CRUZ;TRAV ANTONIO MARQUES DA SILVA;S/N;SANTA CRUZ;(35)3445-4956;37564000.0;MG;Borda da Mata;2016;5
4473;8310;2181851;-19.807920455932;-44.0216588973986;UBR EXPEDITO MONTEIRO DE ASSUNCAO;SUACUI;358;JARDIM DE ALA;(31)36381303;33943210.0;MG;Ribeirão das Neves;2016;5
4483;8244;2193175;-19.481032097265;-42.520351111410704;UNIDADE DE SAUDE DO VALE DO SOL;RUA MARIA ANTONIETA;180;VALE DO SOL;(31)38298570;35162511.0;MG;Ipatinga;2016;5
4487;8102;2149540;-17.349582095609698;-44.9510653804875;UAPS JOSEILSON FONSECA DA SILVA;RUA TITO LIVIO DE SOUZA;726;CICERO PASSOS;;39270000.0;MG;Pirapora;2016;5
4498;8141;2172917;-20.4669821262354;-45.9613680839525;PSF JOSE MARTINS DE FARIA;RUA ARTHUR RODRIGUES DA COSTA;157;CENTRO;(37)3713535;37925000.0;MG;Piumhi;2016;5
4503;8125;2212560;-22.0449686050409;-46.661338806151;UBS ANTONIO DIAS DE PAUDA I;RUA VEREADOR SEBASTIAO DIAS;S/N;OLEO;(35)37311802;37795000.0;MG;Andradas;2016;5
4518;8291;3022137;-21.142308712005;-46.344323158262796;PSF DO RIO CLARO;ZONA RURAL;S/N;RURAL;;37860000.0;MG;Nova Resende;2016;5
4522;8205;2184869;-16.1742675304408;-42.072787284849895;UNIDADE BASICA DE SAUDE DE NOVA FATIMA;PRACA NOSSA SENHORA;S/N;POVOADO NOVA FATIMA;(38)38411661;39560000.0;MG;Salinas;2016;5
4534;8322;2184877;-16.1698557321158;-42.2935064722757;UNIDADE BASICA DE SAUDE DE FERREIROPOLIS;RUA MARIA JOSE;S/N;ZONA RURAL;(38)38411661;39560000.0;MG;Salinas;2016;5
4541;8021;2166364;-19.9085049086271;-48.6966380638012;UNIDADE BASICA DE SAUDE DR ALEXANDRE ALVES ESF;PCA TEOFILO PRATA DE CARVALHO;37;CENTRO;(34) 3426-0132;38210000.0;MG;Pirajuba;2016;5
4546;8297;6533515;-21.518021821975104;-42.4736595153796;UNIDADE DE SAUDE DR RUIMAR COSTA AZEVEDO;TRAVESSA TIANO;S/N;PLANALTO;32 3444 1100;36740000.0;MG;Recreio;2016;5
4548;8173;3721159;-21.13905;-44.26381;UBS ESF GUARDA MOR;RUA VEREADOR VICENTE CANTELMO;207;GUARDA MOR;33713292;36309024.0;MG;São João del Rei;2016;5
4556;8213;2211661;-22.2303029951548;-45.937144275826505;UBS BELO HORIZONTE JOAO EVAN DOS A NETO P ALEGRE;RUA MARIA DO CARMO BRUNHARA;20;BELO HORIZONTE;(35)34227161;37556021.0;MG;Pouso Alegre;2016;5
4557;8320;23353;-19.94774;-43.97336;CENTRO DE SAUDE VENTOSA;RUA CONSELHEIRO JOAQUIM CAETANO;1782;JARDIM AMERICA;(31)32779630;30421415.0;MG;Belo Horizonte;2016;5
4560;8238;6780113;-22.2248589992517;-45.718080997465705;PSF 2 SANTA RITA DO SAPUCAI;RUA DOS GIRASSOIS;S/N;BARACAT;;37540000.0;MG;Santa Rita do Sapucaí;2016;5
4566;8336;3180123;-16.689852476119498;-43.8776993751513;ESFSBMII ELDORADO II;RUA ANTONIO MORENO;417;ELDORADO;(38) 32293342;39401271.0;MG;Montes Claros;2016;5
4573;8180;5190452;-19.453225135802697;-42.7041792869555;EQUIPE SAUDE DA FAMILIA COCAIS;R JOSE JUSTO DE ARRUDA;470;COCAIS;;35171001.0;MG;Coronel Fabriciano;2016;5
4580;8263;2210452;-17.320933341979497;-40.6779956817615;POSTO DE SAUDE DE SAO PEDRO;RUA MIGUEL VIANA;S/N;CENTRO;33 3628-1240;39878000.0;MG;Umburatiba;2016;5
4601;8215;2147831;-21.0154294967645;-46.7446804046617;USF BENEDITO NOGUEIRA;RUA ANTONIO MIGUEL NASSER;05;CENTRO;(35)35931363;37965000.0;MG;Jacuí;2016;5
4644;8486;2101890;-18.3425009250636;-45.837879180906896;CENTRO DE SAUDE CLAUDIANO MORATO;AVENIDA PADRE JOAO MATOS;S/N;CENTRO;(38)35631254;38790000.0;MG;São Gonçalo do Abaeté;2016;5
4662;8642;2185067;-15.402400615917301;-42.3092908662842;UBS BRAZ JOAQUIM RIBEIRO;AV TRAJANO PALMEIRA;197;SANTO ANTONIO;(38)38247101;39535000.0;MG;Vargem Grande do Rio Pardo;2016;5
4668;8558;5481562;-18.365505759513603;-42.6002319396511;PSF RURAL DE SAO PEDRO DO SUACUI;RUA DA PRACINHA;01;CORREGO DANTAS;;39784000.0;MG;São Pedro do Suaçuí;2016;5
4671;8740;2142155;-22.2080469131463;-44.23370361328;UNIDADE BASICA DE SAUDE DE PASSA VINTE;RUA ARANTINA;241;CENTRO;(32)32951118;37330000.0;MG;Passa-Vinte;2016;5
4678;8721;2222019;-15.626505489997001;-46.424040801173;ESF III TABOQUINHA;AVENIDA NOSSA SENHORA DA PENA;484;TABOQUINHA;38-366223645;38660000.0;MG;Buritis;2016;5
4679;8441;2194953;-21.284028078618103;-42.5546049490811;CENTRO DE SAUDE SANTANA DE CATAGUASES;RUA JOAO REMIGIO RESENDE FILHO;127;CENTRO;(32)3425-1444;36795000.0;MG;Santana de Cataguases;2016;5
4684;8626;2155869;-18.864512443541898;-45.450546741484295;POSTO DE SAUDE CACIMBAS MORADA NOVA MINAS;POVOADO DE CACIMBAS;S/N;ZONA RURAL;(38)37551100;35628000.0;MG;Morada Nova de Minas;2016;5
4687;8695;6775667;-20.0325016;-44.141188299999996;SARZEDO UBS MASTERVILLE;AV DAS PALMEIRAS;534;MASTERVILLE;(31)3522-9223;32450000.0;MG;Sarzedo;2016;5
4692;8567;6362028;-17.7857470182657;-40.2431685749409;ESF DR MARIO SABACK LEITAO;RUA RIO PERUIPE;S/N;PANORAMA;3336251920;39868000.0;MG;Serra dos Aimorés;2016;5
4696;8673;5303834;-22.118126634572395;-45.132763485574294;PSF 3 NOVO HORIZONTE;RUA DRA MARIA APARECIDA CHAIB;134;NOSSA SENHORA DO CAR;35 3334-1689;37472000.0;MG;Carmo de Minas;2016;5
4704;8751;2776952;-19.82199;-41.445;ESF CANTINHO DO CEU;R PRINCIPAL;S/N;CANTINHO DO CEU;(33)33122613;36955000.0;MG;Mutum;2016;5
4708;8554;6668267;-21.238697907437;-45.756907365219796;PSF BELA VISTA;RUA SAO LUIZ;140;CAPITAO GOMES;;37160000.0;MG;Campos Gerais;2016;5
4709;8529;2794489;-22.117768671360196;-45.0533731031446;CENTRO DE SAUDE PORTA DO CEU;RUA ROSALBO BORTONI;436;PORTA DO CEU;(35)33498329;37470000.0;MG;São Lourenço;2016;5
4710;8754;2135558;-18.077563117072998;-43.2451709347937;DEPARTAMENTO M SAUDE F DOS SANTOS;RUA ANTONIO JORGE;18;CENTRO;(38)35231213;39180000.0;MG;Felício dos Santos;2016;5
4711;8593;2796279;-18.75346;-44.42998;UNIDADE BASICA DE SAUDE VILA DE LOURDES DE CURVELO;RUA NILO PECANHA;400;VILA DE LOURDES;(38)37211000;35790000.0;MG;Curvelo;2016;5
4712;8797;2104024;-19.5001070899357;-41.979598898526;CENTRO DE SAUDE DE SAO SEBASTIAO DO ANTA;RUA GERALDINA REZENDE ALVES;127;NOVO MUNDO;(33)33157011;35334000.0;MG;São Sebastião do Anta;2016;5
4722;8750;2187396;-20.063468460613198;-44.2662730160972;UNIDADE DE SAUDE SAO JOSE;AV CASTELO BRANCO;290;JARDIM VILA RICA;(31)35341991;32920000.0;MG;São Joaquim de Bicas;2016;5
4725;8708;2104067;-15.591241121291699;-44.0929412841784;ESF CAMPO ALEGRE;PRACA SANTO ANTONIO;S/N;ZONA RURAL;;39455000.0;MG;Ibiracatu;2016;5
4728;8531;2794527;-22.059206405782;-45.0410226419628;UNIDADE BASICA DE SAUDE JAMIL MURAD;RUA JOSE AFONSO DE SOUZA;237;CENTRO;(35)3333-1125;37478000.0;MG;Soledade de Minas;2016;5
4729;8749;2134527;-16.990691287823;-42.3497731636506;POSTO DE SAUDE DE TOCOIOS;ZONA RURAL;S/N;DISTRITO;(33)37381123;39644000.0;MG;Francisco Badaró;2016;5
4730;8714;3664015;-16.0059227890656;-41.2817519782488;UNIDADE BASICA DE SAUDE ORLANDO DE LUCENA RUAS;RUA 14;225;PLATAFORMA;(33) 99538509;39970000.0;MG;Pedra Azul;2016;5
4734;8789;6238416;-20.8563554919219;-46.379880953312;AMBULATORIO MUNICIPAL ORLANDO AMERICO DOS REIS;RUA MADRE ASSUNCAO DE FARIA;172;VILA BETANIA;;37940000.0;MG;Alpinópolis;2016;5
4739;8457;2199777;-18.1650807120668;-42.765295238553705;CENTRO DE SAUDE MARIA SEBASTIANA DE QUEIROZ;RUA PADRE JULIO;52;CENTRO;(33)34339069;39708000.0;MG;Frei Lagonegro;2016;5
4740;8732;2179601;-21.184612512587897;-43.97318601608149;UBS CENTRO DE SAUDE BARROSO;PRACA PRIMEIRO DE JANEIRO;30;CENTRO;(32)33511166;36212000.0;MG;Barroso;2016;5
4743;8507;2794500;-22.110124826430603;-45.0640296936022;CENTRO DE SAUDE SAO LOURENCO VELHO;DOUTOR ANTONIO CARLOS;646;SAO LOURENCO VELHO;33316750;37470000.0;MG;São Lourenço;2016;5
4745;8785;6497381;-17.0785260200496;-40.934629440306395;ESF VITORIA;RUA PONCIANO TEIXEIRA DOS SANTOS;292;NOSSA SRA DAS GRACAS;(33)36111524;39880000.0;MG;Águas Formosas;2016;5
4746;8608;2102498;-18.977723121642498;-41.6486334800708;CENTRO DE SAUDE DE TUMIRITINGA;PRACA TIRADENTES;58;CENTRO;(33)32351383;35125000.0;MG;Tumiritinga;2016;5
4757;8487;7675372;-15.3778879265887;-42.278480529785206;CENTRO DE SAUDE DAZILA BRAGA AMORIM;RUA SETE DE SETEMBRO;13;CENTRO;38-38247122;39535000.0;MG;Vargem Grande do Rio Pardo;2016;5
4758;8723;2200007;-18.780699874973397;-40.978525740746704;PSF LIMEIRAMANTENA;RUA MINAS GERAIS;S/N;LIMEIRA;( );35296000.0;MG;Mantena;2016;5
4763;8639;2205734;-15.374532817131;-42.28602734375;UBS GERCINO VALOR;RUA ANTONIO JOSE DA CRUZ;96;JARDIM PLANALTO;(38)38247101;39535000.0;MG;Vargem Grande do Rio Pardo;2016;5
4766;8637;2190850;-19.8300218582148;-44.155168533323895;UNIDADE DE SAUDE DA FAMILIA SAO JUDAS TADEU I USF 04;RUA VL 7;259;NOVA CONTAGEM;(31)3352-5686;32050080.0;MG;Contagem;2016;5
4771;8656;2103303;-18.473521471023;-42.309916019438504;CENTRO DE SAUDE EDSON LOPES;RUA VEREADOR SALVIO CLEMENTINO;S/N;CENTRO;(33)33295115;39715000.0;MG;Virgolândia;2016;5
4776;8403;2209667;-17.0692670345301;-41.6009116172778;PSF PADRE JULIO GAMBOA;RUA MANOEL ORNELAS;15;ENCACHOEIRADO;(33)84317549;39818000.0;MG;Padre Paraíso;2016;5
4781;8515;6992889;-21.2551517230332;-46.583656668663;ESTRATEGIA SAUDE DA FAMILIA JURUAIA II;RUA ANTONIO GUILHERME CABRAL;510;MIRANTE II;3535531408;37805000.0;MG;Juruaia;2016;5
4785;8636;2205807;-16.117943;-45.694521;UBS MAE JOANA GONCALVES LISBOA PA VEREDA GRANDE;COMUNIDADE VEREDA GRANDE;S/N;Z RURAL;;38649000.0;MG;Urucuia;2016;5
4786;8587;2127369;-19.449512958526;-44.2167305946337;CENTRO DE SAUDE MONTREAL;RUA DAS AVENCAS;521;MONTREAL;3137734108;35701380.0;MG;Sete Lagoas;2016;5
4789;8547;2119609;-16.027912099999998;-40.4099536;UNIDADE BASICA DE SAUDE E ESF VIDA NOVA;RUA CLARINDO BARBOSA;571;NOSSA SENHORA DAS GR;(33)37231021;39930000.0;MG;Jacinto;2016;5
4792;8598;2203103;-16.9784492004609;-44.5783346323487;UNIDADE DE SAUDE DA FAMILIA ACAO;AV PRESIDENTE MEDICI;S/N;CENTRO;( );39360000.0;MG;Lagoa dos Patos;2016;5
4793;8675;2708310;-19.88606;-43.98695;CENTRO DE SAUDE OURO PRETO;RUA JONAS JEAN;77;OURO PRETO;(31)32777133;31320225.0;MG;Belo Horizonte;2016;5
4801;8691;2121646;-19.536384344100398;-49.4895672798142;CENTRO DE SAUDE DR MANOEL R FRANCO;RUA 14;1132;CENTRO;(34)34121645;38270000.0;MG;Campina Verde;2016;5
4803;8494;2204568;-15.3184380950909;-42.0114224428155;UBS COHAB;RUA PRINCIPAL;21;SAO JOAOZINHO;( );39540000.0;MG;São João do Paraíso;2016;5
4804;8605;2697580;-21.782873868941603;-43.354089260100096;UBS SANTA CECILIA PSF;RUA GABRIEL RODRIGUES;900;SANTA CECILIA;(32)36907752;36036090.0;MG;Juiz de Fora;2016;5
4811;8638;2775794;-20.32743;-46.36631;PSF ARCELINDO SOARES DE LIMA;AVENIDA SAO PAULO;450;CENTRO;(37) 3435-1102;37922000.0;MG;Vargem Bonita;2016;5
4817;8611;2148641;-21.0946834087366;-42.9678511619555;UNIDADE DE ATENCAO PRIMARIA A SAUDE COHAB;AV SENADOR LEVINDO COELHO;S/N;ANTONINA COELHO;(32)35396170;36506230.0;MG;Ubá;2016;5
4821;8505;7652186;-20.97499;-43.18907;UBS DR JOAQUIM RIBEIRO FILHO UBS DE CARAMONAS;RUA PRINCIPAL;S/N;VILA CARAMONAS;3235761263;36513000.0;MG;Dores do Turvo;2016;5
4835;8606;2109859;-19.4502961635584;-44.2267084121691;CENTRO DE SAUDE SAO JOAO;RUA VENCESLAU BRAZ;470;SAO JOAO;;35700160.0;MG;Sete Lagoas;2016;5
4846;8576;2127377;-19.4582874187507;-44.239594615621;ESF ELDORADO;RUA AFONSO VIANA DE PAULA;S/N;ELDORADO;;35700169.0;MG;Sete Lagoas;2016;5
4854;8734;2183234;-20.0860869884485;-44.7808313369738;PROGRAMA SAUDE DA FAMILIA BERNADINO JOSE ANDRADE;RUA DO COMERCIO;61;SAO JOSE DOS SALGADO;(37)3244-4389;35558000.0;MG;Carmo do Cajuru;2016;5
4886;8439;6198341;-19.767616852522103;-43.850007260632104;UNIDADE DE SAUDE CARIBE;RUA PARA DE MINAS;2333;SAO BENEDITO;31-3634-2135;33105460.0;MG;Santa Luzia;2016;5
4889;8717;2103702;-18.9188085164171;-41.3636282368696;CENTRO DE SAUDE DE SAO GERALDO DO BAIXIO;RUA FRANCISCO MARIANO;773;CENTRO;(33)32448181;35258000.0;MG;São Geraldo do Baixio;2016;5
4899;8560;2758628;-22.5351583957666;-46.2349104881273;POSTO DE SAUDE PONTE SEGURA SENADOR AMARAL;RUA JOSE OZORIO DE GODOI;S/N;PONTE SEGURA;(35)34373149;37615000.0;MG;Senador Amaral;2016;5
4902;8689;2160072;-19.4654345512384;-45.604419708250596;UNIDADE BASICA DE SAUDE DE DORES DO INDAIA;RUA RUI BARBOSA;28;CENTRO;037-3551-2579;35610000.0;MG;Dores do Indaiá;2016;5
4904;8479;5876893;-15.3973215529759;-42.8665147238001;UBS LAGOA DA BARRIGUDA;COMUNIDADE LAGOA DA BARRIGUDA;02;ZONA RURAL;38290906;39527000.0;MG;Mato Verde;2016;5
4920;8913;2152517;-18.9189986093056;-48.2779501847345;UBSF ALVORADA;RUA EDESIO FERNANDES DE MORAES;121;CONJUNTO ALVORADA;(34)32163290;38407096.0;MG;Uberlândia;2016;5
4937;8847;23256;-19.84255;-43.92855;CENTRO DE SAUDE GUARANI;RUA PACAEMBU;160;GUARANI;(31)32776771;31840140.0;MG;Belo Horizonte;2016;5
4941;8868;2141086;-19.5623695850367;-42.7101016044604;POSTO DE SAUDE;RUA VALERIANO;103;LAGOA DO PAU;(31)38451124;35188000.0;MG;Jaguaraçu;2016;5
4942;9017;2220830;-17.404231643763;-41.673229573156796;PSF PEDRA DAGUA LAGEDAO DE ITAIPE;RUA JOAO BATISTA;34;CENTRO;(33)35321031;39815000.0;MG;Itaipé;2016;5
4951;9160;2155559;-16.397744462307198;-42.2638544440269;PSF VANGUARDA II;RUA BALBINO PEREIRA;S/N;DIVINA LIBERDADE;(03)838431159;39565000.0;MG;Rubelita;2016;5
4957;8976;2145316;-18.883566856383702;-47.5889754295335;CENTRO DE SAUDE IRMAO WENDELINO ROODER;RUA ANTONIO CUNHA DE OLIVEIRA;445;CENTRO;(34)38481526;38520000.0;MG;Romaria;2016;5
4972;8992;2116413;-19.887141132604803;-43.664787351118406;CAETE UBS VILA DAS FLORES PENHA;RUA JOAQUIM SIMOES SILVA RATO;98;VILA DAS FLORES;(31)36513255;34800000.0;MG;Caeté;2016;5
4975;8823;2213966;-20.253;-43.801;ITABIRITO UNIDADE DE REFERENCIA VILA GONCALO;RUA RODRIGUES SILVA;399;VILA GONCALO;(31)35611486;35450000.0;MG;Itabirito;2016;5
4987;8956;2208369;-17.2375343951009;-40.914895278108;CENTRO DE SAUDE DE CRISOLITA;RUA TEODORO GONCALVES;41;CENTRO;(33)36118000;39885000.0;MG;Crisólita;2016;5
5041;9083;3728773;-19.3896031379694;-41.578638553618205;CENTRO DE SAUDE UNIDADE BASICA PSF 2 ZONA RURAL;RUA DO CAMPO;S/N;ZONA RURAL;(33)33281030;35249000.0;MG;Alvarenga;2016;5
5059;8853;2207125;-20.5274227;-43.6873979;PSF JOSE SILAS COELHO;RUA IPE;50;BELVEDERE;(3139381102;36420000.0;MG;Ouro Branco;2016;5
5079;9066;2201488;-19.753986597060603;-46.382710933683995;UNIDADE DE SAUDE PRATINHA;AVENIDA SEBASTIAO RIBEIRO DOS REIS;465;ZACARIAS PEREIRA;(34) 3637-1441;38960000.0;MG;Pratinha;2016;5
5096;8953;2193884;-15.811521437656697;-42.22791554557929;UAPS VEREADOR JOSE SENA;PRACA 13 DE MAIO;85;CENTRO;(38)38453335;39550000.0;MG;Taiobeiras;2016;5
5108;12879;2159597;-20.1616823673242;-44.9030756950365;CS SAO JOSE;RUA JULIO NOGUEIRA;1320;SAO JOSE;(37) 3221-4316;35501189.0;MG;Divinópolis;2016;5
5111;8804;5846978;-16.802148857031302;-42.3432810665661;UNIDADE BASICA SAUDE DR CYRO GOMES;RUA RAUL BATISTA DE MOURA;S/N;TURMALINA;;39630000.0;MG;Virgem da Lapa;2016;5
5113;8806;2149788;-16.3660240173335;-42.5139999389636;CENTRO DE SAUDE DE PADRE CARVALHO;PRACA DO MERCADO;S/N;CENTRO;(38)32388132;39573000.0;MG;Padre Carvalho;2016;5
5114;8848;2775239;-18.36658;-44.45892;UNIDADE BASICA DE SAUDE CENTRO;RUA CORONEL RICARDO GREGORIO;560;CENTRO;(38)37511105;39200000.0;MG;Corinto;2016;5
5125;8934;2120097;-15.965175841742198;-41.496410368358795;UNIDADE BASICA DE SAUDE ALDEBARDO VIEIRA PORTO SEU DEBA;PRACA RUI BARBOSA;156;CENTRO;(33)37541310;39980000.0;MG;Cachoeira de Pajeú;2016;5
5146;8859;2159074;-18.3851158618922;-44.049167633055404;POSTO DE SAUDE DE QUEBRAPE DE MONJOLOS;RUA LAUDELINA ALVES PINTO;56;QUEBRA PE;(38)37278110;39215000.0;MG;Monjolos;2016;5
5160;9036;2117584;-17.404231643763;-41.673229573156796;PSF CENTRO BOA SORTE DE ITAIPE;RUA PROJETADA;40;SAO PEDRO;;39815000.0;MG;Itaipé;2016;5
5167;9493;2764385;-20.719356536864602;-46.595249176024;CENTRO COMUNITARIO VALDEMAR GONCALO;PRACA SAO DOMINGOS;S/N;BELA VISTA;(35)35227149;37900268.0;MG;Passos;2016;5
5170;9251;2166208;-19.3386575248866;-47.2920084470811;ESF III ALDERICO ANTONIO;RUA DR JOAO AFONSO SOBRINHO;495;CRUZEIRO;(34) 3663-1718;38170000.0;MG;Perdizes;2016;5
5181;9283;2794470;-22.117768671360196;-45.0533731031446;CENTRO DE SAUDE NOSSA SRA DE LOURDES;HENRIQUE CAFASSO;S/N;N SRA DE LOURDES;33318721;37470000.0;MG;São Lourenço;2016;5
5191;9269;2203987;-17.359420772578098;-44.9551936818752;PSF NOVO BURITIZEIRO;RUA GOITACAZES;433;BELO HORIZONTE;3837423044;39280000.0;MG;Buritizeiro;2016;5
5192;9465;2142651;-20.0326466560358;-45.5363559722887;ESF SANTA HELENA VINC UBS OSMARI C OLIV LAGOA DA PRATA;AV FERNAO DIAS;11;CENTRO;(37)32613224;35590000.0;MG;Lagoa da Prata;2016;5
5205;9417;23574;-19.801379999999998;-43.95521;CENTRO DE SAUDE SERRA VERDE;RUA GUIDO LEAO;10;SERRA VERDE;31-3277-5507/ 5541;31630570.0;MG;Belo Horizonte;2016;5
5207;9501;2101793;-19.1673767566675;-46.6728401184068;UNIDADE BASICA DE SAUDE DE CATIARA;RUA SACRAMENTO;485;CATIARA;(34) 3833-2069;38760000.0;MG;Serra do Salitre;2016;5
5225;9246;2203030;-17.7552943065803;-44.1736047177658;CENTRO DE SAUDE DE JOAQUIM FELICIO;RUA SAO LUCAS;69;CENTRO;(38)37571186;39240000.0;MG;Joaquim Felício;2016;5
5229;9593;2776588;-20.734816;-42.031764100000004;PROGRAMA DE SAUDE DA FAMILIA DO SANTO ONOFRE CARANGOLA;R SAO FRANCISCO;31;SANTO ONOFRE;(32)37417720;36800000.0;MG;Carangola;2016;5
5258;9526;2214636;-21.7873635785949;-46.56641004496039;PSF MARIA IMACULADA;AVENIDA MAE DOS HOMENS;785;MARIA IMACULADA;36972237;37701379.0;MG;Poços de Caldas;2016;5
5261;9400;6052576;-18.180613517760698;-45.2516341209398;POSTO DE SAUDE GILBERTO MESSIAS FONSECA;RUA TRES;S/N;BEIRA RIO;;38790000.0;MG;São Gonçalo do Abaeté;2016;5
5265;9299;2116480;-20.0699086840598;-44.301157880293104;UNIDADE BASICA SAUDE DA FAMILIA VEREADOR AMARO LUIZ CAMPOS;RUA DUQUE DE CAXIAS;480;POUSADA DEL REY;(31)3534-2963;32900000.0;MG;Igarapé;2016;5
5270;9488;2135167;-17.946024670840398;-43.222975471485796;CENTRO DE SAUDE SALVADOR SALVINO MOREIRA;RUA SERAFIM CAMPOS;S/N;CENTRO;(38)35251239;39190000.0;MG;Senador Modestino Gonçalves;2016;5
5280;9336;2140195;-15.811521437656697;-42.22791554557929;UAPS ANTONINO DE ALMEIDA;RUA RIACHUELO;S/N;MIRANDOPOLIS;3838441041;39550000.0;MG;Taiobeiras;2016;5
5281;9340;2794675;-22.122141122817396;-45.1328229904162;AMBULATORIO DE ESPECIALIDADES DE CARMO DE MINAS;RUA EUCLIDES DE OLIVEIRA CASTRO;129;CENTRO;(35)33341211;37472000.0;MG;Carmo de Minas;2016;5
5283;9263;2118084;-17.7702891826624;-47.092058658598496;UBS JOSE MARCILIO DA SILVEIRA;RUA GOVERNADOR VALADARES;955;JK;(38)36731235;38570000.0;MG;Guarda-Mor;2016;5
5298;9517;2212714;-22.4530291557305;-45.420141220091494;PSF SANTA ROSA ITAJUBA;RUA JOSE DE SOUZA NOGUEIRA;S/N;SANTA ROSA;(35)3692-1819;37501567.0;MG;Itajubá;2016;5
5313;9391;2202824;-20.0872192488794;-45.293935919144495;UBS SAO V PAULO DE S A MONTE;RUA FRANCISCO J MIRANDA;407;SINHA LINHARES;(37)32812706;35560000.0;MG;Santo Antônio do Monte;2016;5
5335;9378;2708302;-19.83021;-43.86817;CENTRO DE SAUDE CAPITAO EDUARDO;RUA HUM;10;CAPITAO EDUARDO;(31)32777846;31998360.0;MG;Belo Horizonte;2016;5
5345;9568;3167615;-21.1240053176874;-42.918756008147;UNIDADE DE ATENCAO PRIMARIA A SAUDE SANTA BERNADETE;AV OLEGARIO MACIEL;1432;INDUSTRIAL;(32)3539-6126;36502002.0;MG;Ubá;2016;5
5346;9358;2186233;-17.624479669687396;-41.740449939658;PSF MANOEL MIRANDA;RUA BERNADO PASSOS;04;CENTRO;;39825000.0;MG;Ladainha;2016;5
5360;9258;2156962;-19.1227472;-44.3237784;UNIDADE BASICA DE SAUDE CORDISVIDA;AVENIDA MARIA JULIA RAMOS;436;CENTRO;(31)37151548;35780000.0;MG;Cordisburgo;2016;5
5377;9427;3007391;-19.46903;-42.57136;UNIDADE DE SAUDE ESPERANCA II;RUA HORTENCIA;690;ESPERANCA;;35162257.0;MG;Ipatinga;2016;5
5386;9574;2794691;-22.2868072986596;-44.9961376190172;POSTO DE SAUDE DO CONDADO;CONDADO;145;ZONA RURAL;;37464000.0;MG;Itanhandu;2016;5
5392;9559;2153637;-21.7851805686944;-43.34578514099;UBS SANTA LUZIA PSF;RUA TORREOES;S/N;SANTA LUZIA;(32)36908261;36030040.0;MG;Juiz de Fora;2016;5
5398;9371;2207788;-21.2428702373007;-44.9999311091152;PROGRAMA DE SAUDE DA FAMILIA 11;RUA ALBERTO DE ABREU;S/N;OLARIA;(35)36944128;37200000.0;MG;Lavras;2016;5
5402;9319;2211068;-18.2411235319382;-41.7301317866171;POLICLINICA JOVELINA RODRIGUES DUARTE;RUA JOAO FERREIRA COIMBRA;40;CENTRO;(33)35131389;39835000.0;MG;Campanário;2016;5
5404;9247;2191776;-16.0059227890656;-41.2817519782488;UNIDADE SAUDE WALDEMAR DE LUCENA PIRES;RUA 20;20;PLANALTO;;39970000.0;MG;Pedra Azul;2016;5
5411;9430;2206250;-18.780699874973397;-40.978525740746704;PSF VILA NOVAMANTENA;PRACA SANTOS DUMONT;S/N;VILA NOVA;(33)32411325;35290000.0;MG;Mantena;2016;5
5417;9428;2169541;-19.420963465734;-43.3228953038647;UNIDADE BASICA DE SAUDE E PSF OTAVIANO DE OLIVEIRA;RUA OLIVIER CANDIDO GOMES;100;CENTRO;(31)38365262;35820000.0;MG;Itambé do Mato Dentro;2016;5
5425;9399;2215152;-19.2137484368273;-49.786273293982;PSF URBANO D FRANCISCA TOSCANO CARDOSO;RUA JOSE FLORINDO DE OLIVEIRA;15;CENTRO;(34)32641541;38310000.0;MG;Gurinhatã;2016;5
5450;9446;2794713;-22.3160004615777;-44.977877140043894;POSTO DE SAUDE DONA MARIQUINHA ALBINO;BONSUCESSO;56;ZONA RURAL;(35)33612022;37464000.0;MG;Itanhandu;2016;5
5468;9342;2203200;-15.515488948563199;-42.1441282958984;CENTRO DE SAUDE DE INDAIABIRA;RUA MACIEL REGO;198;CENTRO;38999907360;39536000.0;MG;Indaiabira;2016;5
5476;9445;3564053;-19.44353;-42.551390000000005;UNIDADE DE SAUDE VILA MILITAR;AV JOSE ASSIS VASCONCELOS;652;BETHANIA;;35164532.0;MG;Ipatinga;2016;5
5508;9673;2198967;-19.8394954204554;-44.145512580870296;UNIDADE DE REFERENCIA A SAUDE DA FAMILIA VARGEM DAS FLORES;RUA VL6;283;NOVA CONTAGEM;33525724/33521174;32050000.0;MG;Contagem;2016;5
5522;9957;2101912;-18.0397760868067;-45.5248546600329;POSTO DE SAUDE ONOFRE PEREIRA FILHO;PRACA MESSIAS RODRIGUES;S/N;CANOEIROS;;38790000.0;MG;São Gonçalo do Abaeté;2016;5
5538;9928;2198002;-21.1284255981439;-46.6167497634874;SAPREDED;RUA JOSE JORGE;11;CENTRO;(35)35541277;37855000.0;MG;São Pedro da União;2016;5
5544;9926;6355188;-20.003260374068603;-45.97724676132071;UNIDADE BASICA DE SAUDE DR JANDIR CHAVES;RUA ANTONIO ZEFERINO;80;QUARTEIS;37 - 34313615;38900000.0;MG;Bambuí;2016;5
5560;9929;3984575;-21.186574523663;-45.440805566821005;POSTO DE SAUDE DR GERALDO ROSSI DE FIGUEIREDO;AVENIDA EVARISTO BATISTA DE FIGUEIREDO;130;LASMAR;;37235000.0;MG;Coqueiral;2016;5
5567;9670;2105829;-21.5723526477807;-43.5239052772509;POSTO DE SAUDE COLONIA SAO FIRMINO;COLONIA SAO FIRMINO;01;CENTRO;(32)32551307;36108000.0;MG;Ewbank da Câmara;2016;5
5610;9862;2105446;-16.4029664156926;-42.2647623323815;CENTRO DE SAUDE DE RUBELITA;AVENIDA MIGUEL DE ALMEIDA;75;CENTRO;(38)38431166;39565000.0;MG;Rubelita;2016;5
5626;9851;2152614;-18.870445489882897;-48.279461860655296;UBS NOSSA SENHORA DAS GRACAS;AV SIQUEIRA CAMPOS;101;NOSSA SRA DAS GRACAS;(34)32131855;38402008.0;MG;Uberlândia;2016;5
5644;9921;2102684;-18.3254849910731;-42.148125171660205;CENTRO DE SAUDE DE SAO JOSE DA SAFIRA;RUA SENHORA APARECIDA;43;CENTRO;;39785000.0;MG;São José da Safira;2016;5
5667;9877;2205017;-18.4165620803828;-42.727825641630794;CENTRO DE SAUDE UNIDADE BASICA PSF NELSON DE SENA BAGUARI;RUA JOSE URBANO DE CARVALHO;493;NELSON DE SENA;(33)34129016;39705000.0;MG;São João Evangelista;2016;5
5672;9633;2140853;-19.5330047607416;-42.6009464263904;UNIDADE DE SAUDE DA FAMILIA MANGUEIRAS;R JK;32;MANGUEIRAS;(31)38467718;35171291.0;MG;Coronel Fabriciano;2016;5
5681;9847;2126907;-19.293713028133197;-44.4130373375318;CENTRO DE SAUDE DONA ELISA CARDOSO;RUA CORONEL VICTOR MASCARENHAS;406;CENTRO;(31)37146656;35770000.0;MG;Caetanópolis;2016;5
