index;gid;co_cnes;lat;long;no_fantasia;no_logradouro;nu_endereco;no_bairro;nu_telefone;co_cep;uf;cidade;ano_ubs_det;mes_ubs_det;lat_corrigida;long_corrigida;endereco_google
12383;19191;2527510;-7.387397999999999;-38.772795438031004;ESF PALESTINA;RUA GABRIEL IZIDRO;S/N;DISTRITO PALESTINA D;35521960;63210000.0;CE;Mauriti;2016;5;-7.471097899999998;-38.7746975;R. Gabriel Izidro, Mauriti - CE, 63210-000, Brazil
12384;18911;2525860;-13.4650582643102;-39.4758435545882;UNIDADE DE SAUDE DA FAMILIA ADELIA ANDRADE ROCHA;POVOADO IPIRANGA I;S/N;IPIRANGA;;45416000.0;BA;Presidente Tancredo Neves;2016;5;-13.4475146;-39.4206279;Pres. Tancredo Neves, BA, 45416-000, Brazil
12385;19114;2611503;-6.10008;-39.46691;PSF DE VILA ESPERANCA;VILA ESPERANCA;S/N;ESPERANCA;;63560000.0;CE;Acopiara;2016;5;-6.100104;-39.4670322;Vila Esperança, Acopiara - CE, 63560-000, Brazil
12386;18910;3016218;-13.4708417736022;-39.4240598299107;UNIDADE DE SAUDE DA FAMILIA MARIA INOCENCIA DE JESUS;RUA SANTO ANDRE;S/N;NOVA ESPERANCA;;45416000.0;BA;Presidente Tancredo Neves;2016;5;-23.6742228;-46.5436003;Santo André, State of São Paulo, Brazil
12388;19435;2381192;-6.2123429186061;-38.4963439736539;CENTRO DE SAUDE BONITO;SITIO BONITO;S/N;ZONA RURAL;;59920000.0;RN;São Miguel;2016;5;-6.211917199999999;-38.4966459;São Miguel - State of Rio Grande do Norte, Brazil
12392;19528;3004708;-8.17064166069007;-36.1974191665639;PSF VIII FAZENDA NOVA;AV DOM PEDRO I;00;FAZENDA NOVA;(81)3747 1196;55170000.0;PE;Brejo da Madre de Deus;2016;5;-8.1686065;-36.1984062;R. Dom Pedro I., Brejo da Me. de Deus - PE, 55170-000, Brazil
12393;19312;2601486;-11.1078107357022;-42.02618122100711;POSTO DE SAUDE DE LARGA DOS MENDES;LARGA DOS MENDES;S/N;ZONA RURAL;;44940000.0;BA;Central;2016;5;-11.0897751;-42.028091;Larga dos Mendes, Jussara - BA, 44940-000, Brazil
12426;19562;7684460;-12.722965625743301;-44.560817778110504;UNIDADE DE SAUDE DA FAMILIA MAXIMINO CIRILO DA SILVA;COCOS;S/N;ZONA RURAL;77 36172200;47830000.0;BA;Baianópolis;2016;5;-12.7210732;-44.5619693;Cocos, Baianópolis - BA, 47830-000, Brazil
12429;19568;5005043;-7.17951178550699;-39.3286943435658;UBS HORTO II;TRAVESSA DOS POMBOS;S/N;HORTO;;63010750.0;CE;Juazeiro do Norte;2016;5;-7.1872685;-39.3284066;Horto, Juazeiro do Norte - CE, Brazil
12430;19398;3006638;-6.3355717032011505;-35.3170907892286;UBS BARROCAS;SITIO BARROCAS;S/N;ZONA RURAL;;59180000.0;RN;Espírito Santo;2016;5;-6.3320944;-35.3107133;Espírito Santo, RN, 59180-000, Brazil
12431;19328;2531569;-4.48549032211291;-45.073921680449104;UNIDADE BASICA DE SAUDE DO POVOADO SANTA TEREZA;POV SANTA TEREZA;1;SANTA TEREZA;(98)6441550;65715000.0;MA;Lago da Pedra;2016;5;-4.489043;-45.0720597;Santa Teresa, Lago da Pedra - MA, 65715-000, Brazil
12436;19214;2517221;-4.83392858315588;-40.319068513295896;UNIDADE DE SAUDE DA FAMILIA SEDE II;RUA CIRO OTAVIO;S/N;DISTRITO DE SUCESSO;(88)36171178;63750000.0;CE;Tamboril;2016;5;-4.940913399999999;-40.5374696;R. Ciro Otávio, Tamboril - CE, 63750-000, Brazil
12440;19327;2456346;-5.51572680473312;-47.4758720397935;CENTRO DE SAUDE TRES PODERES;RUA SERGIPE ENTRE GONCALVES DIAS E RUI BARBOSA;31;TRES PODERES;99 3523-0303;65901550.0;MA;Imperatriz;2016;5;-5.5146294;-47.4818382;Rua Sergipe, Imperatriz - MA, 65907-230, Brazil
12443;19205;6454208;-7.5357464416067;-39.115331461482796;UBS JOSE FRANCISCO DOS SANTOS;VILA SIMAO;S/N;ZONA RURAL;;63270000.0;CE;Porteiras;2016;5;-7.5260475;-39.1035319;Estr. p/ a Vila Simão, Porteiras - CE, 63270-000, Brazil
12444;19340;2463709;-1.65678977966304;-45.43792963027821;UNIDADE BASICA SAUDE DE CANARINHO;AV PRINCIPAL;S/N;POV CANARINHO;(98)3971109;65278000.0;MA;Turiaçu;2016;5;-1.6689743;-45.3687326;Turiaçu, State of Maranhão, 65278-000, Brazil
12446;19331;3523101;-2.48608589172356;-46.0115575790392;UNIDADE BASICA DE SAUDE DE VILA SAO PEDRO;VILA SAO PEDRO;S/N;POVOADO;(98)33251165;65283000.0;MA;Maranhãozinho;2016;5;-5.0417613;-44.4810524;Vila São Pedro, Dom Pedro - MA, 65765-000, Brazil
12447;19449;2645017;-6.096907854080019;-39.7442007064808;PSF DE TRUSSU;DISTRITO DE TRUSSU;S/N;TRUSSU;0000000;63560000.0;CE;Acopiara;2016;5;-6.0873972;-39.7334777;Trussu, Acopiara - CE, 63560-000, Brazil
12450;19320;3578801;-10.5740919358197;-38.6118696305729;PSF QUEIMADA GRANDE;POVOADO QUEIMADA GRANDE;S/N;CENTRO;75-3213-2177;48405000.0;BA;Banzaê;2016;5;-10.6407799;-38.69915900000001;48405-000, Banzaê - BA, Brazil
12452;19323;2665654;-6.4512062072752;-37.098190784453294;UNIDADE DE SAUDE DA FAMILIA III VILA DO PRINCIPE;RUA PAULO DANTAS DE ARAUJO;S/N;VILA DO PRINCIPE;(84)34172982;59300000.0;RN;Caicó;2016;5;-6.4490956;-37.0958099;R. Júlio Rodrigues, 405 - Vila do Príncipe, Caicó - RN, 59300-000, Brazil
12455;19436;2008068;-9.502;-36.023;UNIDADE SAUDE DA FAMILIA PORANGABA;POVOADO PORANGABA;21;CENTRO;;57690000.0;AL;Atalaia;2016;5;-9.543263999999999;-36.108799;Porangaba, Atalaia - AL, 57690-000, Brazil
12457;19332;3523950;-5.52246501943405;-43.201208282913;UNIDADE DE SAUDE DA FAMILIA DO POVOADO UNIAO;POVOADO UNIAO;S/N;ZONA RURAL;;65645000.0;MA;Matões;2016;5;-5.5222551;-43.2038032;Matões, MA, 65645-000, Brazil
12459;19458;2346893;-8.736142679742558;-36.62379801729279;POSTO DO RIACHO DO MEL US FAMILIA RIACHO DO MEL;POVOADO RIACHO DO MEL;S/N;CENTRO;(81)37961103;55365000.0;PE;Capoeiras;2016;5;-8.7372978;-36.5618017;Capoeiras - State of Pernambuco, 55365-000, Brazil
12460;19459;2346907;-8.736142679742558;-36.62379801729279;UNIDADE DE SAUDE DA FAMILIA DO IMBE;SITIO IMBE;S/N;CENTRO;(81)37961103;55365000.0;PE;Capoeiras;2016;5;-8.631473;-36.6380954;Estr. do Imbé, Capoeiras - PE, 55365-000, Brazil
12462;19457;2703688;-8.75574946403478;-36.571297645567796;UNIDADE DE SAUDE DA FAMILIA DO OLHO DAGUA;SITIO OLHO DAGUA DOS POLVORAS;S/N;ZONA RURAL;(81)37961103;55365000.0;PE;Capoeiras;2016;5;-8.737943099999999;-36.626005;Capoeiras - State of Pernambuco, Brazil
12468;19548;2526166;-14.093152284621803;-41.2869000434863;UNIDADE SAUDE DA FAMILIA DE OURIVES;PRACA DA MATRIZ;S/N;ZONA RURAL;(77)9962-3589;46600000.0;BA;Tanhaçu;2016;5;-14.0201136;-41.2476487;Tanhaçu, State of Bahia, 46600-000, Brazil
12474;19209;2565471;-5.198404837425571;-39.2943542269635;UNIDADE BASICA DE SAUDE DA FAMILIA DE SAO MIGUEL;VILA DE SAO MIGUEL;S/N;AMANCIOS;8210547;63800000.0;CE;Quixeramobim;2016;5;0.0;0.0;Não encontrado
12476;19316;3459985;-4.13685679435718;-44.1131758689868;CENTRO DE SAUDE ANTONIO MARQUES;RUA CASTELO BRANCO;S/N;VILA RICARDO MURAD;(99)36412006;65415000.0;MA;Coroatá;2016;5;39.8197117;-7.4964662;6000 Castelo Branco, Portugal
12477;19311;3292924;-5.522754192352131;-37.00568675994771;USF BELA VISTA PIATO;SITIO BELA VISTA PIATO;S/N;ZONA RURAL;;59650000.0;RN;Açu;2016;5;-5.520804099999999;-37.0010363;Unnamed Road, Açu - RN, 59650-000, Brazil
12483;19337;2310058;-2.50314474105828;-44.2227816581713;CENTRO DE SAUDE DO TURU;AVENIDA 7;S/N;TURU;(98)2128461;65065760.0;MA;São Luís;2016;5;-2.5019892;-44.22286949999999;Av. Sete - Turu, São Luís - MA, 65065-760, Brazil
12486;19212;6491995;-4.33276534080493;-40.1454377174366;UBS FRANCISCA JURACI MARTINS PINTO FLORES;RUA PERNAMBUCO;S/N;FLORES;88 36282762;62280000.0;CE;Santa Quitéria;2016;5;-4.3309847;-40.1489574;Flores, Santa Quitéria - CE, 62280-000, Brazil
12504;19208;2565366;-4.9637;-39.0117446758304;POSTO DE SAUDE LUIZ CRISPINO S J DOS QUEIROZ;VILA SAO JOAO DOS QUEIROZ;S/N;SAO JOAO DOS QUEIROZ;;63948000.0;CE;Quixadá;2016;5;-4.8004525;-38.886017;São João dos Queiroz, Quixadá - CE, 63900-000, Brazil
12508;19201;2508192;-9.999253749847119;-42.4822211265552;CENTRO DE SAUDE DE PILAO ARCADO;AV JOAO RIBEIRO DO VALE;S/N;CENTRO;(74) 35342774;47240000.0;BA;Pilão Arcado;2016;5;-10.0007579;-42.4858986;Av. João Ribeiro do Valê, Pilão Arcado - BA, 47240-000, Brazil
12513;19350;5618878;-6.56073251736681;-36.5952519214664;UNID PSF III AMARO FLORENCIO DANTAS;SITIO CARNAUBA DE BAIXO;S/N;ZONA RURAL;;59374000.0;RN;Carnaúba dos Dantas;2016;5;-6.966667;-39.433333;Sítio Carnaúba, Caririaçu - CE, 63220-000, Brazil
12515;19295;2307480;-3.64773309047566;-44.37682833862311;CENTRO DE SAUDE CLOVES CHAVES;AV RIO BRANCO;S/N;CENTRO;98 34621235;65465000.0;MA;Cantanhede;2016;5;-3.6418941;-44.3872671;Av. Rio Branco, Cantanhede - MA, 65465-000, Brazil
12520;19207;2565250;-5.58934375213112;-39.375325330841704;UNIDADE BASICA DE SAUDE DE BONFIM KM 20;DISTRITO DO BONFIM;S/N;BONFIM;;63600000.0;CE;Senador Pompeu;2016;5;-5.5220606;-39.4922625;Bonfim, Sen. Pompeu - CE, 63600-000, Brazil
12526;19293;2714310;-8.378487;-35.4507729209957;PSF DEMARCACAO;RUA TENENTE PEDRO CHAVES;S/N;DEMARCACAO;;55515000.0;PE;Amaraji;2016;5;-8.3748772;-35.4551341;Amaraji, State of Pernambuco, 55515-000, Brazil
12530;19220;6489656;-6.73956513404827;-39.8416614532459;PSF SITIO TIMBAUBA;SITIO TIMBAUBA;001;ZONA RURAL;;63145000.0;CE;Tarrafas;2016;5;-7.5090469;-35.317997;Timbaúba - State of Pernambuco, Brazil
12533;19218;2479265;-5.06327033042893;-40.29089927673221;UNIDADE DE SAUDE DA FAMILIA DE OLIVEIRAS;OLIVEIRA;S/N;OLIVEIRAS;;63750000.0;CE;Tamboril;2016;5;-5.0632921;-40.2916303;Oliveiras, Tamboril - CE, 63750-000, Brazil
12537;19570;2426048;-7.21388697624186;-39.2329072952259;UBS GAVIAO E SABIA;SITIO SABIA;S/N;ZONA RURAL;;63010000.0;CE;Juazeiro do Norte;2016;5;-7.209119899999999;-39.3135875;Tv. Paizinho Sabiá, Juazeiro do Norte - CE, 63010-455, Brazil
12541;19434;2380544;-6.3832283020017675;-38.389213085173395;POSTO DE SAUDE LAGOA DO MATO;SITIO LAGOA DO MATO;S/N;ZONA RURAL;;59940000.0;RN;Luís Gomes;2016;5;37.1356631;-8.451722799999999;8400 Lagoa, Portugal
12544;19599;2003589;-10.381597280502;-36.5528655052174;POSTO DE SAUDE ADELMO FERREIRA DA SILVA;POVOADO PONTA MOFINA;S/N;PONTA MOFINA;;57200000.0;AL;Penedo;2016;5;-10.366667;-36.55;Ponta Mofina, Penedo - AL, 57200-000, Brazil
12549;19343;2465612;-3.290512561798;-45.657999515532104;UNIDADE BASICA DE SAUDE DR LUIS HENRIQUE BRAGA POLARY;AV STANLEY FORTES BATISTA;S/N;VILA GUSMAO;;65365000.0;MA;Zé Doca;2016;5;-3.2638278;-45.6551713;Av. Stanley Fortes Batista, Zé Doca - MA, Brazil
12555;19204;2772051;-11.6122162342068;-40.137112140654395;UNIDADE DE SAUDE DA FAMILIA GASTAO PEDREIRA;AVENIDA JOSIAS DE SOUZA RIOS;S/N;CENTRO;(74) 36692154;44635000.0;BA;Várzea da Roça;2016;5;-11.6107915;-40.1360636;Av. Josias São Rios, Várzea da Roça - BA, 44635-000, Brazil
12556;19203;2480514;-4.59610462188707;-41.194760799406794;POSTO DE SAUDE DE CACHOEIRA GRANDE;SEDE DE CACHOEIRA GRANDE;S/N;CACH GRANDE;8281227;62220000.0;CE;Poranga;2016;5;-4.600000000000001;-41.2;Cachoeira Grande, Poranga - CE, Brazil
12559;19326;5353629;-5.81854843133103;-46.142395635993395;UBS ALODI CAMARA LEDA MANGUEIRA;RUA LEAO FIGUEREDO;S/N;RODOVIARIO;;65940000.0;MA;Grajaú;2016;5;-5.8156751;-46.1350088;Terminal Rodoviário de Grajaú - R. Amaral Raposo, 541-643, Grajaú - MA, 65940-000, Brazil
12564;19447;6769;-12.85926;-38.46265;USF ALTO DE COUTOS;TRAVESSA DOIS DE JULHO;S/N;ALTO DE COUTOS;(71) 3611-5903;40750380.0;BA;Salvador;2016;5;-12.8529868;-38.4691413;Travessa Dois De Julho - R. Santo Antônio do Alto de Coutos, sn, Salvador - BA, 40750-380, Brazil
12565;19335;6192831;-6.17946624755841;-43.79135370254389;UNIDADE BASICA DE SAUDE AEROPORTO;AEROPORTO;33;AEROPORTO;;65680000.0;MA;Passagem Franca;2016;5;-6.217994699999999;-43.7142484;Passagem Franca - State of Maranhão, 65680-000, Brazil
12568;19455;2346931;-8.6808836460111;-36.5108299255361;POSTO DO ALEGRE US F DO ALEGRE;ZONA RURAL;S/N;CENTRO;(81)37961103;55365000.0;PE;Capoeiras;2016;5;-8.737943099999999;-36.626005;Capoeiras - State of Pernambuco, Brazil
12575;19222;2433893;-8.49898695945715;-35.9269666671742;USF DE BARRA DO CHATA;VILA BARRA DO CHATA;S/N;ZONA RURAL;(81)37441122;55495000.0;PE;Agrestina;2016;5;-8.5088107;-35.9163301;Barra do Chata, Agrestina - PE, 55495-000, Brazil
12585;19415;6261655;-12.322946459029;-38.7636737165227;;;;;;;BA;Conceição do Jacuípe;2016;5;-12.330524;-38.7670952;Conceição do Jacuípe - State of Bahia, Brazil
12586;19446;5766575;-11.550126110504902;-41.1590965077636;USF ALBA DE SOUZA LIMA;RUA DEOCLECIANO BARRETO;949;CENTRO;7436531178;44850000.0;BA;Morro do Chapéu;2016;5;-11.5489849;-41.16687049999999;R. Deocleciano Barreto, 949, Morro do Chapéu - BA, 44850-000, Brazil
12587;19352;2483343;-14.030028985632901;-42.1457118363755;UNIDADE DE SAUDE DA FAMILIA HELENITA ALVES DIAS;TRAVESSA 14 DE MAIO;02;CENTRO;7734771098;46425000.0;BA;Lagoa Real;2016;5;-14.0358028;-42.1413766;Avenida 14 de Maio, 2, Lagoa Real - BA, 46425-000, Brazil
12590;19410;2380811;-6.1562327992920105;-37.8409607540419;UNIDADE BASICA DE SAUDE DE CANDEIA;SITIO CANDEIA;S/N;ZONA RURAL;33940317;59890000.0;RN;Frutuoso Gomes;2016;5;-6.1570849;-37.8378324;Frutuoso Gomes, State of Rio Grande do Norte, 59890-000, Brazil
12591;19338;2458721;-2.62902617454521;-44.289364814757;CENTRO DE SAUDE MARACANA;AV ROS MOCHEL;S/N;MARACANA;(098) 3241-7604;65095000.0;MA;São Luís;2016;5;-2.6364867;-44.2769737;maracanã - R. Principal, 2000, MA, Brazil
12594;19450;3017354;-14.800622463225901;-39.2833113670338;USF DR NILTON RAMOS;RUA NOSSA SENHORA DAS GRACAS;361;MANGABINHA;;45600390.0;BA;Itabuna;2016;5;-14.8005316;-39.2841113;R. Nossa Sra. das Graças, 361 - Mangabinha, Itabuna - BA, 45600-530, Brazil
12598;19569;2425947;-7.2107660000000005;-39.316993355614294;UBS ANTONIO VIEIRA I;RUA JOSE SABINO;540;PQ ANTONIO VIEIRA;;63041270.0;CE;Juazeiro do Norte;2016;5;-7.2224446;-39.3287108;R. Construtor José Sabino Pereira, 540 - Antônio Vieira, Juazeiro do Norte - CE, 63022-100, Brazil
12602;19336;3388980;-6.34613871574383;-47.3839902877794;UBS VILA SAO FRANCISCO;AV TIRADENTES;S/N;VILA SAO FRANCISCO;;65970000.0;MA;Porto Franco;2016;5;-5.5201625;-47.4429117;Vila Sao Francisco, Imperatriz - MA, Brazil
12606;19334;2311321;-2.54431128501885;-45.775566101072904;CENTRO DE SAUDE DONA ANTONIA FONTES CAMARA;AV PROF JOAO MORAES DE SOUSA;S/N;SEDE;(98)3741164;65272000.0;MA;Santa Luzia do Paruá;2016;5;-2.5405299;-45.7765129;Av. Prof. João Morais de Sousa, Santa Luzia do Paruá - MA, 65272-000, Brazil
12614;19432;2407612;-6.09705805778486;-37.7978610992421;UNIDADE BASICA DE SAUDE ISAIAS DOMINGOS DE QUEIROZ;SITIO TANQUINHOS;S/N;ZONA RURAL;(84)33960235;59805000.0;RN;Lucrécia;2016;5;-5.816667;-35.9;Tanquinhos, Riachuelo - RN, 59470-000, Brazil
12621;19325;2462672;-5.81854843133103;-46.142395635993395;PS DR LEONEL RODRIGUES BOGEA;BR 226;S/N;POV ALTO BRASIL;;65940000.0;MA;Grajaú;2016;5;-5.6219128;-45.7676243;BR-226, Grajaú - MA, Brazil
12622;19445;3024881;-6.10409158278198;-35.9104491798599;UNIDADE BASICA DE SAUDE SERRA DA TAPUIA;DISTRITO SERRA DA TAPUIA;S/N;ZONA RURAL;(84) 3252-4076;59440000.0;RN;Sítio Novo;2016;5;-6.0904269;-35.9568061;Serra da Tapuia, Sítio Novo - RN, 59440-000, Brazil
12626;19418;3631079;-4.90996599197373;-37.2162723541249;POSTO DE SAUDE JOSE FIRMINO DE FRANCA;COMUNIDADE DE AREIAS ALVAS;S/N;ZONA RURAL;(84)3272418;59675000.0;RN;Grossos;2016;5;-4.9015343;-37.2263173;Areias Alvas, Grossos - RN, 59675-000, Brazil
12627;19307;2454815;-4.12967920303333;-44.1210937499987;CENTRO DE SAUDE DE COROATA I FNS;TRAV JANSEN MATOS;599;CENTRO;;65415000.0;MA;Coroatá;2016;5;-4.131456099999999;-44.13431200000001;Tv. Milton Jansen, Coroatá - MA, 65415-000, Brazil
12640;19330;2459809;-4.64721679687487;-44.4791364669787;UNIDADE BASICA DE SAUDE MARIA JOSE DA SILVA GAMA;POVOADOSANTA MARIA DOS FERNANDES;S/N;ZONA RURAL;;65728000.0;MA;Lima Campos;2016;5;-4.5201818;-44.4658904;Lima Campos - State of Maranhão, Brazil
12642;19535;2404745;-10.387959480285302;-45.2533721923815;PS DA VEREDA DA PORTA;VEREDA DA PORTA;S/N;VEREDA DA PORTA;(89)35732976;64980000.0;PI;Corrente;2016;5;-4.0203747;-42.777836;Vereda da Porta, Miguel Alves - PI, 64130-000, Brazil
12643;19339;2696037;-2.91354427024476;-44.8563107299805;U B S DE JUCARAL PSFSB;POVOADO DE JUCARAL;S/N;JUCARAL;;65220000.0;MA;São Vicente Ferrer;2016;5;-8.214628;-35.2307236;Juçaral, Cabo de Santo Agostinho - PE, Brazil
12646;19215;3816567;-6.682590314737363;-39.7584941948653;CENTRO MUNICIPAL DE SAUDE;RUA OSCAR CANDIDO;190;CENTRO;;63145000.0;CE;Tarrafas;2016;5;-6.6829816;-39.7571473;R. Oscár Cândido de Araújo, 190, Tarrafas - CE, 63145-000, Brazil
12647;19565;2552329;-6.03133272993446;-38.3472589620963;UNIDADE BASICA DE SAUDE ALICE PESSOA DE ANDRADE;VILA SAO JOAO;S/N;CENTRO;(88) 34341063;63470000.0;CE;Ererê;2016;5;-3.25;-39.9166669;Vila São João, Itarema - CE, 62590-000, Brazil
12648;19296;2311127;-2.14384675025934;-46.1265063285814;CENTRO DE SAUDE ANE RAIMUNDA;AVENIDA JK;S/N;CENTRO;(98)33241011;65299000.0;MA;Centro Novo do Maranhão;2016;5;-2.1408652;-46.1245975;Centro Novo do Maranhão, MA, 65289-000, Brazil
12656;19289;2310082;-3.6427617073058;-43.6010241508471;UBSF DO BATURITE;ASSENTAMENTO N S APARECIDA I;S/N;POVOADO BATURITE;;65500000.0;MA;Chapadinha;2016;5;-22.8469023;-45.23166519999999;Aparecida, State of São Paulo, 12570-000, Brazil
12664;19321;2462737;-5.81854843133103;-46.142395635993395;CS SENADOR VITORINO FREIRE;RUA ANTONIO FRANCISCO DOS REIS;S/N;CENTRO;(98)05326723;65940000.0;MA;Grajaú;2016;5;-5.818768599999999;-46.1419404;R. Antônio Francisco dos Reis, Grajaú - MA, 65940-000, Brazil
12666;19317;5731267;-4.14200663566577;-44.0254354476916;CENTRO DE SAUDE SAO BENEDITO;POVOADO SAO BENEDITO;S/N;ZONA RURAL;;65415000.0;MA;Coroatá;2016;5;-4.1283394;-44.130317;Coroatá, State of Maranhão, 65415-000, Brazil
12669;19206;2565781;-4.9911510944365;-39.0204977989185;POSTO DE SAUDE JOAO FERREIRA PIRES CAMPO NOVO I E II;RUA DOS CRENTES;S/N;CAMPO NOVO;(88)3412 0490;63908155.0;CE;Quixadá;2016;5;-4.9893132;-39.0199989;R. dos Crentes - Campo Novo, Quixadá - CE, 63900-000, Brazil
12675;19451;3016684;-5.64332;-37.25605;POSTO DE SAUDE CANDIDO MARTINS;RUA ANTONIO VITORINO;S/N;BEIRA RIO;(84) 999317553;59670000.0;RN;Upanema;2016;5;-5.643275099999999;-37.259294;R. Antonio Vitorino, Upanema - RN, 59670-000, Brazil
12677;19211;2373203;-4.222958150200991;-38.7295707505904;CENTRO DE SAUDE DE REDENCAO;RUA SANTOS DUMONT;00586;CENTRO;33321432;62790000.0;CE;Redenção;2016;5;-4.2234596;-38.7286432;R. Santos Dumont, Redenção - CE, 62790-000, Brazil
12678;19219;3432939;-6.7657971382139195;-39.7136878967274;POSTO DE SAUDE NOBILICIO VILA NOVA ALENCAR;DISTRITO DE VILA NOVA;S/N;CENTRO;;63145000.0;CE;Tarrafas;2016;5;-6.678777699999999;-39.7534043;Tarrafas, CE, 63145-000, Brazil
12682;19221;5224918;-3.61082196235646;-39.5681190490711;UNIDADE BASICA DE SAUDE RETIRO;DISTRITO DO RETIRO;S/N;RETIRO;85 33531379;62650000.0;CE;Uruburetama;2016;5;-3.611843;-39.5689654;Retiro, Uruburetama - CE, 62650-000, Brazil
12690;19341;2463571;-1.66505906782275;-45.3884794921875;UNIDADE BASICA DE SAUDE DE FORTALEZA;AV PRINCIPAL;S/N;POV FORTALEZA;;65278000.0;MA;Turiaçu;2016;5;-1.6689743;-45.3687326;Turiaçu, State of Maranhão, 65278-000, Brazil
12701;19333;2464748;-3.6216259002684494;-44.55651283264029;CENTRO DE SAUDE JOSE ARAUJO;AV DR ANTONIO SAMPAIO;S/N;CENTRO;(98)4551051;65468000.0;MA;Matões do Norte;2016;5;-3.6551492;-44.5782024;Avenida Doutor Antônio Sampaio, 100, Matões do Norte - MA, 65468-000, Brazil
12702;19329;2458829;-3.9549449715672003;-44.817193481445294;CENTRO DE SAUDE DR FRANCISCO ALMEIDA GUIMARAES;AV KENNEDY;1002;CENTRO;(99) 6351122;65705000.0;MA;Lago Verde;2016;5;-4.0397414;-44.9345203;Av. Pres. Kennedy, 1002, Lago Verde - MA, 65705-000, Brazil
12714;19402;5967961;-5.63005328178389;-35.2232408523549;ESF PITANGUI II;RUA ZEFERINA LOPES;03;PITANGUI;(84) 3279 4916;59575000.0;RN;Extremoz;2016;5;-5.632691899999999;-35.219937;Tv. Pitangui, 3 - Pitangui, Extremoz - RN, 59575-000, Brazil
12721;19297;2644096;-3.73500823974599;-43.3551406860339;UBSF DO BAIRRO DA CRUZ;RUA DO OESTE;48;CRUZ;( );65500000.0;MA;Chapadinha;2016;5;-3.734468399999999;-43.35453950000001;R. do Oeste, 48, Chapadinha - MA, 65500-000, Brazil
12729;19313;2386690;-13.474581241607304;-38.9206123352039;PS DE GARAPUA;RUA DA PRAIA;S/N;GARAPUA;(75) 36532151;45420000.0;BA;Cairu;2016;5;-13.474564;-38.915808;Rua da Praia, sem número - Praia de Garapuá, Ilha de Tinharé, Cairu - BA, 45420-000, Brazil
12730;19210;2565455;-5.14962673187241;-39.178683757780796;UNIDADE BASICA DE SAUDE ANANELIA F DA SILVA;VILA DE URUQUE;S/N;ZONA RURAL;8210587;63800000.0;CE;Quixeramobim;2016;5;-5.191986399999999;-39.293399;Centro, Quixeramobim - CE, 63800-000, Brazil
12734;19217;2479222;-4.83392858315588;-40.319068513295896;UNIDADE DE SAUDE DA FAMILIA DE HOLANDA;HOLANDA;S/N;HOLANDA;;63750000.0;CE;Tamboril;2016;5;-4.721947;-40.3790163;Holanda, Tamboril - CE, 63750-000, Brazil
12744;19834;2660016;-12.6015538384449;-39.0340236148013;POSTO DE SAUDE DA FAMILIA QUIXABEIRA;PRACA JONIVAL LUCAS;S/N;QUIXABEIRA;7536382081;44350000.0;BA;Governador Mangabeira;2016;5;-12.5781957;-39.1306275;Quixabeira, Muritiba - BA, 44350-000, Brazil
12747;19765;7725191;-5.32097232509135;-41.55565738677979;UBS ANTONIO LIMA MARTINS ANTONIO MAIA;RUA BENJAMIN CONSTANT;S/N;CENTRO;;64340000.0;PI;Castelo do Piauí;2016;5;-5.0852838;-42.8145358;R. Benjamin Constant - Centro (Norte), Teresina - PI, Brazil
12751;19751;2481588;-4.0932118892668505;-38.5005998611439;UNIDADE BASICA DE SAUDE ZACARIAS M DE A RAFAEL SANTOS;RUA LUCIANO CARNEIRO;26;RAFAEL SANTOS;(85)3366054;62880246.0;CE;Horizonte;2016;5;-4.0932264;-38.5006062;Rua Luciano Carneiro, 26 - Lagoinha, Horizonte - CE, 62880-000, Brazil
12753;19947;2004844;-9.7566349;-36.6674494;USF CANAA;POVOADO CANAA;S/N;POVOADO CANAA;(82)05221613;57306470.0;AL;Arapiraca;2016;5;-9.7137432;-36.7097083;Canaã, Arapiraca - AL, Brazil
12758;19813;2635674;-7.47402518326653;-37.2750721852438;PSF BAIRRO SAO JOAO;RUA PROJETADA;320;SAO JOAO;;56700000.0;PE;São José do Egito;2016;5;-7.4686612;-37.2746574;São José do Egito, State of Pernambuco, 56700-000, Brazil
12759;19949;6347525;-6.3473081588743305;-38.298726081847;POSTO DE SAUDE DA BAIXA DO FOGO;SITIO BAIXA DO FOGO;S/N;ZONA RURAL;;59980000.0;RN;José da Penha;2016;5;-6.3196527;-38.2850259;José da Penha - State of Rio Grande do Norte, Brazil
12762;19924;7873212;-3.01709833471298;-43.8534736633301;UNIDADE BASICA DE SAUDE DE MATO GROSSO;AV PRINCIPAL;S/N;CENTRO;;65160000.0;MA;Morros;2016;5;-2.8541644;-44.0360678;Morros, MA, 65160-000, Brazil
12765;19945;6486312;-12.0746827125546;-41.4479613304126;UNIDADE DE PACS DE VARZEA DO CERCO;POVOADO DE VARZEA DO CERCO;S/N;POVOADO;7436431076;44885000.0;BA;Mulungu do Morro;2016;5;-12.0799055;-41.4481024;Várzea do Cerco, Mulungu do Morro - BA, 44885-000, Brazil
12771;19684;2493403;-12.512724642984901;-38.495309845373995;USF MERCIA COSTA ANDRADE;CAMINHO 5;27;URBIS III;7136553385;43850000.0;BA;São Sebastião do Passé;2016;5;-12.5215642;-38.4901134;Caminho Cinco, 27, São Sebastião do Passé - BA, 43850-000, Brazil
12774;19778;3686000;-5.1073629545917685;-36.3181443773969;UNIDADE BASICA DE BAIXA DO MEIO ESF III E IV;RUA RIO GRANDE DO NORTE;S/N;BAIXA DO MEIO;(84)5256199;59598000.0;RN;Guamaré;2016;5;-5.253705999999999;-36.35590390000001;Baixa do Meio, Guamaré - RN, Brazil
12776;19878;2630532;-8.504651784896598;-36.7396545410146;USF DR ORISVALDO INACIO DA SILVA;SITIO CAMPO DO MAGE;S/N;ZONA RURAL;;55260000.0;PE;Alagoinha;2016;5;-8.5041455;-36.7395322;Alagoinha - State of Pernambuco, 55260-000, Brazil
12781;19963;7821360;-12.5311228;-38.30124710000001;UNIDADE DE SAUDE DA FAMILIA JOSE ANTONIO DOS SANTOS;AVENIDA DO BOM JESUS;1;CABORE;;48280000.0;BA;Mata de São João;2016;5;-12.5311228;-38.3012471;Mata de São João, State of Bahia, 48280-000, Brazil
12785;19656;7001177;-3.39452862739553;-42.2065544128406;UBSF JOANA TOTE;SEDE;S/N;CENTRO;;65560000.0;MA;Magalhães de Almeida;2016;5;-3.3926941;-42.2121181;Magalhães de Almeida, MA, 65560-000, Brazil
12794;19732;6804764;-3.5013449192046098;-39.584426879881704;UNIDADE BASICA DE SAUDE CENTRO;RUA HIDELBERTO BARROSO;S/N;CENTRO;88 36314406;62500037.0;CE;Itapipoca;2016;5;-3.499256;-39.5841343;R. Hildeberto Barroso - Centro, Itapipoca - CE, 62540-000, Brazil
12808;19916;3360407;-13.9803600311275;-43.3447337150561;UNIDADE BASICA DE SAUDE FIDELCINA CARDOSO MAGALHAES;POVOADO DE ESPRAIADO;S/N;ZONA RURAL;(77)6622142;46460000.0;BA;Palmas de Monte Alto;2016;5;-13.9808717;-43.34636159999999;Espraiado, Palmas de Monte Alto - BA, 46460-000, Brazil
12810;19922;2364530;-4.49099116259321;-42.0721220970154;PS RAIMUNDO OLIVEIRA MACHADO;POVOADO OLHO DAGUA;S/N;ZONA RURAL;;64283000.0;PI;Boqueirão do Piauí;2016;5;-4.5899912;-42.0718948;PI-331, Boqueirão do Piauí - PI, 64283-000, Brazil
12827;19654;2003848;-10.273386240005198;-36.56003236770521;USF GABRIEL 04;RUA JOAO RAMALHO;S/N;SANTA LUZIA;;57200000.0;AL;Penedo;2016;5;-10.2784577;-36.5648816;R. João Ramalho, Penedo - AL, 57200-000, Brazil
12828;19941;2313529;-6.77420854568462;-38.2318210601795;ESF V SORRILANDIA II;RUA HEROTILDE SERAFIM DOS SANTOS;412;JARDIM SORRILANDIA;;58800170.0;PB;Sousa;2016;5;-6.7742721;-38.2344335;R. Herotildes Serafim - Jardim Sorrilandia, Sousa - PB, 58805-270, Brazil
12830;19966;2552043;-5.13587938313253;-37.951457798481;POSTO DE SAUDE DE TOME;TOME;S/N;TOME;(88)4431140;62920000.0;CE;Quixeré;2016;5;-5.0728291;-37.9894863;Quixeré, State of Ceará, 62920-000, Brazil
12842;19770;2426935;-4.525015354156361;-39.0056705474842;POSTO DE SAUDE DE PALMATORIA;RUA SAO FELIX;S/N;PALMATORIA;;62740000.0;CE;Itapiúna;2016;5;-4.5241721;-39.0070448;R. São Félix, Itapiúna - CE, 62740-000, Brazil
12843;19985;2601656;-13.4744677;-40.216556;UNIDADE DE SAUDE DA FAMILIA DR ELIEZER MENDES;PRC MATEUS NUNES;S/N;PEIXE;(73) 35561127;45365000.0;BA;Lajedo do Tabocal;2016;5;-13.4754413;-40.2242435;Lajedo do Tabocal - State of Bahia, Brazil
12856;19918;2610469;-6.6436;-38.69977;POSTO DE SAUDE HERMENEGILDA PAULINO DE SOUSA;RUA MANOEL ALVES;00366;CENTRO;5781161;63310000.0;CE;Umari;2016;5;-6.6465356;-38.6995099;R. Manoel Alves, Umari - CE, 63310-000, Brazil
12863;19651;2592991;-6.78318858146648;-35.8165454864492;POSTO DE SAUDE DE CASSERENGUE;RUA DURVAL DA COSTA LIRA;609;CENTRO;(83) 6341104;58238000.0;PB;Casserengue;2016;5;-6.782985699999999;-35.816578;R. Durval da Costa Líra, 609, Casserengue - PB, 58238-000, Brazil
12880;19870;2455676;-4.8754513263701;-44.8820471763598;CENTRO DE SAUDE DR EDVILSON AMORIM BRUCE;RUA GENESIO CARVALHO;1029;CENTRO;9936451450;65750000.0;MA;Esperantinópolis;2016;5;-4.8758677;-44.8818142;R. Genésio Carvalho, 1029, Esperantinópolis - MA, 65750-000, Brazil
12883;19731;7435681;-10.85779;-40.1335;UNIDADE DE SAUDE DA FAMILIA DE MAMOTA;FAZENDA MAMOTA;S/N;ZONA RURAL;7436771140;44755000.0;BA;Ponto Novo;2016;5;-10.8657319;-40.1315076;Ponto Novo, State of Bahia, 44755-000, Brazil
12889;19800;5377455;-11.805979025923701;-39.3830354938567;UNIDADE DE SAUDE DA FAMILIA DE RANCHINHO;RUA ANTONIO CORDEIRO DE ALMEIDA;S/N;RANCHINHO;(75) 3264-2744;44640000.0;BA;Riachão do Jacuípe;2016;5;-11.8136341;-39.3860967;Ranchinho, Riachão do Jacuípe - BA, 44640-000, Brazil
12894;19987;5599296;-9.0153604823547;-42.6922851641907;PS JOSE PALMEIRA SOBRINHO;ZONA RURAL;S/N;LOC FIRMEZA;08935821806;64770000.0;PI;São Raimundo Nonato;2016;5;-9.0104992;-42.6920906;São Raimundo Nonato, State of Piauí, 64770-000, Brazil
12900;19685;2610701;-6.28989815711957;-40.583066940306395;POSTO DE SAUDE DE MIRANDA;DISTRITO DE MIRANDA;S/N;MIRANDA;8181044;63680000.0;CE;Parambu;2016;5;-6.275247999999999;-40.572493;Miranda, Parambu - CE, 63680-000, Brazil
12909;19704;2010283;-9.781;-36.094;UNIDADE BASICA DE SAUDE DONA MARIA DA ROCHA LIMA;POVOADO COITE;S/N;POVOADO COITE;(82)32712002;57240990.0;AL;São Miguel dos Campos;2016;5;0.0;0.0;Não encontrado
12916;19790;5091241;-15.294208064906002;-39.0747128879619;UNIDADE DE SAUDE DA FAMILIA DO SUCUPIRA;RUA SAO PEDRO;S/N;SUCUPIRA;73-32361136;45690000.0;BA;Una;2016;5;-14.7950699;-39.26222449999999;São Pedro, Itabuna - BA, Brazil
12917;19707;7617895;-2.40046;-44.410270000000004;UNIDADE BASICA DE SAUDE DO MANGUEIRAL;MA 106;100;MANGUEIRAL;;65250000.0;MA;Alcântara;2016;5;-2.4012684;-44.41624239999999;MA-106, 100, Alcântara - MA, 65250-000, Brazil
12920;19730;2388340;-11.376353502273199;-40.0010061264026;CENTRO DE SAUDE MANOEL AMANCIO DE ARAUJO;RUA FLAMBOIANTY;S/N;PLANALTINO;74 3651-1338;44695000.0;BA;Capim Grosso;2016;5;-11.3742755;-40.0040452;Planaltino, Capim Grosso - BA, 44695-000, Brazil
12921;19617;2615;-10.954310000000001;-37.058820000000004;US MINISTRO COSTA CAVALVANTE INACIO BARBOSA;AV TRANCREDO NEVES;S/N;INACIO BARBOSA;3179-1443;49040490.0;SE;Aracaju;2016;5;-10.95125;-37.0654965;Av. Pres. Tancredo Neves - Inácio Barbosa, Aracaju - SE, Brazil
12926;19983;3047113;-9.752;-36.661;USF POCAO ARAPIRACA;SITIO POCAO;S/N;SITIO POCAO;(82)5221613;57319300.0;AL;Arapiraca;2016;5;-9.666667;-36.616667;Poção, Arapiraca - AL, Brazil
12930;19911;2531534;-4.806760279408071;-45.1699340343475;UNIDADE BASICA DE SAUDE DO POVOADO LAGOA SECA;POVOADO LAGO DA PEDRA;1;LAGOA SECA;(98)96441550;65715000.0;MA;Lago da Pedra;2016;5;-4.5701256;-45.1323113;Lago da Pedra, MA, 65715-000, Brazil
12934;19716;4032381;-12.492570877074805;-41.8909764289844;POSTO DE SAUDE DO ALAGADICO;POVOADO DE ALAGADICO;S/N;ZONA RURAL;7533312211;46900000.0;BA;Seabra;2016;5;-12.483333;-41.9;Alagadiço, Seabra - BA, 46900-000, Brazil
12935;19655;2003627;-10.285381078719801;-36.5552902221669;USF DR LUIZ MACHADO LOBO;RUA ITAPORANGA;S/N;D CONSTANTINO;;57200000.0;AL;Penedo;2016;5;-10.2862399;-36.5559517;Av. Itaporanga - Dom Constantino, Penedo - AL, 57200-000, Brazil
12936;19742;7373996;-11.6;-38.6;PSF SEDE II;CENTRO;01;CENTRO;;48485000.0;BA;Sátiro Dias;2016;5;-11.6006566;-38.599686;R. Alto da Saudade, 01 - CENTRO, Sátiro Dias - BA, 48485-000, Brazil
12938;19725;3032159;-10.1275706291196;-36.1760258674611;USF CENTRO;RUA LINDOLFO SIMOES;S/N;CENTRO ZONA URBANA;(82)2731218;57230000.0;AL;Coruripe;2016;5;-10.1272725;-36.1749391;R. Lindolfo Simões - Vila do Mansinho, Coruripe - AL, 57230-000, Brazil
12940;19638;3056635;-11.451088096880099;-38.101615905761705;USF JOAO BISPO DOS SANTOS;POV UMBAUBA;S/N;ZONA RURAL;75 34432182 RAMAL 30;48480000.0;BA;Crisópolis;2016;5;-11.3813595;-37.6626896;Umbaúba, State of Sergipe, 49260-000, Brazil
12942;19807;2401355;-10.5058180636519;-39.0142487251363;UNIDADE DE SAUDE DA FAMILIA DE RUILANDIA;POVOADO DE RUILANDIA;S/N;POVOADO DE RUILANDIA;75-3271-1803;48500000.0;BA;Euclides da Cunha;2016;5;-10.5087813;-39.0138034;Euclides da Cunha, State of Bahia, 48500-000, Brazil
12946;19910;5050332;-11.864722748623901;-40.4714981500981;UNIDADE DE SAUDE DA FAMILIA DE NOVO HORIZONTE;AV NUMA ALVES BARRETO;97;CONJ HAB PAULO GER;74 3626 2464;44800000.0;BA;Mundo Novo;2016;5;-11.8638938;-40.470316;R. Numa Alves Barreto, 97, Mundo Novo - BA, 44800-000, Brazil
12950;19810;2630613;-7.9408600000000025;-35.91231;USF III NOVA ESPERANCA;POVOADO DE CAPIVARA;S/N;ZONA RURAL;;55780000.0;PE;Frei Miguelinho;2016;5;-7.939593299999999;-35.9116066;Frei Miguelinho, State of Pernambuco, 55780-000, Brazil
12951;19746;2698013;-2.54147887229912;-44.21555042266721;CENTRO DE SAUDE GENESIO RAMOS FILHO;RUA 13;S/N;COHAB ANIL;;65050000.0;MA;São Luís;2016;5;-2.5446297;-44.2187455;R. Treze - Cohab Anil III, São Luís - MA, 65052-050, Brazil
12953;19604;6389023;-12.8311192989346;-38.475751876829904;USF ESTRADA DA COCISA;TRAVESSA MONTES CLAROS;S/N;PARIPE;36116829;40810620.0;BA;Salvador;2016;5;-12.8326952;-38.4750883;Tv. Montes Claros - Paripe, Salvador - BA, 40810-710, Brazil
12960;19610;6117309;-4.08320188522327;-38.7924456596363;UBS MARIA EUZIR PONTES GADELHA;RUA JOSE DE DUDA PONTES;00;TANQUES;8533697009;61976000.0;CE;Maranguape;2016;5;-4.0753869;-38.79124059999999;Tanques, Maranguape - CE, Brazil
12962;19859;4561;-12.970999999999998;-38.510999999999996;USF IVONE SILVEIRA CALABAR;RUA MARIA PINHO;S/N;CALABAR;(71)3339-7268;40140000.0;BA;Salvador;2016;5;-13.0004961;-38.5153543;R. Maria Pinho, Sn - Alto das Pombas, Salvador - BA, 40226-565, Brazil
12965;19805;7352344;-2.0;-44.536;UBS NOSSA SENHORA DA CONCEICAO;CEDRAL;S/N;CENTRO;98;65260000.0;MA;Cedral;2016;5;-1.997802;-44.5352452;Cedral, MA, 65260-000, Brazil
12969;19948;7581882;-9.75153;-36.65678;UBS JOAO PAULO II;RUA ENGENHEIRO CAMILO COLLIER;3;JOAO PAULO II;;57316602.0;AL;Arapiraca;2016;5;-9.7600229;-36.657569;R. Eng. Camilo Collier, 3 - São Luiz II, Arapiraca - AL, 57304-240, Brazil
12970;19992;2601818;-14.0672690808107;-39.6409188889228;UNIDADE DE SAUDE DA FAMILIA ILTON LOPES LEAL;AVENIDA ILTON LOPES LEAL;1;CENTRO;(73)35372125;45580000.0;BA;Ibirataia;2016;5;50.9539977;-2.9236795;Ilton, Ilminster TA19, UK
12972;19808;6507867;-3.22883053425389;-40.1241788929331;ESF SAO JOSE;SAO JOSE;S/N;SAO JOSE;;62550000.0;CE;Morrinhos;2016;5;-17.7336498;-49.1068635;Av. Sen. Hermenegildo de Morais, 651, Morrinhos - GO, 75650-000, Brazil
12975;19946;3020010;-11.7552498736675;-39.188716305461895;UNIDADE DE SAUDE DA FAMILIA RITA MEIRE LIMA DA MOTA;POVOADO DE BARRA;S/N;RURAL;(75) 6842150;48725000.0;BA;Ichu;2016;5;-11.0897504;-43.139032;Barra - State of Bahia, Brazil
12976;19741;2008165;-9.562999999999999;-35.824;UNIDADE DE SAUDE DA FAMILIA IV PRIMAVERA;FAZENDA PRIMAVERA;01;PRIMAVERA;(82)2661148;57120000.0;AL;Satuba;2016;5;-9.7636021;-36.6598637;Primavera, Arapiraca - AL, Brazil
12987;19857;4359;-13.0018365383144;-38.475065231322105;UBS OSVALDO CALDAS CAMPOS SANTA CRUZ;RUA DISNEYLANDIA;S/N;SANTA CRUZ;(71) 3611-3541;41925300.0;BA;Salvador;2016;5;-13.001842;-38.4751452;R. Dr. Armando Colavolpe, sn - Santa Cruz, Salvador - BA, 41927-310, Brazil
12988;19951;4028287;-11.763535737990999;-38.9374566078175;POSTO DE SAUDE QUINJI;POVOADO DE QUINJI;S/N;ZONA RURAL;(75)36882113;48720000.0;BA;Lamarão;2016;5;-10.7528486;-39.2084814;Quijingue - State of Bahia, Brazil
12989;19876;6614523;-4.10600066184986;-38.5075306892384;UNIDADE BASICA DE SAUDE DE BUENOS AIRES I;RUA ANTONIO DE ANDRADE;45;BUENOS AIRES I;(85)33366050;62886095.0;CE;Horizonte;2016;5;-4.1152217;-38.4888723;R. Antônio Joaquim de Andrade, 45 - Planalto Horizonte, Horizonte - CE, 62880-000, Brazil
12992;19687;2724758;-4.939737815364019;-37.975431296901;UNIDADE BASICA DE SAUDE INGA;SITIO INGA;S/N;ZONA RURAL;;62900000.0;CE;Russas;2016;5;-4.9271161;-37.9724259;Russas, State of Ceará, 62900-000, Brazil
13004;19835;2372258;-3.916314840316661;-38.6223506927479;UBS LUIZA TARGINO DA SILVA;RUA JAIME VASCONCELOS;S/N;OLHO DAGUA;(85)3392-8296;61908020.0;CE;Maracanaú;2016;5;-3.9160798;-38.6224418;Av. Antônio Prata - Olho D'Água, Maracanaú - CE, Brazil
13010;19999;5112222;-9.0153604823547;-42.6922851641907;CENTRO DE SAUDE UNIDADE BASICA SAUDE NOVO ZABELE;LOC NOVO ZABELE;S/N;LOC NOVO ZABELE;08935821806;64770000.0;PI;São Raimundo Nonato;2016;5;-9.014680799999999;-42.6926954;Praca Major Toinho, 280, São Raimundo Nonato - PI, 64770-000, Brazil
13016;19865;6297145;-4.11751270294177;-44.111137390135404;CENTRO DE SAUDE PALMEIRA TORTA;RUA FORTALEZA;S/N;PALMEIRA TORTA;;65415000.0;MA;Coroatá;2016;5;-4.1283534;-44.1303057;Coroatá - State of Maranhão, 65415-000, Brazil
13020;19954;2722542;-9.56836223602267;-37.1285104751576;UNIDADE SAUDE DA FAMILIA SAO JOAO;RUA JOAQUIM MONTEIRO;S/N;ZONA RURAL;(82)34241612;57580000.0;AL;Major Isidoro;2016;5;-9.568137799999999;-37.1284416;R. Joaquim Monteiro, Maj. Isidoro - AL, 57580-000, Brazil
13021;19904;2322064;-6.455047130584531;-38.5529565811146;UNIDADE BASICA DE SAUDE NOSSA SENHORA DOS MILAGRES;RUA NOSSA SENHORA DOS MILAGRES;S/N;CENTRO;93139299;58922000.0;PB;Bernardino Batista;2016;5;-6.4519443;-38.5507076;Bernardino Batista, State of Paraíba, 58922-000, Brazil
13024;19608;2009293;-9.53196244231297;-36.436741595943104;UNIDADE DE SAUDE DA FAMILIA VILA APARECIDA;POVOADO VILA APARECIDA;S/N;ZONA RURAL;;57635000.0;AL;Tanque d'Arca;2016;5;-22.8469023;-45.23166519999999;Aparecida, State of São Paulo, 12570-000, Brazil
13025;19711;7758286;-8.33529567718506;-36.420036315918004;UBS TEREZA MENDONCA MANINHO JACO;AV TEREZA MEDONCA;01;TEREZA MENDONCA;81 34111600;55150005.0;PE;Belo Jardim;2016;5;-8.3336848;-36.4196175;R. Tereza Augusta, 1 - Centro, Belo Jardim - PE, 55150-041, Brazil
13026;19997;2457695;-4.792764186858991;-44.589514732359504;UNIDADE BASICA DE SAUDE DA FAMILIA ALTO DE AREIA;POVOADO ALTO DA AREIA;02;ALTO DA AREIA;(99) 6421732;65725000.0;MA;Pedreiras;2016;5;-4.6994416;-44.58057170000001;Alto de Areia, Pedreiras - MA, 65725-000, Brazil
13027;19881;24511;-8.04345;-34.94791;US 254 PSF BRASILIT;RUA EMILIANO BRAGA;S/N;VARZEA;(81) 33556410;50740040.0;PE;Recife;2016;5;-8.0379452;-34.9460861;R. Emíliano Braga - Várzea, Recife - PE, 50670-380, Brazil
13028;19804;2509520;-10.8375620841977;-38.54244232177621;CENTRO DE SAUDE DE RIBEIRA DO POMBAL;RUA JOAO XXIII;S/N;CENTRO;(75)32761921;48400000.0;BA;Ribeira do Pombal;2016;5;-10.8356895;-38.54171789999999;R. João XXIII, Ribeira do Pombal - BA, 48400-000, Brazil
13031;19666;2322285;-7.89323687553383;-37.121279239653504;USF 04 JOAO BATISTA DA SILVA BRITO;VILA SANTA MARIA;S/N;VILA SANTA MARIA;(83) 3351 1812;58500000.0;PB;Monteiro;2016;5;-6.616667;-36.016667;Santa Maria, Cuité - PB, 58175-000, Brazil
13033;19959;4026780;-12.243501016417598;-41.6179588573911;UNIDADE DE SAUDE DA FAMILIA FELIX SOUZA NETO;POVOADO DE AGUA DE REGA;11;ZONA RURAL;7533642128;46980000.0;BA;Iraquara;2016;5;-12.1757928;-41.7657483;Água de Rega, Iraquara - BA, 46980-000, Brazil
13034;19622;2420422;-11.3680522747437;-37.8453707752723;UNIDADE BASICA DE SAUDE PEDRO GOIS;POVOADO LOPES;S/N;ZONA RURAL;(79)37516000;49280000.0;SE;Tomar do Geru;2016;5;-11.3694382;-37.8428174;Tomar do Geru, SE, 49280-000, Brazil
13039;20193;5539080;-6.23102903366071;-42.700831890105;POSTO DE SAUDE SAO VICENTE;RUA PAULO CESAR DE MORAIS;S/N;SAO VICENTE;8632931465;64490000.0;PI;Regeneração;2016;5;-6.2332222;-42.6939094;R. Paulo César de Moraes, Regeneração - PI, 64490-000, Brazil
13042;20177;2368455;-5.89326633794508;-42.6351308599585;POSTO DE SAUDE OTACIANA MARIA DO NASCIMENTO;RUA MERCEDES RUBINS;S/N;CENTRO;( )2801540;64460000.0;PI;Água Branca;2016;5;-5.8917883;-42.6341063;R. Mercedes Rubens, Água Branca - PI, 64460-000, Brazil
13043;20173;2638142;-8.12861;-35.29794000000001;U S F LOTEAMENTO CONCEICAO I;RUA PROJETADA;100;LOT CONCEICAO;(81)35261857;55602050.0;PE;Vitória de Santo Antão;2016;5;-8.1286072;-35.2979382;Vitória de Santo Antão, PE, Brazil
13044;20346;2798123;-5.7895555402052805;-35.331156093085205;UNIDADE BASICA DE SAUDE DA FAMILIA DE IGREJA NOVA;POVOADO DE IGREJA NOVA;S/N;IGREJA NOVA;;59299400.0;RN;São Gonçalo do Amarante;2016;5;-5.8174857;-35.4418319;Igreja Nova, São Gonçalo do Amarante - RN, 59290-000, Brazil
13045;20085;2636972;-7.667180299758692;-35.172343254088304;PSF SIZINO FERREIRA LIMA;RUA CEL LUIZ INACIO;S/N;DIST UPATININGA;;55890000.0;PE;Aliança;2016;5;-7.665642600000001;-35.1730542;R. Cel. Luís Inácio, Aliança - PE, 55890-000, Brazil
13053;20133;2608448;-7.29502691351019;-35.6176892168186;USF VI PONTINA;DISTRITO DE PONTINA;S/N;ZONA RURAL;(83)3941058;58380000.0;PB;Ingá;2016;5;-7.289292299999999;-35.6100553;Ingá, State of Paraíba, Brazil
13059;20337;2380838;-6.1562327992920105;-37.8409607540419;CENTRO DE SAUDE MUNICIPAL VEREADOR JOSE ARAUJO CARLOS;RU JOSE CAMPOS;57;CENTRO;(84)33940317;59890000.0;RN;Frutuoso Gomes;2016;5;-6.1570849;-37.8378324;Frutuoso Gomes, State of Rio Grande do Norte, 59890-000, Brazil
13062;20088;2478536;-3.18302035331717;-40.4518532752979;UNIDADE BASICA DE SAUDE DE SERROTA;SERROTA;S/N;SERROTA;0000000;62470000.0;CE;Senador Sá;2016;5;-3.1880922;-40.4605544;Serrota, Sen. Sá - CE, 62470-000, Brazil
13065;20020;5452260;-6.3822948932645795;-46.75914287567;POSTO DE SAUDE PROJETO SAO PEDRO;PROJETO SAO PEDRO;S/N;POVOADO;;65973000.0;MA;São João do Paraíso;2016;5;-6.3809033;-46.75734509999999;R. São Pedro - João de Barro, Rondonópolis - MT, 65973-000, Brazil
13069;20154;5927366;-9.323412179946633;-40.6169915199268;UBS SIMAO PEDRO COELHO;TRAVESSA DA RUA B;S/N;PROJETO SENADOR NILO;(87) 3986-7103;56304020.0;PE;Petrolina;2016;5;-9.379428899999999;-40.5498699;R. B - São Goncalo, Petrolina - PE, Brazil
13070;20079;2321491;-7.222999999999981;-37.257089904785204;CENTRO DE SAUDE DE TEIXEIRA;RUA JOSE DUARTE DANTAS;S/N;CENTRO;(83)4722183;58735000.0;PB;Teixeira;2016;5;-7.219487199999999;-37.2513604;R. José Duarte Dantas, Teixeira - PB, 58735-000, Brazil
13071;20201;2785943;-8.34884968799341;-42.2564375329406;AMBULATORIO MUN SIMPLICIO FERREIRA DE CARVALHO;BR 020;S/N;PICARRA;(89)3483 2694;64760000.0;PI;São João do Piauí;2016;5;-8.370122799999999;-42.2397868;BR-020, São João do Piauí - PI, Brazil
13072;20175;2638258;-8.117559;-35.2800761;U S F REDENCAO;RUA F;043;REDENCAO;(81)35236914;55612060.0;PE;Vitória de Santo Antão;2016;5;-8.0985459;-35.2865903;R. F, 43 - Cajá, Vitória de Santo Antão - PE, Brazil
13078;20165;3562638;-8.1117;-34.946529999999996;US 315 PSF UR 3;AV ENGENHO BABILONIA;168;COHAB;(81) 33556451;51270080.0;PE;Recife;2016;5;-8.1126215;-34.949701;Av. Engenho Babilônia, 168 - COHAB, Recife - PE, 51270-080, Brazil
13079;20065;2591693;-6.6266182381749275;-35.442828338623;UNIDADE DE SAUDE DA FAMILIA PSF I AGRIPINO DA COSTA FRAZAO;RUA CLAUDIONOR PEREIRA DOS SANTOS;S/N;CONJUNTO;(83)33701327;58254000.0;PB;Logradouro;2016;5;-6.6144662;-35.4425934;Logradouro, State of Paraíba, 58254-000, Brazil
13082;20187;2365928;-5.989394187927071;-42.5566577911365;CS DR HELVIDIO NUNES;AVENIDA PETRONIO PORTELA;33;CENTRO;(86)32991121;64470000.0;PI;Hugo Napoleão;2016;5;-5.988922199999999;-42.5559681;R. Petronio Portela, 33, Hugo Napoleão - PI, 64470-000, Brazil
13090;20052;3446069;-7.17935719222299;-34.8303360586166;USF INTEGRADA CIDADE VERDE;RUA LEOPOLDO PEREIRA DE LIMA;S/N;MANGABEIRA VIII;32381169;58059400.0;PB;João Pessoa;2016;5;-7.1789339;-34.8317064;R. Leopoldo Pereira Lima, 319 - Mangabeira, João Pessoa - PB, 58059-200, Brazil
13093;20105;2719584;-9.44771;-36.38899;CENTRO DE SAUDE DR HUMBERTO GOMES DE MELO;RUA PROFESSOR JOSE FARIAS DA COSTA;S/N;CENTRO;(82) 32045119;57730000.0;AL;Mar Vermelho;2016;5;-9.4479476;-36.388227;Mar Vermelho - State of Alagoas, Brazil
13095;20163;2011;-8.0242574214933;-34.9284982681264;US 171 CS JOAQUIM COSTA CARVALHO;RUA SIRIJI;S/N;ALTO DO MANDU;(81) 3355-4412/4413;52130110.0;PE;Recife;2016;5;-8.0227638;-34.9293172;R. Siriji - Alto do Mandu, Recife - PE, 52171-011, Brazil
13096;20192;2404710;-10.440936038123699;-45.16331252357671;PS DO MORRO DO PEQUIPSF;MORRO DO PEQUI;S/N;MORRO DO PEQUI;(89)35732976;64980000.0;PI;Corrente;2016;5;-10.4391597;-45.1657225;Corrente, State of Piauí, 64980-000, Brazil
13097;20162;2721694;-9.82698885476657;-37.2784386581653;UNIDADE DE SAUDE DA FAMILIA OLHO DAGUA NOVO;POVOADO OLHO DAGUA NOVO;S/N;ZONA RURAL;(82)5326010;57435000.0;AL;Belo Monte;2016;5;-9.823145499999999;-37.2773515;Belo Monte, AL, 57435-000, Brazil
13100;20180;2367610;-9.07094898367372;-44.3605250848238;UBS DR RAIMUNDO SANTOS;RUA DEODORO DA FONSECA;S/N;SAO PEDRO;;64900000.0;PI;Bom Jesus;2016;5;-9.0757797;-44.36533499999999;R. Deodoro da Fonseca - São Pedro, Bom Jesus - PI, 64900-000, Brazil
13104;20166;2630761;-8.36539100520996;-36.572928428649895;UBS BARRIGUDA;SITIO BARRIGUDA;01;BARRIGUDA;(87)38361192;55250000.0;PE;Sanharó;2016;5;-8.3598976;-36.5631096;Sanharó, PE, 55250-000, Brazil
13109;20073;2592096;-6.59507;-37.62171;ESF I YAIA QUEIROGA;RUA CANDIDO DE ASSIS QUEIROGA;S/N;CENTRO;(83)4451028;58860000.0;PB;Paulista;2016;5;-6.5961032;-37.6254598;Rua Vigolvino Calixto, 61, Paulista - PB, 58860-000, Brazil
13110;20093;3627667;-11.5000784397122;-37.4016666412343;POSTO DE SAUDE DE COQUEIRO;RUA DA MARE;S/N;POVOADO;;48310000.0;BA;Jandaíra;2016;5;-11.566743;-37.7815799;Jandaíra - State of Bahia, 48310-000, Brazil
13112;20167;2352354;-7.831813426230989;-35.8852433390024;USF I CARAMURU;POVOADO DO CARAMURU;S/N;CENTRO;81-37571130;55765000.0;PE;Santa Maria do Cambucá;2016;5;-7.833388599999999;-35.8809269;Santa Maria do Cambucá - State of Pernambuco, Brazil
13120;20204;2443937;-5.09846091270432;-42.7216243743884;UNIDADE BASICA DE SAUDE DR HELVIDIO FERRAZ TODOS OS SANTOS;AV PROFESSOR CAMILO FILHO;6133;TODOS OS SANTOS;(86)2159207;64089040.0;PI;Teresina;2016;5;-5.1198233;-42.7158254;Av. Prof. Camilo Filho, 6133 - Jardim Europa, Teresina - PI, 64041-660, Brazil
13123;20191;2366606;-6.182813644408999;-42.4728655815112;PS DE PITOMBEIRA;PITOMBEIRA;S/N;PITOMBEIRA;;64495000.0;PI;Jardim do Mulato;2016;5;-6.186521;-42.4666228;Pitombeira, Jardim do Mulato - PI, 64495-000, Brazil
13124;20078;2321238;-6.77532434463481;-36.799221038817294;UNIDADE DE SAUDE DA FAMILIA I REDINHA;JOSEFA ZELIA DE MORAIS;S/N;CENTRO;34671028;58610000.0;PB;São José do Sabugi;2016;5;-6.775953299999999;-36.7992736;São José do Sabugi, PB, 58610-000, Brazil
13125;20171;2355752;-7.6100170612333;-35.278880596159894;PSF TRIGUEIROS;R 15 DE NOVEMBRO;S/N;POV TRIGUEIROS;(81)36012105;55850000.0;PE;Vicência;2016;5;-7.6095313;-35.2804158;Vicência - State of Pernambuco, 55850-000, Brazil
13127;20014;2511053;-11.2112152576443;-39.2414689064015;UNIDADE SAUDE DA FAMILIA DE VARZEA DA PEDRA;DISTRITO DE VARZEA DA PEDRA;S/N;ZONA RURAL;(75)32652099;48880000.0;BA;Santaluz;2016;5;-11.2506936;-39.3655111;Estr. Várzea da Pedra, Santaluz - BA, 48880-000, Brazil
13131;20114;2405172;-7.20040082931498;-43.829891681669906;POSTO DE SAUDE DO CURRAL NOVO;POVOADO CURRAL NOVO;S/N;ZONA RURAL;(89)35421135;64850000.0;PI;Landri Sales;2016;5;-7.831622899999999;-40.9008457;Curral Novo do Piauí - State of Piauí, Brazil
13132;20089;2404389;-4.71639633178697;-41.22967243194461;PS LAPA;LOCALIDADE LAPA;S/N;ZONA RURAL;;64255000.0;PI;Pedro II;2016;5;-4.716667;-41.23333299999999;Lapa, Pedro II - State of Piauí, 64255-000, Brazil
13134;20190;2366614;-6.09583497047407;-42.6356220245349;PS DE MANOEL SOARES DA SILVA PSF;AVENIDA JAIMES SOARES;S/N;CENTRO;8632911153;64495000.0;PI;Jardim do Mulato;2016;5;-6.0979944;-42.6339279;Av. Jaime Soares, Jardim do Mulato - PI, 64495-000, Brazil
13137;20041;2321181;-7.12520978356176;-37.6107199033242;USF INACIO LUIZ MOTA;RUA INACIO FELIX DE OLIVEIRA;S/N;CENTRO;8334271227;58715000.0;PB;Catingueira;2016;5;-7.124439199999999;-37.6078437;231 - R. Inácio Félix de Oliveira, 125, Catingueira - PB, 58715-000, Brazil
13147;20169;2635674;-7.47402518326653;-37.2750721852438;PSF BAIRRO SAO JOAO;RUA PROJETADA;320;SAO JOAO;;56700000.0;PE;São José do Egito;2016;5;-7.4686612;-37.2746574;São José do Egito, State of Pernambuco, 56700-000, Brazil
13151;20155;2429667;-9.397375515;-40.4999993346522;UBS MIGUEL DE LIMA DURANDO;RUA 24;80;LOTEAMENTO RECIFE;(87) 3864-4168;56320720.0;PE;Petrolina;2016;5;-9.368516999999999;-40.4841819;R. Vinte e Quatro, 80 - Lot. Recife, Petrolina - PE, 56320-720, Brazil
13152;20071;2603543;-6.88239497640079;-35.5404681978226;UNIDADE SAUDE DA FAMILIA I PILOESINHO;RUA MANOEL ALVES DE SOUZA;S/N;CENTRO;(83)2713293;58210000.0;PB;Pilõezinhos;2016;5;-6.843802699999999;-35.5287675;R. Manoel Alves de Souza, Pilõezinhos - PB, 58210-000, Brazil
13157;20116;2345625;-8.079725503921267;-36.0423016548146;UBS LAJES;POVOADO DE LAJES;S/N;POVOADO DE LAJES;(81)37122930;55008000.0;PE;Caruaru;2016;5;-8.2941331;-35.982684;R. Dr. José Rafael Cavalcante, 419 - Pinheiropolis, Caruaru - PE, 55032-570, Brazil
13161;20047;3063712;-7.1992199999999995;-34.84172;USF INTEGRADA IPIRANGA;RUA SAO LUIZ;S/N;PLANALTO DA BOA ESPE;986458774;58065021.0;PB;João Pessoa;2016;5;-7.2034726;-34.8557907;R. São Luís - Planalto da Boa Esperança, João Pessoa - PB, 58033-455, Brazil
13162;20341;5543959;-6.770151752899539;-36.736851641873606;UNIDADE SAUDE DA FAMILIA DE SANTANA DO SERIDO;RUA JOSE CICERO DE MORAIS;S/N;CENTRO;;59350000.0;RN;Santana do Seridó;2016;5;-6.769252199999999;-36.7322181;R. Jose Cicero Morais, Santana do Seridó - RN, 59350-000, Brazil
13169;20197;2368773;-4.3240964412688;-42.6016974449145;PSF FRANCISCO MAIARINO MAIA;ANGELIM;S/N;ZONA RURAL;(86)32441165;64130000.0;PI;Miguel Alves;2016;5;-4.333333;-42.6;Angelim, Miguel Alves - PI, 64130-000, Brazil
13172;20053;3576566;-2.6536810398101003;-44.2926263809191;CENTRO DE SAUDE MARIA DE LOURDES RODRIGUES;RUA BOM JARDIM;385;RIO GRANDE;(098) 3241-7843;65010000.0;MA;São Luís;2016;5;-2.5038427;-44.20527449999999;Tv. Bom Jardim - Vila Maranhão, São Luís - MA, 65067-430, Brazil
13174;20172;2638134;-8.12861;-35.29794000000001;U S F GALILEIA;SITIO GALILEIA;01;ZONA RURAL;(81)35234050;55602050.0;PE;Vitória de Santo Antão;2016;5;-8.1312342;-35.2838082;Galiléia, Vitória de Santo Antão - PE, Brazil
13176;20288;2714760;-7.9328837046219025;-38.974282604268296;UNIDADE DE SAUDE DA FAMILIA DE LAGOA;POVOADO DE LAGOA;S/N;ZONA RURAL;(87)39420303;56120000.0;PE;Verdejante;2016;5;37.1356631;-8.451722799999999;8400 Lagoa, Portugal
13183;20043;2342162;-7.0941638946531125;-34.8569798469533;USF SALINAS RIBAMAR;SAO PEDRO;S/N;SALINAS RIBAMAR;(83)2286421;58109482.0;PB;Cabedelo;2016;5;-7.0966941;-34.8578601;R. São Pedro - Jacaré, Cabedelo - PB, Brazil
13184;20338;2374609;-6.067876624108219;-35.3320992692543;UBS SOBRADO;RUA PRINCIPAL DO SITIO SOBRADO;S/N;ZONA RURAL;(84) 3276 8063;59182000.0;RN;Monte Alegre;2016;5;-6.067271900000001;-35.334062;Monte Alegre - State of Rio Grande do Norte, Brazil
13186;20076;2537036;-7.66755580902077;-36.878464221953294;UBSF DR NILO FEITOSA ESF 1;RUA VICENTE PRETO;S/N;ALTO ALEGRE;(83)353 2647;58540000.0;PB;Sumé;2016;5;-7.6671859;-36.8789297;R. Vicente Preto, Sumé - PB, 58540-000, Brazil
13189;20049;2605953;-7.408069999999999;-36.02442;UBSF MANOEL BARBOSA DE SOUSA NETO;RUA JOAO QUEIROGA;02;CENTRO;(83)33451076;58455000.0;PB;Caturité;2016;5;-7.407873700000001;-36.0244704;R. João Queiroga, 2, Caturité - PB, 58455-000, Brazil
13193;20096;2345854;-8.285898;-35.967073360053504;UBS MORRO CENTENARIO;RUA DA SE;45;CENTENARIO;(81)37212268;55008470.0;PE;Caruaru;2016;5;-8.2836424;-35.9797853;R. da Sé, 45 - Morro do Bom Jesus, Caruaru - PE, 55008-260, Brazil
13198;20342;2453878;-4.866825342178201;-43.347587585448;UBS NOVA CAXIAS;LARGO RAIMUNDO SANTOS;320;NOVA CAXIAS;(98)5213223;65604250.0;MA;Caxias;2016;5;-4.8658705;-43.3475352;Largo Raimundo Santos, 320 - Nova Caxias, Caxias - MA, 65604-250, Brazil
13199;20128;2533332;-10.257992999999999;-40.1945298;USF MARINALVA DE SOUZA FERNANDES;POVOADO DE SANTA ROSA DE LIMA;S/N;ZONA RURAL;( );48960000.0;BA;Jaguarari;2016;5;-10.0952601;-39.8681928;Santa Rosa de Lima, Jaguarari - BA, 48960-000, Brazil
13200;20332;3207056;-5.584670305251911;-35.4838871955861;UBS MATAS;POVOADO DE MATAS;S/N;ZONA RURAL;;59570000.0;RN;Ceará-Mirim;2016;5;-5.6385317;-35.423206;R. Gen. João Varela, 803, Ceará-Mirim - RN, 59570-000, Brazil
13201;20178;3164233;-8.12861;-35.29794000000001;U S F PIRITUBA;RUA NUNES MACHADO;100;ZONA RURAL;(81)35574090 ORELHAO;55606530.0;PE;Vitória de Santo Antão;2016;5;-8.1165367;-35.2959989;Rua Nunes Machado, 100 - Centro, Vitória de Santo Antão - PE, Brazil
13202;20152;2631830;-8.91917;-36.65524;PSF DO AZEVEM;POVOADO DE AZEVEM;S/N;RURAL;;55355000.0;PE;Paranatama;2016;5;-8.866667;-36.7;Azevém, Paranatama - PE, 55355-000, Brazil
13203;20074;2682699;-7.485410000000001;-36.66299;UBSF 02 ABEL PEREIRA LIMA;AV LEIDSON DA SILVA;S/N;CENTRO;(83)33542856;58580000.0;PB;Serra Branca;2016;5;-7.4874603;-36.6695628;R. Leidson da Silva, Serra Branca - PB, 58580-000, Brazil
13207;20159;24503;-8.05978;-34.943670000000004;US 252 PSF ENGENHO DO MEIO;RUA JOSE DOS SANTOS;312;ENGENHO DO MEIO;(81) 33556130;50730040.0;PE;Recife;2016;5;-8.060260999999999;-34.943561;R. José dos Santos, 312 - Engenho do Meio, Recife - PE, 50730-040, Brazil
13208;20084;2635305;-7.5760000000000005;-40.49800000000001;ESF CAVALETE I;BR316;S/N;CAVALETE I;;56280000.0;PE;Araripina;2016;5;-7.5730866;-40.5213388;BR-316, Km 22,2, s/n - Cavalete, Araripina - PE, 56280-000, Brazil
13210;20118;5294649;-10.1347450128483;-43.9415101417959;POSTO DE SAUDE BONFIM;BAIXAO DO BONFIM;S/N;ZONA RURAL;;64965000.0;PI;Avelino Lopes;2016;5;-10.1349912;-43.9482679;Avelino Lopes - State of Piauí, Brazil
13211;20094;5522447;-5.50879753777524;-41.8992637510964;PS JOAQUIM FERNANDES DE ARAUJO;LAGOAS;S/N;ZONA RURAL;;64350000.0;PI;São João da Serra;2016;5;-5.511196399999999;-41.8926826;São João da Serra, PI, 64350-000, Brazil
13212;20340;2409402;-6.02432801349187;-37.9851948257179;UBS VICENTE DO REGO FILHO;RUA ANTONIO DE FREITAS;20;CENTRO;(84)3772241;59810000.0;RN;Portalegre;2016;5;-6.027025;-37.9860993;R. Antonio de Freitas, 20, Portalegre - RN, 59810-000, Brazil
13215;20037;2606976;-7.042860000000001;-35.62605;UBSF VIII MARIA CRISTINA MEDEIROS SARMENTO;RUA DOM PEDRO II;S/N;CENTRO;;58388000.0;PB;Alagoa Grande;2016;5;-7.036851700000001;-35.6314165;R. Dom Pedro II, Alagoa Grande - PB, 58388-000, Brazil
13218;20025;3583236;-11.642074584960596;-40.225195884703396;POSTO DE SAUDE DO TEOBALDO ANTONIO PEREIRA REIS;POVOADO DE TEOBALDO;S/N;POVOADO;(74)36322104;44630000.0;BA;Mairi;2016;5;-11.7147456;-40.1495289;Mairi, State of Bahia, 44630-000, Brazil
13219;20063;2755947;-7.10907;-34.8778;USF INTEGRADA ROGER;RUA DEZENOVE DE MARCO;S/N;ROGER;( 83 ) 3218-9846;58020340.0;PB;João Pessoa;2016;5;-7.109424199999999;-34.8777035;R. Dezenove de Março - Roger, João Pessoa - PB, 58020-325, Brazil
13220;20168;3983714;-7.47402518326653;-37.2750721852438;ESF CENTRAL;RUA VEREADOR RAIMUNDO EUFRASIO;58;CENTRO;38441055;56700000.0;PE;São José do Egito;2016;5;-7.476695500000001;-37.2728507;R. Ver. Raimundo Eufrásio, 58, São José do Egito - PE, 56700-000, Brazil
13221;20028;2409860;-6.165432929992501;-36.8207001686085;POSTO DE SAUDE DO JUAZEIRO DO PADRE;SITIO JUAZEIRO DO PADRE;60;ZONA RURAL;;59335000.0;RN;Florânia;2016;5;-6.1535923;-36.8161959;Estr. do Juazeiro do Padre, Florânia - RN, 59335-000, Brazil
13224;20156;1252;-8.070969999999999;-34.89952;US 218 PSF COQUE;RUA GUAPIRAMA;65;ILHA JOANA BEZERRA;(81) 33554656;50080730.0;PE;Recife;2016;5;-8.0715246;-34.8999576;R. Guapirama, 65 - São José, Recife - PE, 50080-730, Brazil
13227;20350;2381133;-6.47754371218665;-38.179297889705204;CENTRO DE SAUDE TENENTE ANANIAS;RUA PROJETADA;156;OLINTOS;(84)33862213;59955000.0;RN;Tenente Ananias;2016;5;-6.4586301;-38.1823236;Rua Projetada, s/n - Bairro dos Olintos, Ten. Ananias - RN, 59955-000, Brazil
13230;20083;3323455;-8.89;-36.286;PSF SAO LUIS;RUA ENGENHEIRO CAIO MARCIO;S/N;SAO LUIS;(87)37881156;55430000.0;PE;Angelim;2016;5;-2.5391099;-44.28290459999999;São Luís - Vila Maranhão, São Luís - State of Maranhão, Brazil
13231;20170;2351870;-7.46883656604478;-37.27697879076;CENTRO DA MULHER E DA CRIANCA;RUA JOAO MARIANO VALDARES;58;PAJEU;(81)38441775;56700000.0;PE;São José do Egito;2016;5;-7.472449;-37.2762793;R. João Mariano Valadares, 58, São José do Egito - PE, 56700-000, Brazil
13234;20176;2368471;-5.89521646499617;-42.632896900175794;POSTO DE SAUDE MAE RAIMUNDA;RUA PIRES FERREIRA;S/N;NOVA BRASILIA;(86) 2821449;64460000.0;PI;Água Branca;2016;5;-5.8897719;-42.63699159999999;Água Branca - State of Piauí, Brazil
13240;20179;2324636;-7.2585833072660195;-41.037776470183104;PS MAE DO SANTA;LOCALIDADE CABOCLO;S/N;ZONA RURAL;(89)4410003;64678000.0;PI;Belém do Piauí;2016;5;-7.3669299;-40.9691532;Belém do Piauí, PI, 64678-000, Brazil
13242;20040;2321351;-7.12847337694278;-37.1582169542224;USF I DE CACIMBA DE AREIA SEU DITINHA;RUA CAPITAO SEVERINO XAVIER;S/N;CENTRO;(83) 34215930;58730000.0;PB;Cacimba de Areia;2016;5;-7.1287568;-37.1564242;R. Cap. Silvino Xavier, Cacimba de Areia - PB, 58730-000, Brazil
13250;20147;2408112;-5.78895807266219;-38.0599880218495;CENTRO DE SAUDE ANTONIO SIMAO;RUA ADELINO LUCENA;S/N;CENTRO;(84) 3373 2220;59830000.0;RN;Rodolfo Fernandes;2016;5;13.9413957;121.6234471;Lucena, 4301 Quezon, Philippines
13255;20200;6308538;-6.240183021140339;-42.6850242313083;UBS BURITIZINHO;RUA DOUTOR RAIMUNDO CAMPOS;S/N;BURITIZINHO;86 32931385;64490000.0;PI;Regeneração;2016;5;-6.2363839;-42.6709269;R. Dr. Raimundo Campos - Bela Vista, Regeneração - PI, 64490-000, Brazil
13263;20091;2344181;-8.37528347969031;-35.8718848228444;UNIDADE DE SAUDE DE BOAS NOVAS;VILA DE BOAS NOVAS;S/N;BOAS NOVAS;(81)37283260;55660000.0;PE;Bezerros;2016;5;-8.376344399999999;-35.86956960000001;Boas Novas, Bezerros - PE, 55660-000, Brazil
13264;20141;2429071;-7.40926386;-35.110627357431696;UNIDADE DE SAUDE DA FAMILIA ANTONIO B MENESES;VILA RAFAEL PACIFICO;S/N;CENTRO;;55920000.0;PE;Itambé;2016;5;-7.410118799999999;-35.1098082;Av. Rafael Pacífico, Itambé - PE, 55920-000, Brazil
13266;20331;2410672;-5.722095966338952;-35.3657841682424;UBS MASSARANDUBA;BR 406 KM 16;S/N;ZONA RURAL;(84)32287063;59570000.0;RN;Ceará-Mirim;2016;5;-5.6507269;-35.4252614;BR-406, Rio Grande do Norte, Brazil
13271;20161;2679787;-8.01644;-34.91574;US 288 PSF MORRO DA CONCEICAO;RUA DA CONCEICAO;589;MORRO DA CONCEICAO;(81) 33556526;52280041.0;PE;Recife;2016;5;-8.019554;-34.915797;Praça da Conceição, 589 - Morro da Conceição, Recife - PE, 52280-255, Brazil
13272;20188;2367815;-3.7570023536681;-42.1712994575488;UBS LAGOA SECA;LAGOA SECA;S/N;ZONA RURAL;(86)33831209;64180000.0;PI;Esperantina;2016;5;-3.89177;-42.235583;R. Mal. Deodoro, 596 - Centro, Esperantina - PI, 64180-000, Brazil
13273;20196;2367262;-8.04838657379127;-44.0697240829455;PS CALDEIRAO VENEZA;POV CALDEIRAO;S/N;ZONA RURAL;(86)5351188;64875000.0;PI;Manoel Emídio;2016;5;-8.052961999999999;-44.0845205;Caldeirão, Manoel Emídio - PI, 64875-000, Brazil
13275;20328;2800462;-12.1495870700754;-39.2484989182822;PSF DE GUARIBAS;POVOADO DE GUARIBAS;01;ZONA RURAL;;44670000.0;BA;Anguera;2016;5;-12.2005682;-39.2373283;Rua Guaribas, Anguera - BA, 44670-000, Brazil
13276;20140;2352656;-8.138444423675299;-34.9708342552175;UBS SEVERINO R DE MOURA MARCOS FREIRE;RUA LUIZ BARBALHO;S/N;MARCOS FREIRE;81 3378-5836;54360147.0;PE;Jaboatão dos Guararapes;2016;5;-8.1384639;-34.9705061;R. Luís Barbalho - Marcos Freire, Jaboatão dos Guararapes - PE, 54270-060, Brazil
13280;20182;2325063;-4.458559268397621;-41.9435219724325;PS DA SMS DE CAPITAO DE CAMPOS EQ I;RUA ACELINO REZENDE;137;CENTRO;(86)2771188;64270000.0;PI;Capitão de Campos;2016;5;-4.4610916;-41.93956;R. Acelino Coelho de Rezende, 137, Cap. de Campos - PI, 64270-000, Brazil
13281;20153;2631806;-8.91807675361607;-36.7117381095876;PSF ALTO DA SERRA;POVOADO DE CAMPO SUJO;S/N;RURAL;;55355000.0;PE;Paranatama;2016;5;-8.9212095;-36.6576635;Paranatama - State of Pernambuco, Brazil
13285;20339;2503751;-5.14566779136643;-37.45119094848521;UBS FRANCISCO NETO DA LUZ;SITIO RIACHO GRANDE;S/N;ZONA RURAL;;59611070.0;RN;Mossoró;2016;5;-5.146274900000001;-37.4512979;RN-015, Mossoró - RN, Brazil
13287;20194;2367289;-8.1395065784452;-43.82384061813229;PS DA AGUA BRANCA;LOCALIDADE AGUA BRANCA;S/N;ZONA RURAL;(89)5351268;64875000.0;PI;Manoel Emídio;2016;5;-5.8897719;-42.63699159999999;Água Branca - State of Piauí, Brazil
13290;20151;2315513;-8.67732167243932;-35.582785606383204;PSF SANTA LUZIA II;RUA GERSON BATISTA;S/N;SANTA LUZIA;;55540000.0;PE;Palmares;2016;5;-8.6774387;-35.5828373;Av. Gérson Batista, Palmares - PE, 55540-000, Brazil
13294;20160;22470;-8.11605;-34.94928;US 230 PSF LAGOA ENCANTADA;AV BENIGNO JORDAO DE VASCONCELOS;S/N;COHAB;(81) 33556174;51280400.0;PE;Recife;2016;5;-8.1224137;-34.9503013;R. Dr. Benígno Jordão de Vasconcelos - COHAB, Recife - PE, Brazil
13295;20149;2634961;-9.00093;-40.275009999999995;ESTRATEGIA DE SAUDE DA FAMILIA ESF 02;RUA JOSE RICARDO;250;BAIRRO DO VASCO;87 3869 9068;56395000.0;PE;Lagoa Grande;2016;5;-8.9930132;-40.2719816;Lagoa Grande, PE, 56395-000, Brazil
13296;20344;2375591;-5.7895555402052805;-35.331156093085205;UNIDADE BASICA DE SAUDE MARIA JOSE R DA SILVA;RUA JOAQUIM RODRIGUES D SILVA;S/N;SANTO ANTONIO;;59297486.0;RN;São Gonçalo do Amarante;2016;5;-5.7888236;-35.3081512;Av. Joaquim Rodrigues da Silva, São Gonçalo do Amarante - RN, 59290-000, Brazil
13297;20347;6290604;-6.15869433436922;-35.1241762279568;UBS CARNAUBA;RUA DA INTEGRACAO;S/N;CARNAUBA;84-32480119;59168000.0;RN;Senador Georgino Avelino;2016;5;-6.146780499999999;-35.1427499;Senador Georgino Avelino, State of Rio Grande do Norte, 59168-000, Brazil
13299;20006;3857581;-5.2362406253813205;-38.132150173186105;UNIDADE DE SAUDE DA FAMILIA JOSE MENDES MACIEL;AV MENDES MACIEL;S/N;V JOSE MENDES;(88)3424-3082;62960000.0;CE;Tabuleiro do Norte;2016;5;-5.2392673;-38.1313126;José Mendes, Tabuleiro do Norte - CE, 62960-000, Brazil
13300;20097;2346087;-8.13577294349647;-36.0593175888051;UBS RIACHO DOCE;POVOADO RIACHO DOCE;S/N;POVOADO RIACHO DOCE;;55008000.0;PE;Caruaru;2016;5;-9.016667;-40.033333;Riacho, Lagoa Grande - PE, 56395-000, Brazil
13301;20138;2714876;-7.40926386;-35.110627357431696;UNIDADE DE SAUDE DA FAMILIA MARACUJA II;RUA SEVERINO NUNES DE SOUZA;273;MARACUJA;;55920000.0;PE;Itambé;2016;5;-7.406046399999999;-35.1034954;Av. Severino Nunes Ribeiro, Itambé - PE, 58328-000, Brazil
13302;20184;4008502;-9.01243383893678;-44.4030021530455;PS DE CURRAIS PSF;PRACA DA MATRIZ;S/N;CENTRO;(089) 35480037;64905000.0;PI;Currais;2016;5;-9.0145757;-44.3996779;Currais - State of Piauí, Brazil
13306;20174;2635372;-8.09463;-40.5066;USF DE SOCORRO;POVOADO SOCORRO;S/N;CENTRO;(87)38747156;56210000.0;PE;Santa Filomena;2016;5;-8.1038043;-40.5108063;Socorro, Santa Filomena - PE, 56210-000, Brazil
13307;20064;3004872;-7.12524;-34.886379999999996;UNIDADE DO PSF CORDAO ENCARNADO I;R MARTIM LEITAO;249;VARADOURO;(83) 2189866;58011070.0;PB;João Pessoa;2016;5;-7.1247263;-34.8881206;R. Martim Leitão, 249 - Trincheiras, João Pessoa - PB, 58011-070, Brazil
13308;20036;3579530;-7.0428618;-35.62605139999999;UBSF I DR CLOVIS BARACUY;RUA OLINDA;538;CENTRO;(83)32732267;58388000.0;PB;Alagoa Grande;2016;5;-7.0421057;-35.6348753;R. Olinda, 538, Alagoa Grande - PB, 58388-000, Brazil
13311;20048;2321211;-6.9138872623441605;-37.602789402007;USF II OZORIO QUEIROGA DE ASSIS;RUA JOSE REMIGIO DOS SANTOS;S/N;BAIRRO DO ALTO;0(83)8151-6336;58714000.0;PB;Condado;2016;5;-6.9138692;-37.6023238;R. José Remigio dos Santos, Condado - PB, 58714-000, Brazil
13314;20335;2800969;-5.5428935999999975;-35.4343604;UBS ANINGAS;SITIO ANINGAS;S/N;ZONA RURAL;8432748079;59570000.0;RN;Ceará-Mirim;2016;5;-5.5364134;-35.2990875;Aningas, Ceará-Mirim - RN, 59570-000, Brazil
13315;20080;2354217;-7.574075460433741;-35.167064666746995;PSF DALILA MELO DA FONSECA;R ORESTES RABELO;S/N;TUPAOCA;(81)36371199;55890000.0;PE;Aliança;2016;5;-7.573255899999999;-35.1674378;Tupaoca, Aliança - PE, 55890-000, Brazil
13316;20135;2364107;-7.29502691351019;-35.6176892168186;USF II CAZUZINHA;DISTRITO CAZUZINHA;S/N;ZONA RURAL;(83)3941093;58380000.0;PB;Ingá;2016;5;-7.325037000000001;-35.585286;S/N Rodovia - PB-090 - Zona Rural, Ingá - PB, 58380-000, Brazil
13317;20333;4012542;-6.37492521572032;-35.1285396639931;UBS AREIA BRANCA;POV BOM SUCESSO;S/N;POV BOM SUCESSO;;59190000.0;RN;Canguaretama;2016;5;-5.2957952;-37.6621093;Bom Sucesso, Gov. Dix-Sept Rosado - RN, 59790-000, Brazil
13318;20144;2321343;-6.90718512349046;-37.5177757103801;UNIDADE BASICA DE SAUDE DR JOSE MAURICIO DE LIMA CAJUAZ;RUA DOM JOSE DE MEDEIROS DELGADO;25;CENTRO;8334711352;58713000.0;PB;Malta;2016;5;-6.9055124;-37.5218306;R. Dom José de Medeiros - Centro, Malta - PB, 58713-000, Brazil
13321;20148;2713144;-7.9298009999999985;-35.292789;POSTO DE SAUDE DA FAMILIA JOSE CAVALCANTI DE PETRIBU;SITIO CAMBOA;S/N;ZONA RURAL;;55840000.0;PE;Lagoa de Itaenga;2016;5;-7.934176;-35.2920979;Lagoa do Itaenga, Lagoa de Itaenga - State of Pernambuco, 55840-000, Brazil
13323;20042;6454291;-7.86486983299232;-36.5124607086171;UBSF BARREIRAS ESF II;DISTRITO DE BARREIRAS;S/N;ZONA RURAL;(83)3307- 1728;58595000.0;PB;Caraúbas;2016;5;-7.862360900000001;-36.5112306;Unnamed Road, Caraúbas - PB, 58595-000, Brazil
13324;20067;3011836;-7.1319615840909805;-34.9099802970876;USF ALTO DO MATEUS VI;RUA ATAULFO ALVES;204;ALTO DO MATEUS;32189257;58090710.0;PB;João Pessoa;2016;5;-7.13193;-34.9123165;R. Compositor Ataúlfo Alves, 204 - Alto do Mateus, João Pessoa - PB, 58090-710, Brazil
13325;20185;2650770;-3.90230298042286;-42.23150968551511;UBS CENTRO;PATRIOTINO LAGES;173;CENTRO;(86)33831400;64180000.0;PI;Esperantina;2016;5;-3.9013978;-42.2326288;R. Cel. Patriotino Lages Rebelo, 173, Esperantina - PI, 64180-000, Brazil
13328;20066;2398915;-7.16145515441874;-34.8754119873037;CAIS CRISTO REDENTOR;RUA OLIVIA DE ALMEIDA GUERRA;S/N;CRISTO;(83) 3231-5664;58071430.0;PB;João Pessoa;2016;5;-7.160390700000001;-34.8749919;R. Olívia de Almeida Guerra - Cristo Redentor, João Pessoa - PB, Brazil
13329;20035;2322161;-7.103326320647991;-38.2633852958668;UNIDADE DE SAUDE DA FAMILIA PSF AGUIAR;SITIO RIACHO VERDE;S/N;SITIO;(83)4991035;58778000.0;PB;Aguiar;2016;5;-7.091672;-38.170609;SITIO RIACHO VERDE S/N, Aguiar - PB, 58778-000, Brazil
13331;20062;2612224;-10.226199660412199;-37.196054632255;CLINICA DE SAUDE DA FAMILIA NOSSA SENHORA DA PIEDADE;RUA DA GLORIA;S/N;ZONA URBANA;(79)33191003;49860000.0;SE;Gracho Cardoso;2016;5;-10.2310232;-37.1973641;R. da Glória, Gracho Cardoso - SE, 49860-000, Brazil
13333;20329;2410451;-5.6588387489317205;-37.8003287315358;CENTRO DE SAUDE DE APODI;AV VAN ROSADO;S/N;CENTRO;(84)3332127;59700000.0;RN;Apodi;2016;5;-5.662490699999999;-37.7988308;Apodi, State of Rio Grande do Norte, 59700-000, Brazil
13336;20164;957;-8.12159;-34.9162;US 174 PSF SITIO GRANDE;AV LUXEMBURGO;254;IMBIRIBEIRA;(81) 33556685;51180260.0;PE;Recife;2016;5;-8.1018508;-34.9127707;Av. Luxemburgo, 254 - Imbiribeira, Recife - PE, 51180-260, Brazil
13337;20072;2608936;-6.6876697540281285;-35.443375110625205;UNIDADE DE SAUDE DA FAMILIA DRWEBER DE M LULA;RUA LARGO DA MATRIZ;S/N;CENTRO;(83)9819916;58260000.0;PB;Serra da Raiz;2016;5;-6.686894800000001;-35.4428681;Largo da Matriz, Serra da Raiz - PB, 58260-000, Brazil
13339;20150;2315424;-8.67356657981847;-35.5903601646413;PSF SANTA LUZIA I;TRAV AGAMENON MAGALHAES;S/N;SANTA LUZIA;;55540000.0;PE;Palmares;2016;5;-8.6726685;-35.5889108;Tv. Agamenon Magalhães, Palmares - PE, 55540-000, Brazil
13345;20082;2354233;-7.50361919403054;-35.1667857170095;PSF ANGELO RABELO;TRV JOAO VIEIRA DE BRITO;S/N;MACUJE;(81)36371260;55890000.0;PE;Aliança;2016;5;-7.505398899999999;-35.1667505;Macujê, Aliança - PE, 55890-000, Brazil
13347;20039;2606925;-7.04103;-35.62229;UBSF III CONJ VERA CRUZ;RUA SEVERINO PAZ;S/N;CONJ VERA CRUZ;;58388000.0;PB;Alagoa Grande;2016;5;-7.0408452;-35.6223924;R. Vera Cruz, Alagoa Grande - PB, 58388-000, Brazil
13349;20186;2777614;-6.78136467933635;-43.5771632194506;CS PERINA BATISTA DE CASTRO;QUADRA 06;S/N;VILA PARNAIBA;(89)35521247;64840000.0;PI;Guadalupe;2016;5;-2.8997957;-41.7783998;R. Monsenhor Joaquim Lopes, 500 - N. Sra. Do Carmo, Parnaíba - PI, 64200-150, Brazil
13350;20068;3014266;-7.1577699999999975;-34.891290000000005;UNIDADE DO PSF FUNCIONARIOS I 1 ETAPA;RUA AMBROSIO VITORINO PONTES;S/N;OITIZEIRO;(83) 32189147;58087090.0;PB;João Pessoa;2016;5;-7.1616095;-34.89005;R. Ambrósio Vitórino Pontes - Oitizeiro, João Pessoa - PB, Brazil
13351;20125;2434385;-7.74657331766388;-34.823950567034004;USF JAGUARIBE;R BRUMADO;S/N;JAGUARIBE;(81)35441070;53900000.0;PE;Ilha de Itamaracá;2016;5;-7.7375221;-34.8277963;R. Brumado - Jaguaribe, Ilha de Itamaracá - PE, 53900-000, Brazil
13352;20158;2631814;-8.8582445009815;-36.609646528959296;PSF JOSE AMARO DE LIMA;ST CUPIRA;S/N;RUAL;;55355000.0;PE;Paranatama;2016;5;-8.611049099999999;-35.9516015;Cupira, State of Pernambuco, 55460-000, Brazil
13353;20199;2404591;-9.49344824144475;-44.5812141605608;UNID DA FAMILIA DA PLANALTINA;RUA DO FERREIRO;S/N;PLANALTINA;;64915000.0;PI;Redenção do Gurguéia;2016;5;-9.486814899999999;-44.5787065;R. do Ferreiro, Redenção do Gurguéia - PI, 64915-000, Brazil
13354;20181;2364603;-4.71649289131151;-42.0944380760181;PS CANTO DO PERIQUITO;CANTO DO PERIQUITO;S/N;ZONA RURAL;;64280000.0;PI;Campo Maior;2016;5;-4.8221706;-42.1646051;Campo Maior - State of Piauí, Brazil
13356;20183;2593475;-5.89326633794508;-42.6351308599585;PSF LUCE LEIDE VILARINHO;AV NECO TEIXEIRA;S/N;SAO LUIZ;;64460000.0;PI;Água Branca;2016;5;-5.8901933;-42.63988579999999;Av. Neco Teixeira, 1250 - Centro, Água Branca - PI, 64460-000, Brazil
13363;20157;2344912;-8.009;-34.855;USF ALTO DA BONDADE I;RUA DA LINHA;S/N;ALTO DA BONDADE;(81)34431561;53170285.0;PE;Olinda;2016;5;-7.987110099999999;-34.9087286;R. da Linha - Alto da Bondade, Olinda - PE, Brazil
13369;20061;2322250;-7.923191785812151;-37.166039943694;USF 05 JULIO RAIMUNDO ALEXANDRE;SITIO MULUNGU;S/N;ZONA RURAL;;58500000.0;PB;Monteiro;2016;5;-7.0301513;-35.4634585;Mulungu, State of Paraíba, 58354-000, Brazil
13370;20044;3015831;-7.42358342115024;-38.265044208643495;PROGRAMA DE SAUDE DA FAMILIA II RURAL DE DIAMANTE;VILA VAZANTE;S/N;CENTRO;(83)4512436;58994000.0;PB;Diamante;2016;5;-7.4222085;-38.3504881;Vazante, Diamante - PB, Brazil
13371;20202;2777851;-7.56027817726113;-44.0581798553454;PS ANTONIO DE SOUSA;AVENIDA ULISSES GUIMARAES;1880;SAO JOAO;8935450006;64873000.0;PI;Sebastião Leal;2016;5;-7.5672194;-44.0647946;Av. Ulisses Guimaraes, Sebastião Leal - PI, 64873-000, Brazil
13374;20077;2604612;-7.478089999999999;-38.0428;PSF RITA SILVINO;RUA JOSE CAZE;S/N;CENTRO;(83)34591048 / 1066 R:27;58798000.0;PB;Nova Olinda;2016;5;-7.4785422;-38.0411943;Nova Olinda, Paraíba, Nova Olinda - State of Paraíba, 58798-000, Brazil
13376;20129;2601532;-12.33203;-38.76919;PSF POVOADO DO PICADO;PRACA DA MATRIZ;S/N;PICADO;(75) 2432323;44245000.0;BA;Conceição do Jacuípe;2016;5;-12.4014416;-38.75379160000001;Praça da Matriz, Amélia Rodrigues - BA, 44245-000, Brazil
13379;20336;2410680;-5.58469176292403;-35.4058670997609;UBS LAGOA DO COSME;POVOADO DE LAGOA DO COSME;S/N;ZONA RURAL;8432745944;59570000.0;RN;Ceará-Mirim;2016;5;-5.5883648;-35.4068935;Lagoa do Cosmo, Ceará-Mirim - RN, 59570-000, Brazil
13382;20070;2701731;-7.1925698759973;-37.926519001178;USF EUDO MOURA DINIZ;RUA VIRGILIO SILVA;S/N;CAMPO NOVO;;58765000.0;PB;Piancó;2016;5;-7.202589899999999;-37.9196118;Av. Virgílio Silva, Piancó - PB, 58765-000, Brazil
13383;20343;2501902;-5.19380123470868;-37.3568741367043;UBS DR EPITACIO DA COSTA CARVALHO;AV FRANCISCO MOTA;S/N;COSTA E SILVA;(84)3123492;59625900.0;RN;Mossoró;2016;5;-5.198713;-37.3198159;Av. Francisco Mota - Pres. Costa e Silva, Mossoró - RN, Brazil
13384;20038;2757419;-7.48264791987131;-36.133404750711;UBSF CENTRO;RUA NOSSA SENHORA DO DESTERRO;S/N;CENTRO;(83)33911299;58450000.0;PB;Boqueirão;2016;5;-7.482656500000001;-36.1316193;Av. Nossa Sra. do Desterro, Boqueirão - PB, 58450-000, Brazil
13387;20189;2366908;-9.834569905516119;-45.3469199782092;UBS DE GILBUES;RUA ANISIO DE ABREU;S/N;CENTRO;(86)35781327;64930000.0;PI;Gilbués;2016;5;-9.8311234;-45.3412996;R. Anisio de Abreu, Gilbués - PI, 64930-000, Brazil
13388;20075;2814498;-6.75205349922161;-38.2438802719105;ESF XXI ANDRE GADELHA;CONJ ANDRE GADELHA;S/N;ANDRE GADELHA;(83)5222684;58800300.0;PB;Sousa;2016;5;-6.756593499999999;-38.2137328;Andre Gadelha, Sousa - PB, Brazil
13392;20428;2502895;-10.4259288311002;-36.5618991851796;USF POV SERRAO;POVOADO SERRAO;S/N;POVOADO SERRAO;(79) 33455310;49990000.0;SE;Ilha das Flores;2016;5;-10.4260489;-36.5619644;R. Boa Vista, 207, Ilha das Flores - SE, 49990-000, Brazil
13394;20789;2531844;-4.09913420677173;-45.278048515318496;UNIDADE DE SAUDE DE FAMILIA DE TIMORANTE;POV TOMORANTE;S/N;TIMORANTE;(98);65709000.0;MA;Satubinha;2016;5;-3.8456812;-45.2659179;Satubinha, MA, 65707-000, Brazil
13396;20427;2420511;-10.9153009698622;-37.666353409722;C S RAIMUNDA REIS;POVOADO BRASILIA;S/N;ZONA RURAL;7936319621;49400000.0;SE;Lagarto;2016;5;-10.8979274;-37.55182610000001;SE-160, 475 - Povoado Brasília, Lagarto - SE, 49400-000, Brazil
13404;20676;2482932;-11.172076463699;-41.4294004440296;UBSF AUGUSTO PEREIRA DA CRUZ;POV DE MATA DO MILHO;S/N;POV M MILHO;(74)6681072;44920000.0;BA;João Dourado;2016;5;-11.3482351;-41.6621905;Praça João Dourado, João Dourado - BA, 44920-000, Brazil
13406;20668;2470470;-14.789039548603;-39.2731089520081;USF SIMAO FITTERMAN;RUA CASTRO ALVES;S/N;SAO PEDRO;(73)6130181;45606180.0;BA;Itabuna;2016;5;-14.7893482;-39.2846135;R. Castro Alves - Santo Antônio, Itabuna - BA, Brazil
13407;20685;5656443;-12.407417354473901;-39.5006356828925;USF BOM JESUS DA LAPA;POVOADO PARANAGUA;S/N;ZONA RURAL;;44520000.0;BA;Rafael Jambeiro;2016;5;-25.5148758;-48.52262229999999;Paranaguá - State of Paraná, Brazil
13409;20684;2509709;-12.407417354473901;-39.5006356828925;USF DO PARAGUASSU;RUA CASTRO ALVES;S/N;ZONA RURAL;;44520000.0;BA;Rafael Jambeiro;2016;5;-12.4083728;-39.5009952;Rafael Jambeiro - State of Bahia, 44520-000, Brazil
13412;20654;2389568;-8.97547780401287;-39.1023700774151;USF PROCOPIO FERREIRA BARBALHO;POVOADO DE SAO JOSE;S/N;ZONA RURAL;;48660000.0;BA;Chorrochó;2016;5;-9.1533696;-39.1737034;São José, Chorrochó - BA, 48660-000, Brazil
13413;20650;6059619;-11.8241858482357;-41.59827232360721;UNIDADE DE SAUDE DA FAMILIA FRAN ROSA DA SILVA MAE DONA;RUA REINALDO ALVES DA SILVA;S/N;DISTRITO DE CANAL;(74) 3646-1200;44880000.0;BA;Cafarnaum;2016;5;-11.824513;-41.5981681;Cafarnaum - State of Bahia, Brazil
13418;20647;3358011;-12.619879426893403;-39.1961392778533;POSTO DE SAUDE DE APORA;POVOADO DE APORA;S/N;ZONA RURAL;(75)681130;44345000.0;BA;Cabaceiras do Paraguaçu;2016;5;-11.7082543;-38.2110938;Aporá - State of Bahia, Brazil
13419;20723;2425831;-7.23250150680521;-39.3511390686024;UBS SAO JOSE I;RUA ZECA ESMERALDO;S/N;SAO JOSE;88 35717902;63010000.0;CE;Juazeiro do Norte;2016;5;-7.2365216;-39.350596;R. Zeca Esmeraldo - São José, Juazeiro do Norte - CE, Brazil
13421;20717;2726092;-3.6835199999999997;-39.585879999999996;PSF DE PARQUE CARNAUBINHA;RUA TABELIAO CLOVIS DE BRITO FIRMEZA;S/N;ESMERINO GOMES;;62600000.0;CE;Itapagé;2016;5;-3.6769738;-39.5827454;Av. Clóvis Brito Firmeza, Itapagé - CE, 62600-000, Brazil
13422;20601;4027841;-13.530698630843;-39.9702551831643;USF LOURIVAL ROSA DE SENA;RUA NILTON FREIRE DE ASSIS;S/N;MALVINA I;(73) 5342578;45345000.0;BA;Jaguaquara;2016;5;-13.5281974;-39.9695429;Jaguaquara, State of Bahia, 45345-000, Brazil
13423;20657;4024494;-11.0678136348721;-38.5507678985584;UNIDADE BASICA DE SAUDE DA FAMILIA ITAPICURU;FAZENDA ITAPICURU;S/N;ZONA RURAL;(75)3435-1698;48450000.0;BA;Cipó;2016;5;-11.3092733;-38.2265765;Itapicuru, State of Bahia, 48475-000, Brazil
13426;20775;2456311;-5.2890264987944;-47.551639080046215;UBS VILA CONCEICAO;RUA 17 DE JULHO;34;VILA CONCEICAO;;65901550.0;MA;Imperatriz;2016;5;-5.289826;-47.5523925;Vila Conceição, 34, Imperatriz - MA, 65907-230, Brazil
13427;20679;2493675;-11.7083895206448;-40.057783126829904;POSTO DE SAUDE FRANCISCO AUGUSTO NETO DISTRITO DE BONSUCESSO;POVOADO DE BONSUCESSO;S/N;POV BONSUCESSO;(74)36322104;44630000.0;BA;Mairi;2016;5;-11.7147456;-40.1495289;Mairi, State of Bahia, 44630-000, Brazil
13431;20666;3902528;-14.7606790065761;-40.0941324233997;UNIDADE DE SAUDE DA FAMILIA DR ALMIR FERREIRA;RUA EZEQUIEL BATISTA;S/N;CENTRO;;45280000.0;BA;Iguaí;2016;5;-14.7594005;-40.0910691;R. Ezequiel Batista, Iguaí - BA, 45280-000, Brazil
13434;20772;2465078;-3.4638047218321697;-45.6743931770311;UBS DO POVOADO LONDRINA;POVOADO LONDRINA;S/N;POV LONDRINA;(98)6561073;65363000.0;MA;Governador Newton Bello;2016;5;-23.3044524;-51.1695824;Londrina, State of Paraná, Brazil
13443;20621;2008645;-9.34164047241184;-37.8937554359425;POSTO DE SAUDE DE TINGUI;POVOADO TINGUI;S/N;ZONA RURAL;;57490000.0;AL;Água Branca;2016;5;-9.342746199999999;-37.89103739999999;Unnamed Road, 57490-000, Água Branca - AL, Brazil
13446;20715;2499185;-6.788361260213269;-38.7159037441224;PSF SEDE 1;CEL RAIMUNDO HOLANDA;S/N;CENTRO;7361088;63340000.0;CE;Ipaumirim;2016;5;-6.791958699999999;-38.7164597;R. Antônio Raimundo Holanda, Ipaumirim - CE, 63340-000, Brazil
13447;20759;2453738;-4.8398423194883895;-42.9965615272509;UBS NAZARE DO BRUNO;NAZARE DO BRUNO;123;ZONA RURAL;(98)5213223;65600020.0;MA;Caxias;2016;5;-4.8332747;-42.9978492;Nazaré do Bruno, Caxias - MA, Brazil
13450;20782;6226361;-3.00471782684317;-44.9853229522692;UBS DE SOROCABA;AVENIDA GAMELEIRA;S/N;SANTA CLARA;09833592082;65223000.0;MA;Olinda Nova do Maranhão;2016;5;-3.0005837;-44.9908476;Av. Gameleira, Olinda Nova do Maranhão - MA, 65223-000, Brazil
13451;20729;2726467;-4.17054051;-38.4670222648935;UNIDADE BASICA DE SAUDE DA FAMILIA DA LAGOA SECA;RUA LAGOA SECA;S/N;LAGOA SECA;3481880;62870000.0;CE;Pacajus;2016;5;-4.1769934;-38.4868188;2746 - R. Tab. José Gama Filho, 2612, Pacajus - CE, 62870-000, Brazil
13453;20755;2390515;-5.35460114479049;-46.643872261046;CS ADELSON RIBEIRO DE CARVALHO EQUIPE JENIPAPO PEQUI;RUA HUMBERTO DE CAMPOS;S/N;CENTRO;( );65923000.0;MA;Amarante do Maranhão;2016;5;-5.5698457;-46.7447792;R. Humberto de Campos, Amarante do Maranhão - MA, 65923-000, Brazil
13455;20707;2415097;-7.244442701339508;-39.4113492965687;CENTRO DE NUTRICAO DE CRATO;RUA IMPERADOR D PEDRO I;01;MUTIRAO;(88)5215368;63100970.0;CE;Crato;2016;5;-7.244612500000001;-39.4112195;R. Imperador Dom Pedro I, 1 - Alto da Penha, Crato - CE, 63104-260, Brazil
13457;20664;5385210;-3.78555178642262;-41.913485527037395;PS FRANCISCO MACHADO DE SAMPAIO;ZONA RURAL;S/N;MOCAMBINHO;( );64245000.0;PI;São José do Divino;2016;5;-3.8108612;-41.832865;Av. Manoel Divino, s/n, São José do Divino - PI, 64245-000, Brazil
13459;20761;2460130;-4.2170979000000015;-44.789980799999995;CENTRO DE SAUDE SANTOS DUMONT;RUA 06 CASA;06;VILA SAO JOAO;(99)36211881;65700000.0;MA;Bacabal;2016;5;-4.2456774;-44.782264;R. Três, 1, Bacabal - MA, 65700-000, Brazil
13460;20714;2373181;-4.04024350050077;-38.634434780521296;UNID DE SAUDE DA FAM DE AGUA VERDE;AGUA VERDE;S/N;CENTRO;08533761009;61890000.0;CE;Guaiúba;2016;5;-4.1542129;-38.6810755;Água Verde, Guaiúba - CE, 61890-000, Brazil
13462;20673;3981088;-10.832053524846199;-39.4291308507325;UNIDADE DE SAUDE DA FAMILIA DA PICADA;POVOADO DE PICADA;S/N;ZONA RURAL PICADA;75 36502249;48870000.0;BA;Nordestina;2016;5;-10.8247619;-39.4297427;Nordestina, State of Bahia, 48870-000, Brazil
13476;20661;4023803;-13.0948609314705;-44.1789436340332;CENTRO DE SAUDE DA SEDE;RUA PARICIO DE QUEIROZ;S/N;CENTRO;;47730000.0;BA;Canápolis;2016;5;-13.072895;-44.2013359;Canápolis - State of Bahia, Brazil
13479;20698;7021;-12.885782718658099;-38.4311413764942;UBS NELSON PIAUHY DOURADO;RUA ENDEO NASCIMENTO;S/N;AGUAS CLARAS;(71) 36115313;41310380.0;BA;Salvador;2016;5;-12.8862986;-38.4310797;R. Éndeo Nascimento - Águas Claras, Salvador - BA, 41301-110, Brazil
13481;20784;2460688;-2.62851119041435;-44.8664474487292;P S LUIZ HONORIO FREITAS;POV INAMBU;S/N;INAMBU;(98)3881207;65245000.0;MA;Peri Mirim;2016;5;-2.57713;-44.8507812;Peri Mirim, MA, 65245-000, Brazil
13482;20678;2508133;-10.5003333091733;-37.85414457321061;UNIDADE DE SAUDE DA FAMILIA MARITA;POVOADO MARITA;S/N;ZONA RURAL;;48430000.0;BA;Paripiranga;2016;5;-10.500735;-37.8540116;Povoado Maritá, Paripiranga - BA, 48590-000, Brazil
13484;20670;3498204;-14.582022428512195;-42.086434364317604;UNIDADE DE SAUDE DA FAMILIA DA BANANEIRA;FAZENDA BANANEIRA;S/N;ZONA RURAL;(77) 34172169;46205000.0;BA;Guajeru;2016;5;-11.8951312;-40.77555840000001;Bananeira, Tapiramutá - BA, 44840-000, Brazil
13487;20791;2645750;-2.6067209243773704;-44.1852951049792;UNIDADE DE SAUDE DA FAMILIA OLIMPICA III JAILSON ALVES VIANA;AVENIDA 04;S/N;CIDADE OLIMPICA;(098) 3276-6039;65050000.0;MA;São Luís;2016;5;-2.5840895;-44.1849373;Av. Quatro - Cidade Operária, São Luís - MA, 65110-000, Brazil
13489;20795;2655888;-6.472953557967951;-44.2933988571154;UNIDADE BASICA DE SAUDE PESQUEIRO;POVOADO PESQUEIRO;1456;ZONA RURAL;;65860000.0;MA;Sucupira do Norte;2016;5;-6.483333;-44.333333;Pesqueiro, Sucupira do Norte - MA, 65860-000, Brazil
13490;20693;2520389;-12.428893228861;-39.253190203513796;USF HERALDO MOREIRA DE AZEVEDO;POVOADO DO SITIO ARAGAO;S/N;ZONA RURAL;( );44190000.0;BA;Santo Estêvão;2016;5;-12.4252075;-39.2651839;Av. Sítio Aragão, Santo Estêvão - BA, 44190-000, Brazil
13494;20779;6267807;-7.09445416538222;-45.139241637527284;CENTRO DE SAUDE LUIZINHA PIRES;PRACA BARAO;S/N;CENTRO;;65895000.0;MA;Loreto;2016;5;26.0117564;-111.3477531;Loreto, Baja California Sur, Mexico
13497;20771;3589196;-5.800727605819532;-47.363390922545;UNIDADE BASICA DE SAUDE DE RIBEIRAOZINHO DA ROCA;RUA PRINCIPAL;S/N;RIBEIRAOZINHO DA ROC;;65928000.0;MA;Governador Edison Lobão;2016;5;-5.748889;-47.360556;Governador Edison Lobão - State of Maranhão, 65928-000, Brazil
13504;20694;3023427;-12.42842;-39.2509;USF PAULA DA FONSECA ROCHA;POVOADO DA PAULISTA;S/N;ZONA RURAL;;44190000.0;BA;Santo Estêvão;2016;5;-12.4284443;-39.2509155;Santo Estêvão, State of Bahia, 44190-000, Brazil
13505;20660;2601222;-11.671675443649;-39.2008280754078;UNIDADE BASICA DE SAUDE DA FAMILIA DE AROEIRA;AVENIDA AGEMIRO RAMOS;S/N;DISTRITO AROEIRA;(74)32621818;48730000.0;BA;Conceição do Coité;2016;5;-11.5615951;-39.2821404;R. Argemiro Ramos - Centro, Conceição do Coité - BA, 48730-000, Brazil
13507;20797;2644622;-5.09649753570542;-42.9688811302173;POSTO DE SAUDE OITENTA E NOVE;BR 226 POVOADO OITENTA E NOVE;S/N;ZONA RURAL;;65630210.0;MA;Timon;2016;5;-5.3716628;-41.5009691;BR-226, Brazil
13508;20687;3815439;-11.489666983152599;-39.4241777923454;UNIDADE SAUDE DA FAMILIA ALTO DO CAMILO;RUA DA CAJAZEIRAS;S/N;CENTRO;0XX7532021299;48750000.0;BA;Retirolândia;2016;5;-6.8897071;-38.5612185;Cajazeiras, State of Paraíba, 58900-000, Brazil
13510;20699;2644983;-6.274019479751401;-39.5913147926319;POSTO DE SAUDE DE EBROM;VILA DE EBROM;S/N;ZONA RURAL;0000000;63560000.0;CE;Acopiara;2016;5;-6.2726777;-39.5858146;Ebron, Acopiara - CE, 63560-000, Brazil
13518;20711;2529084;-3.723805035;-38.589927555043204;UAPS REBOUCAS MACAMBIRA;RUA CREUZA ROCHA;S/N;JARDIM GUANABARA;(85)34526687;60346352.0;CE;Fortaleza;2016;5;-3.7212161;-38.59219969999999;R. Creusa Rocha - Jardim Guanabara, Fortaleza - CE, Brazil
13519;20796;2452049;-5.1620614528654505;-43.1887793540942;POSTO DE SAUDE BURITI CORTADO;LOCALIDADE BURITI CORTADO;S/N;ZONA RURAL;;65630210.0;MA;Timon;2016;5;-5.161284;-43.190265;Buriti Cortado, Timon - MA, Brazil
13520;20605;2008815;-10.186;-36.84;ESF BARRA DO ITIUBA;POVOADO BARRA DO ITIUBA;S/N;ZONA RURAL;35531131;57290000.0;AL;Porto Real do Colégio;2016;5;-10.6902297;-39.8556824;Itiúba, BA, 48850-000, Brazil
13521;20786;5755174;-3.5810000000000004;-42.608999999999995;UBSF DE RETIRO;POVOADO DE RETIRO;S/N;POVOADO;;65545000.0;MA;Milagres do Maranhão;2016;5;-3.5748054;-42.6134995;Milagres do Maranhão, MA, 65545-000, Brazil
13523;20735;2563975;-5.0969520001672;-38.36490734507311;POSTO DE SAUDE DE PEDRAS;RUA JOAO MONTEIRO;S/N;PEDRAS;4221449;62940000.0;CE;Morada Nova;2016;5;-5.1296248;-38.2408002;Rua João Monteiro, Morada Nova - CE, 62930-000, Brazil
13524;20785;2644576;-2.68208724479399;-44.92000579833979;U B S DE SAUDE DE SANTA EULALIA PSFSB;SANTA EULALIA;S/N;CENTRO;;65238000.0;MA;Palmeirândia;2016;5;38.9852753;1.5350964;Santa Eulària des Riu, Balearic Islands, Spain
13525;20629;6594565;-9.25788438518493;-38.0098260716315;UNIDADE BASICA DE SAUDE MARCACAO;POVOADO MARCACAO;S/N;CENTRO;;57475000.0;AL;Pariconha;2016;5;-9.666667;-37.516667;Marcação, Pão de Açúcar - AL, 57400-000, Brazil
13526;20705;2415402;-7.23175278993044;-39.4083902977886;POSTO DE SAUDE RIACHO VERMELHO;SITIO RIACHO VERMELHO;S/N;DIST SANTA FE;(88)5233376;63100970.0;CE;Crato;2016;5;-6.2485307;-39.2957541;Riacho Vermelho, Quixelô - CE, 63500-000, Brazil
13528;20726;2563894;-5.0969520001672;-38.36490734507311;POSTO DE SAUDE DE BOA AGUA;VILA BOA AGUA;S/N;BOA AGUA;4221198;62940000.0;CE;Morada Nova;2016;5;-4.845407199999999;-38.5224086;Boa Água, Morada Nova - CE, 62940-000, Brazil
13529;20659;2400871;-8.989032117973537;-39.908081018943;UNIDADE DE SAUDE DA FAMILIA DE RIACHO SECO;DISTRITO DE RIACHO SECO;S/N;ZONA RURAL;(74) 3531-1423;48930000.0;BA;Curaçá;2016;5;-8.7773781;-39.6690685;Riacho Seco, Curaçá - BA, 48930-000, Brazil
13534;20776;2456141;-5.3194856643675195;-47.654485702513284;UBS COQUELANDIA;AVENIDA JOAO XXIII;S/N;COQUELANDIA;99 3528-8064;65901550.0;MA;Imperatriz;2016;5;-5.484330099999999;-47.4476311;R. João XXIII - Vila Machado, Imperatriz - MA, Brazil
13539;20691;4758;-12.9008460044857;-38.428394794463;UBS DRA CECY DE ANDRADE;RUA GENARO DE CARVALHO;S/N;CASTELO BRANCO;(71) 3611-5214;41320100.0;BA;Salvador;2016;5;-12.9079875;-38.44491439999999;R. Genaro de Carvalho - Castelo Branco, Salvador - BA, 41301-110, Brazil
13542;20417;2623;-10.9055614471432;-37.096881866454;US WALTER CARDOSO VENEZA;RUA B;372;VENEZA;31793210;49092520.0;SE;Aracaju;2016;5;45.4408474;12.3155151;Venice, Metropolitan City of Venice, Italy
13545;20722;2563789;-5.424209833144982;-38.539695739745;POSTO DE SAUDE DO DESTERRO;SITIO DESTERRO;S/N;ZONA RURAL;(88)35761895;63480000.0;CE;Jaguaretama;2016;5;-5.6120277;-38.7650383;Jaguaretama - State of Ceará, 63480-000, Brazil
13546;20712;2327503;-3.8913595676421;-40.884375572203396;POSTO DE SAUDE DE COCAL;SITIO COCAL;S/N;COCAL;;62360000.0;CE;Ibiapina;2016;5;-3.920981599999999;-40.88915540000001;Ibiapina - State of Ceará, Brazil
13549;20656;2598175;-11.09174;-38.51485;UNIDADE BASICA DE SAUDE DA FAMILIA NOVA CIPO;RUA MANAUS;S/N;NOVA CIPO;(75) 3435-1698;48450000.0;BA;Cipó;2016;5;-3.1190275;-60.0217314;Manaus, State of Amazonas, Brazil
13552;20582;2592142;-6.776880025863451;-37.703640460966895;USF VIII CACHOEIRA;VILA DE CACHOEIRA;S/N;ZONA RURAL;( );58840000.0;PB;Pombal;2016;5;-6.7708458;-37.7973839;Pombal, State of Paraíba, 58840-000, Brazil
13558;20421;2477653;-10.3465099141957;-36.80075646436129;UNIDADE DE SAUDE DA FAMILIA DE ESPINHEIRO;POV ESPINHEIRO RUA JOSE V BRANDAO;S/N;CENTRO;(79) 3348-1069;49950000.0;SE;Japoatã;2016;5;-10.3461483;-36.7989024;Japoatã - State of Sergipe, Brazil
13559;20681;2533502;-9.40333169737823;-38.2183289682262;USF IRMA RITA;AVENIDA BOTAFOGO;S/N;CENTENARIO;(75)2825140;48605590.0;BA;Paulo Afonso;2016;5;-9.37905;-38.2276212;Rua Botafogo - Centenario, Paulo Afonso - BA, Brazil
13563;20788;2465663;-3.40899109840383;-42.5589752197253;UBSF DE LADEIRA;LADEIRA;S/N;LADEIRA;(98) 4761278;65540000.0;MA;Santa Quitéria do Maranhão;2016;5;-3.766667;-43.25;Ladeira, Chapadinha - MA, 65500-000, Brazil
13564;20613;5013828;-3.79854;-40.262029999999996;UNIDADE BASICA DE SAUDE CAMPO NOVO;LOCALIDADE CAMPO NOVO;S/N;ZONA RURAL;88 36191223;62115000.0;CE;Forquilha;2016;5;-3.816667;-40.23333299999999;Campo Novo, Forquilha - CE, 62115-000, Brazil
13574;20680;2533227;-9.40333169737823;-38.2183289682262;USF PADRE LOURENCO;RUA PADRE LOURENCO;S/N;TANCREDO NEVES;(75)2825140;48609140.0;BA;Paulo Afonso;2016;5;-9.4397593;-38.2122854;R. Padre Lourenço - Tancredo Neves II, Paulo Afonso - BA, Brazil
13576;20731;2327279;-3.8691294193266703;-40.9174203872669;UNIDADE BASICA DE SAUDE SEBASTIAO GOMES PARENTE;RUA RAIMUNDO DE BARROS;S/N;SAO SEBASTIAO;;62350000.0;CE;Ubajara;2016;5;-23.8063468;-45.4016534;São Sebastião, State of São Paulo, Brazil
13577;20653;5585724;-15.4176268518309;-39.496367331491705;PSF NARCISO ARAUJO;RUA PAULO JAQUISSON;0000;JOANA ANGELICA;7332833807;45880000.0;BA;Camacan;2016;5;-15.4153748;-39.4891035;Rua Joana Angelica, Camacan - BA, 45880-000, Brazil
13578;20649;2386836;-12.536215782165199;-39.191064834593604;CENTRO DE SAUDE ANTONIO MARTINS;AV NAVIO NEGREIRO;S/N;CENTRO;(75)36811130;44345000.0;BA;Cabaceiras do Paraguaçu;2016;5;-12.5394761;-39.1890378;Av. Navio Negreiros, 574, Cabaceiras do Paraguaçu - BA, 44345-000, Brazil
13579;20682;2508249;-9.40333169737823;-38.2183289682262;USF VARZEA;ZONA RURAL;01;POVOADO VARZEA;(75)2817440;48603040.0;BA;Paulo Afonso;2016;5;-9.550922199999999;-38.4418434;Paulo Afonso - State of Bahia, Brazil
13580;20768;2453797;-4.856128692626809;-43.354647159575215;UBS PIQUIZEIRO;RUA NOSSA SENHORA DE FATIMA;210;PIQUIZEIRO;(98)5214633;65606440.0;MA;Caxias;2016;5;-4.8576587;-43.3592089;R. Nossa Sra. de Fátima, 210 - Piquizeiro, Caxias - MA, 65602-060, Brazil
13582;20792;2457148;-6.498938798904232;-43.6971545219409;POSTO DE SAUDE DO BARRO BRANCO;POVOADO BARRO BRANCO;S/N;BARRO BRANCO;(98)5512115;65665000.0;MA;São João dos Patos;2016;5;-6.4937974;-43.7040121;São João dos Patos, State of Maranhão, 65665-000, Brazil
13584;20535;3026566;-6.61512;-35.29104;UNIDADE DE SAUDE DA FAMILIA MARIA JOSE FERNANDES DA SILVA;SITIO FORMOSA;S/N;ZONA RURAL;(83)32951888;58278000.0;PB;Jacaraú;2016;5;-6.6125134;-35.2921523;Jacaraú - State of Paraíba, Brazil
13586;20677;6587232;-11.3583061402444;-38.3310801960897;UNIDADE DE SAUDE DA FAMILIA CRUZEIRO;RUA FELIPE GOES DE SANTANA;S/N;CRUZEIRO;;48470000.0;BA;Olindina;2016;5;-11.4040468;-38.3587174;Olindina - State of Bahia, Brazil
13587;20662;2601206;-11.549699306487696;-39.3922519683826;UNIDADE BASICA DE SAUDE DA FAMILIA DE SAO JOAO;RUA HAMILTON RIOS DE ARAUJO;S/N;DISTRITO SAO JOAO;7532621523;48730000.0;BA;Conceição do Coité;2016;5;-11.5588691;-39.2886118;R. Almir Nei de Araújo, s/n - Centro, Conceição do Coité - BA, 48730-000, Brazil
13589;20764;2457296;-5.84607839584334;-43.83293867111079;UNIDADE BASICA DE SAUDE VICENTE PRETO;RUA ZUZA COELHO;01;JOSE HENRIQUE;(98)35721211;65685000.0;MA;Buriti Bravo;2016;5;-5.8450991;-43.83253699999999;R. Zuza Coelho, 1, Buriti Bravo - MA, 65685-000, Brazil
13590;20688;4030389;-11.7462475299556;-44.9164697719097;POSTO DE SAUDE DE SAO JOSE DO RIO GRANDE;RUA CASTRO ALVES;S/N;CENTRO;(77)36242245;47970000.0;BA;Riachão das Neves;2016;5;-11.746915;-44.91017189999999;Riachão das Neves - State of Bahia, 47970-000, Brazil
13591;20667;6105610;-14.1374736712628;-39.7356541802101;UNIDADE DE SAUDE DA FAMILIA WALDOMIRO BARRETO;RUA DO CONTORNO;S/N;CENTRO;73 35312351;45570000.0;BA;Ipiaú;2016;5;-14.1353416;-39.7335356;Av. do Contôrno, Ipiaú - BA, 45570-000, Brazil
13593;20724;2527456;-7.387397999999999;-38.772795438031004;ESF SAO MIGUEL;RUA SALUSTRIANO RODRIGUES;S/N;DISTRITO SAO MIGUEL;35521411;63210000.0;CE;Mauriti;2016;5;-7.336339199999999;-38.6660082;R. Salustiano Rodrigues, Mauriti - CE, 63210-000, Brazil
13597;20646;2305070;-11.396116018295;-41.53595924377321;POSTO DE SAUDE ELVIRA BORGES OLIVEIRA;LAGOA DOS BORGES;S/N;POVOADO;;44910000.0;BA;América Dourada;2016;5;-11.4537072;-41.4370659;América Dourada, State of Bahia, 44910-000, Brazil
13602;20609;6340490;-8.66285686583942;-36.3214966175308;USF OLHO D AGUA DOS POMBOS;POVOADO OLHO D AGUA DOS POMBOS;S/N;ESPACO RURAL;;55385000.0;PE;Lajedo;2016;5;-8.1475219;-35.4053008;Pombos - State of Pernambuco, Brazil
13609;20799;5682886;-3.19336295127859;-45.0225520133959;UNIDADE DA ESF DA VILA ZIZI;VILA ZIZI;S/N;VILA ZIZI;;65215000.0;MA;Viana;2016;5;-3.193293;-45.02215340000001;Vila Zizi, Viana - MA, 65215-000, Brazil
13617;20765;2603896;-1.45566701889034;-45.7280802726732;CENTRO DE SAUDE DE CANDIDO MENDES PSFSB;RUA LUIS DOMINGUES;S/N;CENTRO;(98)33961913;65280000.0;MA;Cândido Mendes;2016;5;-1.452503;-45.7283653;R. Luis Domingues, Cândido Mendes - MA, 65280-000, Brazil
13620;20585;2608669;-7.3764699999999985;-35.23752;UNIDADE BASICA DE SAUDE MARIA LUZAMIRIA DINIZ LIMA;RUA ALAGOAS;S/N;CENTRO;(83)2891175;58330000.0;PB;Juripiranga;2016;5;-7.373586899999999;-35.235295;R. Alagoas, Juripiranga - PB, 58330-000, Brazil
13622;20762;2306646;-2.93287754058829;-44.2968749999987;UBS FRANCISCA MARIA CANTANHEDE;RUA JOSE RUFINO;S/N;POVOADO VIDEL;(98)33461079;65143000.0;MA;Bacabeira;2016;5;-2.9780939;-44.3165822;Bacabeira, MA, 65143-000, Brazil
13628;20460;6977790;-10.003;-42.504;UNIDADE DE SAUDE DA FAMILIA ZE DO PEIXE;POVOADO DE PASSAGEM;01;ZONA RURAL;07435342035;47240000.0;BA;Pilão Arcado;2016;5;-10.0613656;-42.4553353;Passagem, Pilão Arcado - BA, 47240-000, Brazil
13629;20756;2310635;-5.484066009521331;-46.81832313537461;UBS DIODATO ANTONIO DE HOLANDA;RUA SAO VICENTE DE PAULA;S/N;POVOADO GROTAO;( );65923000.0;MA;Amarante do Maranhão;2016;5;-5.486727;-46.813939;Grotão, Amarante do Maranhão - MA, 65923-000, Brazil
13633;20704;2482037;-4.30217091397851;-38.5012856666586;UNIDADE BASICA DE SAUDE PATOS DOS LIBERATOS;RUA RITA JACINTO;S/N;PATOS DOS LIBERATOS;;62875000.0;CE;Chorozinho;2016;5;-4.326574;-38.5295164;Patos dos Liberatos, Chorozinho - CE, 62875-000, Brazil
13639;20773;5280729;-5.81114421094432;-46.128013671875;LABORATORIO ITAMAR GUARA;RUA DAS VERBENIAS;S/N;CANOEIRO;;65940000.0;MA;Grajaú;2016;5;-5.8167284;-46.1585516;R. das Verbenas - Bairro Canoeiro, Grajaú - MA, 65940-000, Brazil
13642;20770;2310880;-6.56808498021471;-47.447882986137714;CENTRO MUNICIPAL DE SAUDE DE ESTREITO;RUA JOAO GOMES BANDEIRA;S/N;CENTRO;;65975000.0;MA;Estreito;2016;5;-6.555314399999999;-47.4526946;R. João Gomes Bandeira, Estreito - MA, 65907-230, Brazil
13647;20633;2720833;-10.1292988371728;-36.653345012518;ESF 04 CENTRO DE SAUDE CHINARE;POVOADO CHINARE;S/N;ZONA RURAL;(82) 5541264;57280000.0;AL;Igreja Nova;2016;5;-10.2622387;-36.6690598;Chinare, Igreja Nova - AL, 57280-000, Brazil
13648;20420;2745291;-10.42636;-36.8468;UNIDADE DE SAUDE DA FAMILIA JOSE RODRIGUES DOS SANTOS;POV PROJETO LADEIRINHAS A;S/N;RURAL;(79) 3348-1069;49950000.0;SE;Japoatã;2016;5;-10.4587062;-36.7606468;Japoatã - State of Sergipe, 49950-000, Brazil
13649;20760;2460041;-4.20240194794507;-44.7535641479492;CENTRO DE SAUDE BOM PRINCIPIO;POVOADO BOM PRINCIPIO;S/N;BOM PRINCIPIO;(99)36211881;65700000.0;MA;Bacabal;2016;5;-29.492613;-51.3549766;Bom Principio, Bom Princípio - RS, 95765-000, Brazil
13650;20669;2424096;-11.3109527005757;-38.218612375549;U S F VARZINHA;POVOADO VARZINHA;S/N;POVOADO;;48475000.0;BA;Itapicuru;2016;5;-11.1542165;-38.3698719;Unnamed Road, 48475-000, Itapicuru - BA, Brazil
13653;20625;2004429;-9.638487270779919;-36.5796842002284;UNIDADE DE SAUDE DA FAMILIA DE ALAGOINHA COITE DO NOIA;SITIO ALAGOINHA;S/N;ZONA RURAL;;57325000.0;AL;Coité do Nóia;2016;5;-8.465577;-36.7750052;Alagoinha - State of Pernambuco, Brazil
13655;20675;2506556;-11.277315616607304;-38.3708024024952;UNIDADE DE SAUDE DA FAMILIA CARRAPATINHO;POVOADO CARRAPATINHO;S/N;POVOADO;( );48470000.0;BA;Olindina;2016;5;-11.2830074;-38.3665814;Carrapatinho, Olindina - BA, 48470-000, Brazil
13656;20663;6220762;-13.422347795301599;-42.1361637333109;UNIDADE DE SAUDE DA FAMILIA DO RIO DA CAIXA;POVOADO DE RIO DA CAIXA;S/N;ZONA RURAL;77 36772251;46180000.0;BA;Érico Cardoso;2016;5;-13.3496214;-41.99154009999999;Rio da Caixa, Érico Cardoso - BA, 46180-000, Brazil
13657;20781;2644207;-3.4550714492796804;-45.153636932371704;UNIDADE BASICA SAUDE DA FAMILIA DE BARRADAS;RUA PRINCIPAL;S/N;POVOADO MATA BOI;;65360000.0;MA;Monção;2016;5;-3.45;-45.2;Mata do Boi, Monção - MA, 65360-000, Brazil
13658;20727;3425908;-5.7385699999999975;-39.622370000000004;UNIDADE BASICA DE SAUDE DA FAMILIA RECREIO;AV JOSE SA AZEVEDO;S/N;RECREIO;;63610000.0;CE;Mombaça;2016;5;-5.7410682;-39.6234613;Tv. José Sá de Azevedo, Mombaça - CE, 63610-000, Brazil
13661;20626;2007541;-9.496039152145109;-36.7629575729359;UNIDADE DE SAUDE DA FAMILIA SANTO ANTONIO;POVOADO SANTO ANTONIO;S/N;ZONA RURAL;;57620000.0;AL;Igaci;2016;5;-9.4958701;-36.7628922;povoado santo antonio s/n zona rural, Igaci - AL, 57620-000, Brazil
13662;20720;2425777;-7.2107660000000005;-39.316993355614294;UBS PIO XII I E II;AV CARLOS CRUZ;S/N;PIO XII;;63020230.0;CE;Juazeiro do Norte;2016;5;-7.2026371;-39.3005058;Av. Carlos Cruz, Juazeiro do Norte - CE, Brazil
13664;20725;2563940;-4.579453468322621;-38.365352153776996;POSTO DE SAUDE DE ARUARU;RUA ANGELO SILVA;S/N;ARUARU;3480262;62940000.0;CE;Morada Nova;2016;5;-4.578646600000001;-38.3684888;Travessa Ângelo da Silva, Morada Nova - CE, 62940-000, Brazil
13665;20645;3029522;-11.666089999999999;-38.018390000000004;UNIDADE DE SAUDE DA FAMILIA DE MARAMBAIA;AVENIDA MARAMBAIA;31;CENTRO;(75)34342350;48360000.0;BA;Acajutiba;2016;5;-11.6611705;-38.0327424;R. Marambaia, 31, Acajutiba - BA, 48360-000, Brazil
13666;20630;6886205;-12.045167684554697;-44.26533222198361;UNIDADE DE SAUDE DA FAMILIA JOSE BARBOSA DE OLIVEIRA;VILA SANTANA;S/N;VILA;;47900000.0;BA;Cotegipe;2016;5;-12.0417048;-44.264756;R. da Vila Santana, Cotegipe - BA, 47900-000, Brazil
13667;20415;2422654;-10.2925180922231;-37.0221808560785;USF MARIA HILDA FERREIRA;RODOVIA GOVERNADOR VALADARES;S/N;JOAO ALVES;;49790000.0;SE;Aquidabã;2016;5;-18.8547986;-41.9589601;Governador Valadares, State of Minas Gerais, Brazil
13668;20674;2506505;-11.506161491584301;-38.2984315978971;UNIDADE DE SAUDE DA FAMILIA DONA MARIA;POVOADO DONA MARIA;S/N;POVOADO;;48470000.0;BA;Olindina;2016;5;-11.4988034;-38.2939561;Olindina - State of Bahia, 48470-000, Brazil
13669;20655;2600668;-11.668499708175302;-39.274492263792794;UNIDADE BASICA DE SAUDE DA FAMILIA WALDEMAR CARNEIRO;RUA DO CRUZEIRO;S/N;POV JUAZEIRO;(75)2621818;48730000.0;BA;Conceição do Coité;2016;5;-9.431282999999999;-40.5078776;Juazeiro - State of Bahia, Brazil
13675;20713;2480255;-4.95523095130906;-40.8207106590259;POSTO DE SAUDE DE CAJAS DOS JORGES;DISTRITO CAJAS DOS JORGES;S/N;CENTRO;8111217;62215000.0;CE;Ipaporanga;2016;5;-4.949987399999999;-40.820957;Cajás dos Jorges, Sítio Araras Ipaporanga - CE, 62215-000, Brazil
13678;20766;2636816;-7.8222283302116;-35.4085922241211;UBS CARAUBA TORTA;POVOADO CARAUBA;1;SITIO;;55816410.0;PE;Carpina;2016;5;-7.845017799999999;-35.243718;Carpina - State of Pernambuco, Brazil
13682;20783;3631613;-6.0034811496732905;-43.830621242521886;UNIDADE BASICA DE SAUDE NAZARE;UNIDADE BASICA DE NAZARE;1;ZONA RURAL;;65680000.0;MA;Passagem Franca;2016;5;-6.033333000000001;-43.883333;Nazaré, Passagem Franca - MA, 65680-000, Brazil
13689;20730;2424355;-3.68803768376442;-40.34866803365821;CSF TERRENOS NOVOS 1;RUA RAIMUNDO ALVES;S/N;TERRENOS NOVOS;(88) 3614 2041;62031150.0;CE;Sobral;2016;5;-3.6736971;-40.3722638;R. Raimundo Alves - Terrenos Novos, Sobral - CE, 62030-610, Brazil
13691;20652;2508354;-11.9571161270138;-38.3780980110157;UNIDADE DE SAUDE DA FAMILIA RIACHO DA GUIA;RUA SAGRADA FAMILIA;S/N;RIACHO DA GUIA;;48105000.0;BA;Alagoinhas;2016;5;-11.9536827;-38.3829947;Riacho da Guia, Alagoinhas - BA, Brazil
13695;20689;6416;-12.9513144493099;-38.439531326292794;UBS ARENOSO;RUA DO COMERCIO;100;ARENOSO;(71) 3611-7301;41211405.0;BA;Salvador;2016;5;-12.9512451;-38.4395346;Rua Do Comercio, 100 - Arenoso, Salvador - BA, 41211-405, Brazil
13698;20716;2562006;-3.685673109841991;-39.5835332386222;POSTO DE SAUDE DE IRATINGA;DISTRITO DE IRATINGA;S/N;CENTRO;3640313;62600000.0;CE;Itapagé;2016;5;-3.7354963;-39.5478625;Iratinga, Itapagé - CE, 62600-000, Brazil
13701;20778;6513417;-5.14303922653183;-47.1341371536241;POSTO DE SAUDE FRANCISCO TOME;POVOADO DO MUSSAMBE;100;Z RURAL;99 3535 2544;65922000.0;MA;João Lisboa;2016;5;-5.1444079;-47.1325578;Mussambê, João Lisboa - MA, Brazil
13705;20615;2420910;-11.040015220641804;-37.8560757637013;PS POVOADO BOMFIM;POVOADO BOMFIM;00;POVOADO BOMFIM;(79)6431248;49320000.0;SE;Riachão do Dantas;2016;5;-11.0388498;-37.8593129;Bonfim, Riachão do Dantas - SE, 49320-000, Brazil
13707;20793;6397549;-7.10611581802348;-45.6455326080309;UNIDADE BASICA DE SAUDE MARIA JOSE FERREIRA;POVOADO MORRO DO CHUPE;S/N;ZONA RURAL;;65840000.0;MA;São Raimundo das Mangabeiras;2016;5;-7.0222336;-45.48128370000001;São Raimundo das Mangabeiras, State of Maranhão, 65840-000, Brazil
13709;20665;2400936;-8.989032117973537;-39.908081018943;UNIDADE DE SAUDE DA FAMILIA DE PEDRA BRANCA;DISTRITO DE PEDRA BRANCA;S/N;ZONA RURAL;(74) 3531-1423;48930000.0;BA;Curaçá;2016;5;-8.5689123;-39.4545533;Pedra Branca, Curaçá - BA, 48930-000, Brazil
13717;20777;6472524;-5.12845873832688;-45.61879634857039;UBS CALUMBI;RUA PRINCIPAL;S/N;POVOADO CALUMBI;;65948000.0;MA;Itaipava do Grajaú;2016;5;-5.1561245;-45.6097504;Calumbi, Itaipava do Grajaú - MA, 65948-000, Brazil
13728;20671;2510197;-9.41071709622786;-40.503552159443394;USF CENTRO DE SAUDE III;CARNELA DUTRA;S/N;ANGARI;(74)6114600;48903726.0;BA;Juazeiro;2016;5;-9.411595199999999;-40.4992301;Av. Carmela Dutra, 21 - Centro, Juazeiro - BA, 48905-010, Brazil
13730;20763;6198465;-8.521742820739501;-46.7363333702074;U S F VENEZA;AVENIDA 02;S/N;VENEZA II;99 3542 1210;65800000.0;MA;Balsas;2016;5;45.4408474;12.3155151;Venice, Metropolitan City of Venice, Italy
13731;20780;2464764;-3.8182747364043097;-44.5724773406969;UNIDADE BASICA DE SAUDE COIVARAS PSF;POVOADO COIVARAS;S/N;ZONA RURAL;;65468000.0;MA;Matões do Norte;2016;5;-5.1002147;-42.2756861;Coivaras - State of Piauí, Brazil
13733;20692;3023257;-12.42842;-39.2509;USF ANTONIETA COPELLO DE CERQUIRA;LOTEAMENTO ALTO DO PORRAO;S/N;CENTRO;;44190000.0;BA;Santo Estêvão;2016;5;-12.4284443;-39.2509155;Santo Estêvão, State of Bahia, 44190-000, Brazil
13734;20623;2721104;-10.009242296218599;-36.7349767684926;POSTO DE SAUDE POVOADO POCO DA LAGOA;POVOADO POCO DA LAGOA;81;ZONA RURAL;;57350000.0;AL;Campo Grande;2016;5;-9.9564553;-36.7941857;R. da Lagoa, 81, Campo Grande - AL, 57350-000, Brazil
13735;20702;2682761;-4.3623;-39.31902;POSTO DE SAUDE DA FAMILIA SEDECENTRO;RUA ANTONIO MARTINS;239;CENTRO;(85)3430323;62700000.0;CE;Canindé;2016;5;-4.3605203;-39.312648;R. Antônio Martins, 239 - Centro, Canindé - CE, 62700-000, Brazil
13737;21108;2477548;-10.5919146537778;-37.674479484557;UNIDADE DE SAUDE DA FAMILIA MARIA JOSE SOARES FIGUEIROA;POVOADO GRAVATA;S/N;ZONA RURAL;(79)34591240;49512000.0;SE;Pedra Mole;2016;5;-10.6138719;-37.692531;Pedra Mole, SE, 49512-000, Brazil
13739;20965;5378885;-8.28616976737952;-41.2066054344165;PS DA CARAIBEIRA;POVOADO CARAIBEIRA;S/N;ZONA RURAL;;64750000.0;PI;Paulistana;2016;5;-8.135989700000001;-41.1416603;Paulistana, PI, 64750-000, Brazil
13740;20948;3640310;-4.0204123357539;-42.075218732031004;PS ANAJAZINHO;ANAJAZINHO;S/N;ZONA RURAL;(86)33471278;64190000.0;PI;Batalha;2016;5;-4.02268;-42.0790543;Batalha, PI, 64190-000, Brazil
