index;gid;co_cnes;lat;long;no_fantasia;no_logradouro;nu_endereco;no_bairro;nu_telefone;co_cep;uf;cidade;ano_ubs_det;mes_ubs_det
6253;10579;6783236;-5.21652102470383;-42.5452852249133;PS TORQUATO MENDES;LOCALIDADE SARAIVA;S/N;ZONA RURAL;8632750022;64295000.0;PI;Pau D'Arco do Piauí;2016;5
6254;10632;2321009;-6.93022837139016;-37.09485738524009;UNIDADE DE SAUDE DA FAMILIA II RITA TAVARES DO NASCIMENTO;RUA EZEQUIEL BENIGNO DE MEDEIROS;S/N;CENTRO;(83)4621488;58625000.0;PB;São Mamede;2016;5
6255;10700;2564645;-4.30217091397851;-38.5012856666586;UNIDADE BASICA DE SAUDE TIMBAUBA;RUA ARTUR CHAGAS FILHO;S/N;TIMBAUBA DOS MARINHE;;62875000.0;CE;Chorozinho;2016;5
6257;10782;5519098;-5.791176102858679;-37.5537021978471;UNIDADE BASICA DE SAUDE SEBASTIAO FERREIRA DE OLIVEIRA;RUA CEZARIANA RODRIGUES;S/N;SAO SEVERINO;(84)33372796;59780000.0;RN;Caraúbas;2016;5
6258;10683;2626799;-11.682769060134499;-38.3172011375416;POSTO DE SAUDE DO ENTROCAMENTO D SATIRO DIAS;ENTROCAMENTO DE SATIRO DIAS;S/N;CENTRO;;48490000.0;BA;Inhambupe;2016;5
6260;10653;5982758;-2.83940792083732;-40.558819770811795;UBASF DE MANGUE SECO;MANGUE SECO;11;MANGUE SECO;;62598000.0;CE;Jijoca de Jericoacoara;2016;5
6261;10518;2493748;-14.341986179351402;-41.7696118354785;UNIDADE DE SAUDE DA FAMILIA DEOCLECIANO JOSE DOS SANTOS;PRACA DA SAUDADE;S/N;ZONA URBANO;;46110000.0;BA;Malhada de Pedras;2016;5
6263;10686;6630928;-10.505661554543801;-40.3188209870999;UNIDADE BASICA DE SAUDE DA FAMILIA LIMOEIRO;POVOADO DE LIMOEIRO;01;LIMOEIRO;;44790000.0;BA;Campo Formoso;2016;5
6264;10500;2653990;-5.82573;-35.2451;USF FELIPE CAMARAO II;RUA SANTA CLARA;S/N;FELIPE CAMARAO;32328315;59074550.0;RN;Natal;2016;5
6267;10711;2462257;-5.14381929799225;-44.295223449707;POSTO DE SAUDE PATIOBA;POV PATIOBA;S/N;PATIOBA;(99)35621923;65775000.0;MA;Gonçalves Dias;2016;5
6268;10764;2635259;-7.576;-40.49800000000001;ESF BOM JARDIM DO ARARIPE;BOM JARDIM DO ARARIPE;S/N;BOM JARDIM DO ARARIP;;56280000.0;PE;Araripina;2016;5
6270;10603;4028279;-11.7938232421872;-38.8810229301441;UNIDADE DE SAUDE LAMARAO;AV DO TRIUNFO;S/N;CENTRO;(75)36882113;48720000.0;BA;Lamarão;2016;5
6272;10626;3000575;-12.801350646024;-41.324641803998794;UNIDADE DE SAUDE DA FAMILIA ALBINO DESIDERIO BISPO;PRACA ALBINO DESIDERIO BISPO;S/N;POV NOVA VISTA;(75)3335-5039;46830000.0;BA;Andaraí;2016;5
6274;10493;2426862;-4.6069943904875394;-38.879435062407296;POSTO DE SAUDE DE ITANS;RUA JOAO DE OLIVEIRA POMBO;S/N;ITANS;;62740000.0;CE;Itapiúna;2016;5
6276;47806;5336090;-14.19731;-39.51269;USF WANDERLEY RAMOS DE SOUZA;1 TRAVESSA;S/N;GLORIA;7332451004;45550000.0;BA;Ubatã;2016;5
6278;10771;2719533;-9.83385;-35.97834;CENTRO DE SAUDE DE ROTEIRO ELADIO MARCELINO;LOTDRJOAO JATOBA;S/N;CENTRO;;57257000.0;AL;Roteiro;2016;5
6279;10428;3903494;-10.9480690956113;-39.26861286163221;UNIDADE DE SAUDE DA FAMILIA DO ASSENTAMENTO ALTO BONITO;ASENTAMENTO ALTO BONITO;S/N;ZONA RURAL;3274-1346;48840000.0;BA;Cansanção;2016;5
6281;10563;2609053;-7.1925698759973;-37.926519001178;USF FERNANDO VIEIRA DE MELO;RUA JOAO PEREIRA DA FONSECA;S/N;DA CADEIA;(83)4522212;58765000.0;PB;Piancó;2016;5
6283;10692;2462249;-5.14347735777981;-44.291446899414;UNIDADE BASICA DE SAUDE JAPAOZINHO;POVOADO JAPAOZINHO;S/N;JAPAOINHO;(99)35621923;65775000.0;MA;Gonçalves Dias;2016;5
6284;10666;2532859;-10.2628542593015;-40.193611466193204;PSF JOSELINA PIO DE FARIAS;POVOADO DE CATUNI;S/N;ZONA RURAL;( );48960000.0;BA;Jaguarari;2016;5
6285;10619;2341247;-6.394665241241269;-38.549244403838;UNIDADE BASICA DE SAUDE MANOEL ALEXANDRE DA SILVA;DISTRITO DE SAO JOAO BOSCO;S/N;DISTRITO;(83) 5621032;58933000.0;PB;Poço Dantas;2016;5
6296;10468;2508214;-14.4922757148738;-42.686069011687;USF SEDE;AVENIDA TIBERIO FAUSTO;238;CENTRO;(77)6672120;46360000.0;BA;Pindaí;2016;5
6300;10640;2493667;-11.759104728698402;-40.0857424736011;UNIDADE DE SAUDE DA FAMILIA ENESIA FERNANDES DOS SANTOS;POVOADO DE BOA PAZ;S/N;POVOADO DE BOA PAZ;(74)36322104;44630000.0;BA;Mairi;2016;5
6304;10558;2481545;-4.13730740547168;-38.49514961242561;UNIDADE BASICA DE SAUDE DE QUEIMADAS;RUA MANOEL FELICIANO;1810;QUEIMADAS;(85)3366056;62885225.0;CE;Horizonte;2016;5
6305;10408;2721333;-9.931610389742447;-36.4715218222232;UNIDADE BASICA DE SAUDE DA FAMILIA URUBA;POVOADO URUBA;S/N;ZONA RURAL;(82)541 1218;57270000.0;AL;Junqueiro;2016;5
6306;10633;2407906;-6.22435569763165;-38.2503390312184;CENTRO DE SAUDE SITIO GANGORRA;SITIO GANGORRA;S/N;ZONA RURAL;;59990000.0;RN;Rafael Fernandes;2016;5
6308;10629;3540081;-3.54346;-43.9164;UBS DA FAMILIA BACELIO SALGADO;RAMPA;S/N;RAMPA;(98)34611331;65430000.0;MA;Vargem Grande;2016;5
6309;10457;2466899;-10.9797620773312;-40.7651782035816;PSF DA CAATINGA DO MOURA;POVOADO DE CAATINGA DO MOURA;S/N;CAATINGA DO MOURA;(74)3624-9177;44700000.0;BA;Jacobina;2016;5
6310;10750;2561603;-4.04711199445096;-39.4488814473152;UNIDADE BASICA DE SAUDE JOAO ACACIO VASQUES MACEDO;CE 341;S/N;CENTRO;33571252;62738000.0;CE;General Sampaio;2016;5
6313;10460;2771195;-15.41462;-39.4923;USF DR MANOEL RODRIGUES;TRAVESSA BOA VISTA;55;CENTRO;(73) 2831711;45880000.0;BA;Camacan;2016;5
6314;10749;2635348;-7.576;-40.49800000000001;ESF ALTO DA BOA VISTA I;RUA SANTANA;S/N;ALTO DA BOA VISTA;;56280000.0;PE;Araripina;2016;5
6317;10516;2457679;-4.56952929496752;-44.6050286293017;CENTRO DE SAUDE DR PEDRO BARROSO;RUA CIRO REGO;11;CENTRO;(99) 6421203;65725000.0;MA;Pedreiras;2016;5
6319;10658;2460777;-2.860071659088049;-45.204942226408605;U B DE SAUDE PSF SOROROCA;POV SOROROCA;S/N;CENTRO;(98) 3830259;65235000.0;MA;São Bento;2016;5
6320;10556;5690323;-9.64001529170398;-35.71775436401371;UNIDADE DE SAUDE JOAO PAULO II;RUA MANOEL VIANA DE OLIVEIRA;S/N;JACINTINHO;(082) 33155404;57040490.0;AL;Maceió;2016;5
6324;10730;2592479;-7.10094595524403;-35.8664139115223;UBSF SANTO ANTONIO;SITIO CANTA GALO;S/N;ZONA RURAL;;58119000.0;PB;São Sebastião de Lagoa de Roça;2016;5
6325;10719;2415232;-7.29686379432657;-39.3894195556629;POSTO DE SAUDE RAIMUNDA BEZERRA TELES;COMUNIDADE DO ROMUALDO;S/N;DISTRITO MURITI;(88)5233376;63133100.0;CE;Crato;2016;5
6326;11118;2404486;-5.9954881668089115;-42.7034497261035;UNIDADE BASICA DE SAUDE VITORIA ALENCAR;AVENIDA PETRONIO PORTELA;S/N;NOVA VIDA;(86)32891256;64435000.0;PI;São Gonçalo do Piauí;2016;5
6327;11099;2369575;-4.2760686932553496;-41.7785048523536;UBSF MATADOURO PSF 13;RUA CIDADE DE ESPERANTINA;S/N;MATADOURO;(86)32764553;64260000.0;PI;Piripiri;2016;5
6332;11011;2487233;-12.1341825924055;-38.4226157693395;UNIDADE DE SAUDE DA FAMILIA MIGUEL VELHO;RUA GAUDENCIO DE SOUZA NUNES;10;MIGUEL VELHO;;48020110.0;BA;Alagoinhas;2016;5
6333;11156;2457482;-6.06727480888349;-43.1540608406054;UNIDADE BASICA DE SAUDE PIQUIZEIRO PSF;POVOADO PIQUIZEIRO;S/N;POVOADO;(98)2921177;65650000.0;MA;São Francisco do Maranhão;2016;5
6334;10966;2366355;-7.343255281448151;-44.3541669845568;PS TAMBURIL;POVOADO TAMBURIL;S/N;ZONA RURAL;8935450006;64873000.0;PI;Sebastião Leal;2016;5
6336;10859;2499142;-6.4030312519304005;-38.86308517887979;ESF ALTO MANOEL MARIANO;TRAVESSA SANTA CECILIA;S/N;ALTO M MARIANO;;63430000.0;CE;Icó;2016;5
6339;10899;3062562;-13.571709394454599;-42.246272563933104;UNIDADE BASICA DE SAUDE DA FAMILIA DO GRAMA;POVOADO DO GRAMA;S/N;ZONA RURAL;(77)34712412;46190000.0;BA;Paramirim;2016;5
6341;11091;4243;-12.9014039039608;-38.4273862838734;UBS CASTELO BRANCO;RUA A 3 ETAPA;S/N;CASTELO BRANCO;(71) 3611-5316;41320010.0;BA;Salvador;2016;5
6342;11151;2007746;-9.48414087295505;-37.335662841795795;POSTO DE SAUDE SANTO ANTONIO OLHO DAGUA FLORES;POVOADO OLHO DAGUA DAS FLORES;S/N;ZONA RURAL;;57442000.0;AL;Olho d'Água das Flores;2016;5
6344;11005;6395147;-13.0038942044712;-41.373213011866795;UNIDADE BASICA DE SAUDE;RUA REGINALDO MEDRADO;25;CENTRO;75 33382112;46750000.0;BA;Mucugê;2016;5
6345;11149;2325497;-6.57869696617107;-42.6960897445666;PS BURITI GRANDE PSF;LOCALIDADE BURITI GRANDE;S/N;LOC BURITI GRANDE;(08)65601127;64475000.0;PI;Francisco Ayres;2016;5
6350;10810;2562898;-4.61739063262926;-38.0872178077687;UNIDADE BASICA DE SAUDE SAO JOSE;SAO JOSE;S/N;ZONA RURAL;;62910000.0;CE;Palhano;2016;5
6351;11069;2443813;-4.98553991317735;-42.6411366462695;UNIDADE BASICA DE SAUDE DR D ARCOVERDE SANTA TERESA;RUA DA CAPELA POVOADO SANTA TERESA;S/N;ZONA RURAL;86 32159212;64058990.0;PI;Teresina;2016;5
6353;11071;2605252;-7.0374834537504105;-37.29884147643929;UNIDADE DE SAUDE DA FAMILIA SEBASTIANA XAVIER;RUA ZOZIMO GURGEL;S/N;BIVAR OLINTO;(83) 3421-5995;58701000.0;PB;Patos;2016;5
6355;11163;5772605;-1.56063795089717;-45.089178085325784;UNIDADE BASICA DE SAUDE CARUARU;POVOADO CARUARU;S/N;ZONA RURAL;;65275000.0;MA;Apicum-Açu;2016;5
6358;11186;6192890;-6.18484139442426;-43.7760758399951;UNIDADE BASICA DE SAUDE MUTIRAO;MUTIRAO;20;MUTIRAO;;65680000.0;MA;Passagem Franca;2016;5
6359;10803;2315009;-8.66351366043066;-35.618684291838605;PSF ENGENHO PIRANGY;ENGENHO PIRANGY;S/N;ZONA RURAL;;55540000.0;PE;Palmares;2016;5
6360;10958;6024335;-10.4816222190854;-37.1874332427968;CENTRO DE SAUDE DR LAURO DE BRITTO PORTO;PISTA DE CAPELA;5411;CAMPO VELHO;(79)3265-1402;49600000.0;SE;Nossa Senhora das Dores;2016;5
6361;11073;5221269;-12.7432394027706;-38.6147117614735;UNIDADE DE SAUDE DA FAMILIA DO ALTO DA MATRIZ;RUA DA INTENDENCIA;S/N;CENTRO;71 36046099;42600000.0;BA;Madre de Deus;2016;5
6363;10827;2429705;-9.399243593215669;-40.5483698844898;UBS BEATRIZ LUZ DE ALENCAR ROCHA;RUA 02;S/N;COHAB VI;(87) 3863-4672;56309010.0;PE;Petrolina;2016;5
6367;11112;2565064;-4.64818239212023;-39.076738357542794;UNIDADE DE SAUDE DE BARBADA;DISTRITO DE BARBADA;S/N;CAICARINHA;;63950000.0;CE;Choró;2016;5
6370;10854;3131521;-8.06276248305241;-34.8889419445777;US 300 PSF DR GERALDO BARRETO CAMPELO SAN MARTIN;RUA COMENDADOR FRANCO FERREIRA;S/N;SAN MARTIN;(81) 33556126;50761310.0;PE;Recife;2016;5
6372;11076;2475766;-6.66398433637305;-37.3949730105827;CENTRO MUNICIPAL DE SAUDE SUELI LUCENA DE ARAUJO;RUA MAJOR LOBINHO;54;CENTRO;(84)34262228;59318000.0;RN;Serra Negra do Norte;2016;5
6374;11176;2609355;-4.23236;-42.275;PS PEDRINHAS;RUA PROJETADA;S/N;PEDRINHAS;(86)3242 1221;64100000.0;PI;Barras;2016;5
6376;10981;3489957;-4.29952832007765;-38.9930659239268;CENTRO DE SAUDE SEDE II;CONJUNTO NOVO;S/N;ZONA URBANA;(85)3281209;62764000.0;CE;Mulungu;2016;5
6377;10975;2476878;-10.4942178726193;-37.1922183036793;CENTRO DE SAUDE DR MILTON CALUMBY TOURINHO;RUA MARECHAL CANDIDO RONDOM;265;CENTRO;(79)2651238;49600000.0;SE;Nossa Senhora das Dores;2016;5
6380;11185;2450844;-1.19501985484818;-46.0201835632324;UNIDADE BASICA DE SAUDE MOACIR BRAGA;RUA NOSSA SENHORA DE FATIMA;S/N;CENTRO;(98)3941187;65295000.0;MA;Carutapera;2016;5
6381;10924;5279623;-4.818651577906401;-38.8216783127295;UNIDADE BASICA DE SAUDE DA FAMILIA DR NELSON ANDRADE SALES;RUA CHAGAS CAMURCA;S/N;CENTRO;;63970000.0;CE;Ibaretama;2016;5
6383;11124;2444062;-5.19078254699692;-42.773873805998505;UNIDADE BASICA DE SAUDE IRMA DULCE;RUA SANTA FRANCISCA CABRINI;S/N;ANGELIM;(86) 3219-3850;64000270.0;PI;Teresina;2016;5
6387;10962;3357422;-14.66616;-41.49111;UNIDADE DE SAUDE DA FAMILIA SEDE;VILA MONTE ALEGRE;001;CENTRO;;46255000.0;BA;Maetinga;2016;5
6388;10963;2356678;-7.209592512357402;-34.8395145778656;USF INTEGRADA ROSA DE FATIMA;RUA OSCAR LOPES MACHADO;S/N;PARATIBE;32121247;58062030.0;PB;João Pessoa;2016;5
6392;10820;2482231;-3.7487947940825297;-38.5376787185658;UAPS LUIS COSTA;RUA MARECHAL DEODORO;1501;BENFICA;(85)31317677;60020061.0;CE;Fortaleza;2016;5
6395;11098;2381346;-6.157420692525362;-37.7631253023649;POSTO DE SAUDE COROATA;SITIO COROATA;S/N;ZONA RURAL;;59760000.0;RN;Almino Afonso;2016;5
6396;11046;2565838;-4.958503246307231;-39.035131931303795;POSTO DE SAUDE DO SAO JOAO;RUA NOVO AMANHECER ENFRENTE A PRACINHA;S/N;PLANALTO RENASCER;(88)34125534;63908155.0;CE;Quixadá;2016;5
6397;10956;2493128;-11.7162859439846;-39.954550266264704;UNIDADE DE SAUDE DA FAMILIA GEROLINO JOSE DE OLIVEIRA;POVOADO DE AROEIRA;S/N;POV AROEIRA;74 99981925691;44630000.0;BA;Mairi;2016;5
6399;11150;2704242;-9.1570079326627;-36.4333462715138;PSF DE CAMPO ALEGRE;POVOADO DE CAMPO ALEGRE;S/N;ZONA RURAL;(87)37851133;55320000.0;PE;Lagoa do Ouro;2016;5
6401;10886;2368498;-5.892845392227;-42.639784812926;POSTO DE SAUDE CHICO RAIMUNDO;R RIBEIRO GONCALVES;S/N;COMPASA;( )2801540;64460000.0;PI;Água Branca;2016;5
6403;11084;5862639;-13.844264745711902;-43.8549971580493;UBS DA AGROVILA 23;RUA G AGROVILA 23;S/N;ZONA RURAL;;46445000.0;BA;Carinhanha;2016;5
6404;10808;2011514;-9.57239627838107;-36.7025756835927;UNIDADE DE SAUDE DA FAMILIA LAGOA DE CIMA;POVOADO LAGOA DE CIMA;S/N;ZONA RURAL;;57620000.0;AL;Igaci;2016;5
6408;47947;6284418;-8.336;-36.424;UBS MARIA CRISTINA;R ANTONIO CORDEIRO RAMOS;85;LOT MARIA CRISTINA;81 34111600;55150001.0;PE;Belo Jardim;2016;5
6410;10942;2453789;-5.2231299877165185;-43.4502196311938;UBS BAU;POVOADO BAU;20;ZONA RURAL;(98)5213223;65600020.0;MA;Caxias;2016;5
6413;11059;3908283;-12.5312550111836;-38.8937188106885;USF MARIA MADALENA;POVOADO DO SACO;S/N;ZONA RURAL;;44300000.0;BA;Cachoeira;2016;5
6414;11128;2368609;-10.7381272315976;-45.1122236251818;UNIDADE DE SAUDE DA FAMILIA EIVELICE ALVES BATISTA PSF;VILA TABOCAL GRANDE;S/N;CENTRO;365761200;64995000.0;PI;Cristalândia do Piauí;2016;5
6418;10889;3665747;-7.983831167220839;-38.3147764205921;USF MALHADA CORTADA;RUA DO SERTAO;S/N;MALHADA CORTADA;;56912510.0;PE;Serra Talhada;2016;5
6419;11022;4011473;-7.210766;-39.316993355614294;UBS TIMBAUBA;RUA ASSIS SOBREIRA;169;TIMBAUBA;88 35722179;63010000.0;CE;Juazeiro do Norte;2016;5
6421;10974;2356767;-6.82668328285197;-35.2519941329946;UNIDADE DE SAUDE DA FAMILIA CRUZEIRO;R SAO JOSE;S/N;SAO JOAO;(83)32941289;58275000.0;PB;Itapororoca;2016;5
6425;10802;2315491;-8.68570089340185;-35.5889868736257;PSF CENTRO SINDICALISTA JOSE HELIO CAVALCANTI;RUA FENELON BARRETO;S/N;CENTRO;(81)36622153;55540000.0;PE;Palmares;2016;5
6426;10917;3063852;-13.02646;-39.02863;UNIDADE SAUDE DA FAMILIA DR WILSON GOMES DOS SANTOS;RUA BARAO HOMEM DE MELO;S/N;CENTRO;(75)36362713;44400000.0;BA;Nazaré;2016;5
6431;10900;6223958;-7.51428764137233;-34.9178501439553;USF MANGABEIRA;RUA DOS CRAVOS;S/N;MANGABEIRA;8332862029;58326000.0;PB;Caaporã;2016;5
6433;11187;2353458;-7.3456712759663;-37.2873345539797;UNIDADE BASICA DE SAUDE RITA FERREIRA ALVES;RUA SANTA TEREZINHA;S/N;CENTRO;;56740000.0;PE;Brejinho;2016;5
6434;10905;6288820;-9.46811199188205;-40.7974720001209;ESF QUADRA N 18;RUA 02 QUADRA N 18;S/N;VILA SAO JOAQUIM;;48925000.0;BA;Sobradinho;2016;5
6436;10945;2367386;-6.96712849109696;-42.6682272300917;CS I DE NAZARE DO PIAUI PSF;PRACA DA BANDEIRA;S/N;CENTRO;(86)5571215;64825000.0;PI;Nazaré do Piauí;2016;5
6437;10954;2307537;-3.64574432373036;-44.372019767759895;UNIDADE BASICA ANA DO CARMO BRANDAO;ESTRADA DE PIRAPEMAS;S/N;VILA PALMEIRA;98 34621235;65465000.0;MA;Cantanhede;2016;5
6438;11140;2656124;-3.6195417650543;-45.109240295410096;UNIDADE BASICA DE SAUDE DE SAO VICENTE;POVOADO SAO VICENTE;S/N;POVSAO VICENTE;(98)3761104;65345000.0;MA;Igarapé do Meio;2016;5
6446;10982;2404931;-7.6807639350874615;-41.2522813962752;USF DE PATOS DO PIAUI;RUA SALUSTIANO PEREIRA DO NASCIMENTO;S/N;CENTRO;(89 )34591158;64580000.0;PI;Patos do Piauí;2016;5
6449;10883;2368463;-5.9288084506986785;-42.6213312149035;POSTO DE SAUDE FRANCELINO BARBOSA LOPES;SANTO ANTONNIO;S/N;SANTO ANTONIO;( )32821540;64460000.0;PI;Água Branca;2016;5
6452;10947;2325705;-8.72950111876504;-44.2325685791726;USF DE PALMEIRA DO PI PSF;AV JOSE LUZ;268;CENTRO;35681245;64925000.0;PI;Palmeira do Piauí;2016;5
6454;11081;1163;-8.02747607231117;-34.918670654295894;US 109 CS FRANCISCO PIGNATARI;ESTRADA DO ARRAIAL;S/N;CASA AMARELA;(81) 33554400;52070000.0;PE;Recife;2016;5
6455;10855;5392136;-8.06276248305241;-34.8889419445777;US 342 PSF DJALMA HOLANDA CAVALCANTE;RUA DELFIN;87;BRASILIA TEIMOSA;(81) 33556122;51010010.0;PE;Recife;2016;5
6456;10923;2452197;-5.10068111012935;-42.8337278988596;E S F DO BAIRRO FLORES 18;AVENIDA PERIMETRAL;1182;PARQUE PIAUI;;65636710.0;MA;Timon;2016;5
6457;11026;5659884;-14.532637596129902;-40.35537958145021;UNIDADE DE SAUDE DA FAMILIA EPAMINONDAS ARCANJO NASCIMENTO;RUA ABIGAIL PIRES FERREIRA;106;ALTO DO RECREIO;77999155202;45260000.0;BA;Poções;2016;5
6459;10940;3476138;-14.3626079430408;-40.200521893825396;UNIDADE DE SAUDE DA FAMILIA GILDASIO FRANCISCO DA ROCHA;RUA CARMINE CABIDU;01;DIOCLECIO COELHO;(77) 34332218;45250000.0;BA;Boa Nova;2016;5
6460;11181;5497825;-6.44010186195355;-43.8919258117663;POSTO DE SAUDE JATOBA;POVOADO JATOBA;S/N;POVOADO JATOBA;;65670000.0;MA;Paraibano;2016;5
6461;10842;2008416;-9.568648231336061;-36.4944979894058;UNIDADE DE SAUDE DA FAMILIAE CABECA DANTAS;POVOADO CABECA DANTAS;S/N;ZONA RURAL;;57630000.0;AL;Belém;2016;5
6462;11036;2008564;-9.60689429266683;-35.9485175199678;USF JULIO CANSANCAO I;RUA PEDRO CIRIARCO DE BARROS;217;CENTRO;;57150000.0;AL;Pilar;2016;5
6468;10892;2668955;-4.90122199058519;-42.2450494766223;PS DE AGUA BRANCA FELISBELA GOMES DE ARAUJO;AGUA BRANCA;S/N;ZONA RURAL;;64280000.0;PI;Campo Maior;2016;5
6469;10801;2315394;-8.58692049980139;-35.664324760436;PSF SERRO AZUL;USINA SERRO AZUL;S/N;ZONA RURAL;;55540000.0;PE;Palmares;2016;5
6470;11169;2453770;-4.95257019996629;-43.13822507858149;UBS DR JOSE DASSUNCAO BRANDAO BREJINHO;BR 316 BREJINHO;04;ZONA RURAL;(98)5213223;65600020.0;MA;Caxias;2016;5
6474;10996;2478684;-4.09435987472522;-39.062018394469106;UNIDADE DE SAUDE ROSITA ALMEIDA I;RUA BALIZA;S/N;INHUPORANGA;3241142;62730000.0;CE;Caridade;2016;5
6477;11021;6665683;-11.5458369255063;-41.9829654693591;UBSF ESTER DA CONCEICAO ARAUJO;RUA CLARINDO DE NOVAES;S/N;RIACHO;;44960000.0;BA;Ibititá;2016;5
6479;10891;7218303;-11.569570324706302;-39.3027412891388;U B S ZORILDA SATURNINO OLIVEIRA FLUMINENSE;LOTEAMENTO CAMPO LIMPO;S/N;TERRA NOVA;32621523;48730000.0;BA;Conceição do Coité;2016;5
6481;11155;3001687;-17.904770000000006;-39.37455;USF 02 AV OCEANICA;AV OCEANICA;S/N;CENTRO;(73)3208-1080;45920000.0;BA;Nova Viçosa;2016;5
6483;11142;4013220;-6.1258182618582095;-35.4724975676103;UBS SAO FRANCISCO;SITIO SAO FRANCISCO;S/N;ZONA RURAL;;59247000.0;RN;Lagoa Salgada;2016;5
6486;11182;6627269;-4.515573978423941;-38.722000122069204;POSTO DE SAUDE DE PASSAGEM FUNDA;PASSAGEM FUNDA;S/N;PASSAGEM FUNDA;;62750000.0;CE;Aracoiaba;2016;5
6488;10929;2608685;-7.3764699999999985;-35.23752;UNIDADE BASICA DE SAUDE DA FAMILIA CARLY ARAUJO;AV ANTENOR NAVARRO;S/N;CENTRO;(83)2891033;58330000.0;PB;Juripiranga;2016;5
6497;11158;3028658;-10.768157243728304;-44.3495965003954;UNIDADE DE SAUDE DA FAMILIA RAIMUNDO CIRIACO GUEDES;POVOADO DA ITIQUIRA;S/N;ZONA RURAL;(77) 36251313;47150000.0;BA;Santa Rita de Cássia;2016;5
6498;11123;3824489;-9.0153604823547;-42.6922851641907;CENTRO DE SAUDEUNIDADE BASICA MARIA RIBEIRO DA SILVA;ALTO SAO FELIX;S/N;ALTO SAO FELIX;;64770000.0;PI;São Raimundo Nonato;2016;5
6499;10887;2324806;-6.24661077217366;-42.8536928230327;CS MAMEDE RODRIGUES;AV AFRANIO FILHO;S/N;VARJOTA;;64400000.0;PI;Amarante;2016;5
6501;11072;4025598;-12.2093617916104;-38.992238044737604;ESF DA ASA BRANCA I;RUA ARRAIO DO MEIO;S/N;ASA BRANCA;7532251884;44044337.0;BA;Feira de Santana;2016;5
6505;11171;4020251;-9.900437198891561;-36.6776855005338;CENTRO DE SAUDE DE FEIRA GRANDE;RUA SETE DE SETEMBRO;S/N;CENTRO;(82) 5241100;57340000.0;AL;Feira Grande;2016;5
6509;11070;2633922;-8.53876220824973;-37.6900466896833;POSTO DE SAUDE DE CAMPOS U S F;POVOADO CAMPOS;S/N;ZONA RURAL;;56580000.0;PE;Ibimirim;2016;5
6510;10807;2609665;-7.0994317531583615;-42.559790611265896;PS DE SERRINHA PSF;LOCALIDADE SERRINHA;01;ZONA RURAL;(89)3558-1232;64550000.0;PI;São Francisco do Piauí;2016;5
6512;11103;2313510;-6.7762899398801695;-38.24600458145029;ESF III JARDIM BRASILIA;AV NELSOM MEIRA;S/N;JARDIM IRACEMA;;58802000.0;PB;Sousa;2016;5
6513;10897;2778157;-6.77557110786418;-43.0287051200854;PS HELVIDIO DE HOLANDA BARROS;RUA GABRIEL FERREIRA;S/N;MANGUINHA;(86)5221542;64800275.0;PI;Floriano;2016;5
6517;10882;2638223;-8.13057;-35.29063;U S F AMPARO;RUA PRINCESA IZABEL;100;AMPARO;(81)35231041;55614290.0;PE;Vitória de Santo Antão;2016;5
6518;10964;3396592;-17.684197144216398;-40.1063094115419;UNIDADE DE SAUDE DA FAMILIA II JOSE COSTA VIEIRA;RUA LARANJEIRAS;10;CENTRO;7332902601;45940000.0;BA;Ibirapuã;2016;5
6519;10977;2604523;-6.87186326188252;-36.92167833004471;ESF IV ANTONIO BENTO DE MORAIS;RUA PROJETADA;S/N;FREI DAMIAO;(83)4612134;58600000.0;PB;Santa Luzia;2016;5
6521;10983;6319270;-6.61946654319744;-44.110751152037295;UNIDADE BASICA DE SAUDE ALEXANDRE CAMAPUM FILHO DUCA;POVOADO LAGOA DO BOI;S/N;LAGOA DO BOI;;65870000.0;MA;Pastos Bons;2016;5
6524;10888;5468981;-4.82252597808824;-42.16471195220829;PS CARIRI VEREADOR ACHICO PEREIRA;RUA ELESBAO ANDRADE;S/N;CARIRI;;64280000.0;PI;Campo Maior;2016;5
6528;10970;3523705;-12.2314508089662;-44.411841896300004;UNIDADE DE SAUDE DA FAMILIA MARIA AMARAL DE SOUZA;POVOADO DE AGUA DOCE;S/N;ZONA RURAL;7736181162;47950000.0;BA;Cristópolis;2016;5
6529;10961;2529920;-2.7268071;-42.5370876;CENTRO DE SAUDE SANTA TEREZINHA;RUA DEMETRIO RIBEIRO;S/N;CENTRO;;65585000.0;MA;Paulino Neves;2016;5
6534;11082;2311011;-3.0570423603057004;-42.1397566795337;UNIDADE SAUDE DA FAMILIA GIQUIRI;POVOADO GIQUIRI;S/N;GIQUIRI;(98)47811143;65570000.0;MA;Araioses;2016;5
6537;10926;2466945;-11.338706016540199;-40.4132938384998;PSF DE CACHOEIRA GRANDE;POVOADO DE CACHOEIRA GRANDE;S/N;CACHOEIRA GRANDE;7436213433;44700000.0;BA;Jacobina;2016;5
6540;10907;2367696;-3.8658034801482;-42.3165678977954;PSF AMARGOSA;AMARGOSA;S/N;ZONA RURAL;;64180000.0;PI;Esperantina;2016;5
6541;11042;3021580;-14.59673;-39.28545;USF SERRA GRANDE;PRACA PEDRO GOMES;S/N;POVOADO DE S GRANDE;(73) 2396191;45680000.0;BA;Uruçuca;2016;5
6542;10989;2498103;-13.0038942044712;-41.373213011866795;UNIDADE DE SAUDE DA FAMILIA DE JOAO CORREIA;VILA DE JOAO CORREIA;S/N;VILA;(75)3382100;46750000.0;BA;Mucugê;2016;5
6544;10811;3471292;-15.033496197201199;-41.260033479020294;USF PROF AUGUSTO LEMOS;FAZENDA JATOBA;01;ZONA RURAL;7734372016;45160000.0;BA;Belo Campo;2016;5
6545;10902;2366266;-7.728652387563598;-40.9903345467585;PS GREGORIO VITALINO DA SILVA PSF;POVOADO INGAZEIRA;S/N;C ENTRO;;64590000.0;PI;Caridade do Piauí;2016;5
6546;10933;2455218;-2.09175825119012;-44.7516059875475;UNIDADE BASICA DE SAUDE DE MONDEGO;RUA URBANO SANTOS;S/N;CENTRO;;65265000.0;MA;Mirinzal;2016;5
6547;11041;6226000;-15.036249160766197;-41.5056395530689;USF DE SAO JOAO DOS BRITOS;POVOADO DE SAO JOAO DOS BRITOS;01;POVOADO DE SAO JOAO;7734942459;45170000.0;BA;Tremedal;2016;5
6548;10980;2326736;-5.97698092460615;-43.0608057975757;CS NOSSA SENHORA DA CONCEICAO PSF;R TRAVESSA DO POSTO;S/N;TRAVESSA DO POSTO;;64420000.0;PI;Palmeirais;2016;5
6552;10828;841;-8.054;-34.881;US 150 CS FERNANDES FIGUEIRA;FREI ATANAZIO;364;JARDIM SAO PAULO;(81) 33554396;50781530.0;PE;Recife;2016;5
6554;10880;2635666;-7.53711462020852;-37.3752522468556;ESF RIACHO DO MEIO I;DISTRITO DE RIACHO DO MEIO;100;RURAL;38441044;56700000.0;PE;São José do Egito;2016;5
6556;10903;2404761;-10.440936038123699;-45.16331252357671;PS DO AEROPORTO PSF;AEROPORTO;100;AEROPORTO;(89)3573-2976;64980000.0;PI;Corrente;2016;5
6558;11064;2498367;-18.0885397388762;-39.5475458898298;PSF DE TAQUARINHA;ANTONIO CARLOS MAGALHAES;S/N;CENTRO;;45930000.0;BA;Mucuri;2016;5
6559;10915;3611884;-10.495065450668;-44.164652824400605;USF DE SANTO ANTONIO;POV SANTO ANTONIO;S/N;CENTRO;;64963000.0;PI;Júlio Borges;2016;5
6563;11087;5555256;-6.95484233259558;-41.322340682651294;P S JOMASIO BARROS;RUA OSVALDO CRUZ;S/N;CENTRO;89 3448 1142;64630000.0;PI;Bocaina;2016;5
6565;11135;2423405;-11.353317397341304;-37.449842180207604;UNID DE SAUDE DA F POV CRASTO;RUA DE ESTANCIA;S/N;ZONA RURAL;(79)5481210;49230000.0;SE;Santa Luzia do Itanhy;2016;5
6568;10833;26301;-8.01698;-34.92103;US 261 PSF ALTO DO EUCALIPTO;RUA CAMBORIU;S/N;VASCO DA GAMA;(81) 33556082;52081530.0;PE;Recife;2016;5
6569;10896;2404664;-10.031292430329401;-44.3007222328749;UBSF SEDE DE CURIMATA;AVENIDA TELESFORO GUERRA;S/N;CENTRO;(89 )35741485;64960000.0;PI;Curimatá;2016;5
6571;10965;2476630;-5.199183225631558;-35.4601120948781;UBS DE TOUROS POSTINHO;AV PREFEITO JOSE AMERICO;S/N;CENTRO;(84) 2632300;59584000.0;RN;Touros;2016;5
6573;10881;2355736;-7.66206264495827;-35.416510105132;PSF MURUPE;R RIGOMERO FRAGOZO;S/N;VILA MURUPE;(81)36017088;55850000.0;PE;Vicência;2016;5
6576;11106;2564815;-5.67492127418502;-38.9100122451771;POSTO DE SAUDE DE PASTA;DISTRITO DE PASTA;S/N;DISTRITO DE PASTA;(88)35181140;63620000.0;CE;Solonópole;2016;5
6578;10860;2493144;-11.7076063156125;-40.1433348655689;UNIDADE DA SAUDE DA FAMILIA MARIA MARLENE SOARES DOS SANTOS;RUA ANTONIO COSTA;S/N;LAPINHA;740999346811;44630000.0;BA;Mairi;2016;5
6579;10898;2608863;-7.25059477327924;-35.6553876583291;USF I RIACHAO DO BACAMARTE;CONJUNTO FREI GALVAO;23;CENTRO;3161055;58382000.0;PB;Riachão do Bacamarte;2016;5
6589;10948;2717883;-3.5741293430327303;-43.6589169502246;UNIDADE BASICA DE SAUDE DE SAO DOMINGOS II PSF;POVOADO SAO DOMINGOS II;S/N;ZONA RURAL;;65450000.0;MA;Nina Rodrigues;2016;5
6590;10840;2398931;-7.14938202;-34.87338481353861;USF INTEGRADA UNINDO VIDAS;RUA MURILO BUARQUE;S/N;CRISTO REDENTOR;(83) 3218-9161;58071150.0;PB;João Pessoa;2016;5
6591;11147;5485363;-6.18807175929035;-35.0926003671736;UBS BELA VISTA;SITIO BELA VISTA;S/N;ZONA RURAL;;59178000.0;RN;Tibau do Sul;2016;5
6593;11115;2527545;-7.387397999999999;-38.772795438031004;ESF ANAUA;RUA MANOEL ROSENO;S/N;DISTRITO ANAUA;5521411;63210000.0;CE;Mauriti;2016;5
6595;11114;2422646;-10.2925180922231;-37.0221808560785;USF CRUZ GRANDE;POVOADO CRUZ GRANDE;S/N;ZONA RURAL;;49790000.0;SE;Aquidabã;2016;5
6596;11002;5695821;-5.1073629545917685;-36.3181443773969;UNIDADE BASICA DE VILA MARIA;CONJUNTO VILA MARIA;S/N;CENTRO;(084)35252710;59598000.0;RN;Guamaré;2016;5
6600;11044;2477637;-10.3465099141957;-36.80075646436129;CLINICA DE SAUDE DA FAMILIA DOURIVAL DIAS GUIMARAES;RUA DR JOAO AUGUSTO FALCAO;972;CENTRO;(79)3348-1069;49950000.0;SE;Japoatã;2016;5
6604;11097;2606763;-7.114387750625402;-38.49435567855721;USF DR OSEAS ALVES MANGUEIRA;SAO SEBASTIAO;01;SAO SEBASTIAO;(83)35521250;58940000.0;PB;São José de Piranhas;2016;5
6605;11080;2609649;-7.24397610386384;-42.53853198700521;PS DE SAO FRANCISCO DO PIAUI PSF;PRACA SEBASTIAO BARBOSA;S/N;CENTRO;(89)3558-1232;64550000.0;PI;São Francisco do Piauí;2016;5
6608;10857;2635402;-8.1065475940702;-40.554785728453396;USF DE POCO COMPRIDO;POVOADO POCO COMPRIDO;S/N;POVOADO;(87)38747156;56210000.0;PE;Santa Filomena;2016;5
6610;11107;2412497;-12.7691377865306;-40.2133652349888;UNIDADE BASICA DE SAUDE DA FAMILIA DE JOAO AMARO I;PRACA JOSE VAZ SAMPAIO;S/N;JOAO AMARO;(75)3341-2186;46860000.0;BA;Iaçu;2016;5
6612;11131;3831574;-4.19071555137622;-44.4633007049548;UNIDADE BASICA DE SAUDE ANTONIO VALDENIR DE OLIVEIRA;RUA DO FEIJAO;S/N;CAXUXA;;65413000.0;MA;Alto Alegre do Maranhão;2016;5
6614;10953;5470102;-3.96150469779957;-45.28961420059071;UNIDADE DE SAUDE DA FAMILIA SUMAUMA;POVOADO SUMAUMA;S/N;SUMAUMA;;65709000.0;MA;Satubinha;2016;5
6615;11130;2552582;-4.31343168517721;-40.7187261447301;UNIDADE BASICA DE SAUDE DE ABILIO MARTINS;DISTRITO ABILIO MARTINS;0;0;8231233;62250000.0;CE;Ipu;2016;5
6618;10901;2665220;-5.131527185439911;-39.726691246031606;PROG SAUDE DA FAM DE BAIRRO DE FATIMA;RUA CENTRAL;S/N;FATIMA;;63870000.0;CE;Boa Viagem;2016;5
6620;10832;3371336;-8.00941;-34.911120000000004;US 324 PSF ALTO JOSE BONIFACIO;RUA VISC DE SA BANDEIRA;S/N;ALTO JOSE BONIFACIO;(81) 33556074;52131470.0;PE;Recife;2016;5
6623;10861;3038807;-13.607261300624199;-39.49207129123;UNIDADE DE SAUDE DA FAMILIA DE RIO PRETO;RUA SANTA LUZIA;S/N;ZONA RURAL;73-3278-2193;45460000.0;BA;Wenceslau Guimarães;2016;5
6624;11528;2528932;-3.723805035;-38.589927555043204;UAPS HERMINIA LEITAO;RUA GAL JOAO COUTO;470;OLAVO OLIVEIRA;(85)34339741;60351000.0;CE;Fortaleza;2016;5
6626;11275;2478153;-3.723805035;-38.589927555043204;UAPS LINEU JUCA;RUA VILA VELHA II;101;BARRA DO CEARA;(85)34525888;60331250.0;CE;Fortaleza;2016;5
6627;11444;6294839;-8.84499653356943;-38.772309000658495;USF CARMELITA CRUZ;AV MANOEL MOURA;S/N;CENTRO;;48630000.0;BA;Rodelas;2016;5
6636;11272;5874262;-7.74832758583151;-37.6376860181022;ESTRATEGIA DE SAUDE DA FAMILIA SAO FRANCISCO;RUA SETE DE SETEMBRO;S/N;SAO FRANCISCO;;56800000.0;PE;Afogados da Ingazeira;2016;5
6637;11472;2800128;-12.7436501985131;-38.8713232865315;USF ANTONIO ESTEVAO;POVOADO DE SAO FRANCISCO;S/N;SAO FRANCISCO;;44300000.0;BA;Cachoeira;2016;5
6640;11377;2608189;-6.6933023929594;-35.5361151695241;UNIDADE DE SAUDE DA FAMILIA N S DA CONCEICAO PSF V;RUA PADRE JOSE TAVARES;135;CENTRO;(83)2611510;58255000.0;PB;Belém;2016;5
6641;11211;2452634;-2.21627712249749;-44.556019306181604;UNIDADE DE SAUDE DA FAMILIA DO SAO JOAO DE CORTES;SAO JOAO DE CORTES;S/N;POVOADO SAO JOAO DE;;65250000.0;MA;Alcântara;2016;5
6642;11372;6350607;-6.9481404046324;-35.5454913506159;UNIDADE DO PSF VI;RUA IRENE MARTINS;S/N;CENTR0;;58390000.0;PB;Alagoinha;2016;5
6644;11253;2493519;-13.8955485820766;-38.9522624015797;UNIDADE DE SAUDE DA FAMILIA DE BARRA GRANDE;DISTRITO DE BARRA GRANDE;S/N;ZONA RURAL;;45520000.0;BA;Maraú;2016;5
6647;11346;2723379;-5.3824639320372;-39.7315835952747;UNIDADE BASICA DE SAUDE DO SITIO NOVO;SITIO CABECA SECA;S/N;ZONA RURAL;;63630000.0;CE;Pedra Branca;2016;5
6649;11586;2478854;-4.44479584693896;-39.38712358474621;POSTO DE SAUDE DA FAMILIA DE IPUMONTE ALEGRE;RUA PEDRO JANUARIO;S/N;IPUMONTE ALEGRE;(58)3432040;62703000.0;CE;Canindé;2016;5
6650;11564;2557010;-15.016407290365803;-42.380448922323104;USF ANTONIO CERQUEIRA COTRIM;RUA LEOBINO FERREIRA DOS SANTOS;S/N;INDUSTRIAL;(77)4642106;46290000.0;BA;Mortugaba;2016;5
6652;11432;5078393;-14.859502315520801;-40.5771017074573;USF BOM RETIRO;PRACA JOSE DI LAURO;S/N;BOM RETIRO;77988143271;45120000.0;BA;Barra do Choça;2016;5
6656;11362;2341220;-7.52283378063901;-35.9963140811176;UBSF DR JOSE AUGUSTO AMORIM;RUA PROJETADA;S/N;CENTRO;(83)33461070;58458000.0;PB;Barra de Santana;2016;5
6658;11596;2342731;-6.99618816375712;-34.8335909843435;USF ANTONIO MARIZ;RUA ANA ALVES DE FIGUEREDO;S/N;JARDIM MANGUINHOS;;58103554.0;PB;Cabedelo;2016;5
6664;11522;2304481;-14.706047747521696;-39.635903175244714;USF ANTONIO SOARES LOPES;RUA FERNANDO BARROS;25;CENTRO;73 3247-1179;45640000.0;BA;Almadina;2016;5
6667;47728;3888940;-16.48422;-39.09179;USF ARRAIAL BAIRRO SANTIAGO II;RUA VILGO MORAES;256;SANTIAGO;(73) 3575 3724;45810000.0;BA;Porto Seguro;2016;5
6671;11474;2564432;-7.30921268463114;-39.294040203093296;POSTO DE SAUDE ALTO DA ALEGRIA I;RUA DA AJUDA;S/N;ALTO DA ALERGIA;(88)3532 1275;63180000.0;CE;Barbalha;2016;5
6673;11365;7164246;-5.609194991934251;-38.761332035064704;UBSF DO ALAGAMAR;ASSENTAMENTO DO ALAGAMAR;S/N;ZONA RURAL;(88) 3576-1895;63480000.0;CE;Jaguaretama;2016;5
6674;11373;4028902;-11.5065586566922;-40.78933954238771;USF DIAS COELHO;POVOADO DE DIAS COELHO;S/N;DISTRITO;(74)6531178;44850000.0;BA;Morro do Chapéu;2016;5
6677;11598;2498634;-11.966;-41.639;CENTRO DE SAUDE MULUNGU DO MORRO;RUA JAIR BARBOSA DE OLIVEIRA;S/N;CENTRO;(74) 6431002;44885000.0;BA;Mulungu do Morro;2016;5
6678;11570;2822571;-10.4401577406579;-39.3327059520687;EQUIPE DE SAUDE DA FAMILIA DE MANDASSAIA;POVOADO DE MANDASSAIA;S/N;ZONA RURAL;;48800000.0;BA;Monte Santo;2016;5
6679;11525;2719797;-9.50164;-37.82927;CENTRO DE SAUDE OLHO DAGUA DO CASADO;RUA DELMIRO GOUVEIA;S/N;CENTRO;;57470000.0;AL;Olho d'Água do Casado;2016;5
6689;11477;2345404;-7.674990892410059;-39.964742660521296;USF 02 JOAO MALHEIRO LACERDA;VILA BOM JARDIM;1;VILA BOM JARDIM;(81)38781142;56220000.0;PE;Bodocó;2016;5
6691;11495;2529211;-3.717;-38.543;UAPS HELIO GOES;AV ENG LEAL LIMAVERDE;453;SAPIRANGA;(85)32731378;60833175.0;CE;Fortaleza;2016;5
6693;11203;3522547;-14.890410364848401;-41.9708095383447;U S F FLORISVALDO BATISTA DE OLIVEIRA;RUA 21 DE ABRIL;S/N;DIVINO ESPIRITO SANT;7734452510;46200000.0;BA;Condeúba;2016;5
6697;11515;2528894;-3.723805035;-38.589927555043204;UAPS MONTEIRO DE MORAES;RUA EVILASIO ALMEIDA DE MIRANDA;S/N;SAPIRANGA;;60833302.0;CE;Fortaleza;2016;5
6704;11260;2531062;-2.51567602157585;-44.16624069213739;CENTRO DE SAUDE DA VILA SAO JOSE;AV JUSCELINO RESENDE;S/N;VILA SAO JOSE;;65137000.0;MA;Paço do Lumiar;2016;5
6706;11430;2712318;-8.72957110404943;-35.795452594756;POSTO DE PSF DE JAQUEIRA;RUA JOSE PELLEGRINO;S/N;CENTRO;(81)36891161;55409000.0;PE;Jaqueira;2016;5
6709;11390;7577273;-6.443247371353482;-37.077484130859396;UNIDADE BASICA DE SAUDE NOVA CAICO;RUA JOSE TORRES DE ARAUJO;215;NOVA CAICO;;59300000.0;RN;Caicó;2016;5
6710;11218;3491064;-2.9318153858184;-42.1772432327258;UBSF DO COQUEIRO;POVOADO COQUEIRO;S/N;COQUEIRO;(98)34851188;65578000.0;MA;Água Doce do Maranhão;2016;5
6718;11401;3036421;-10.0584949600009;-36.8067459676714;CENTRO MUNICIPAL DE SAUDE JOAO NASCIMENTO FILHO;RUA JORGE DA PAIXAO;S/N;CENTRO;(82)35350113;57390000.0;AL;Olho d'Água Grande;2016;5
6719;11486;2463687;-1.7443692684173102;-45.3951430320727;UNIDADE BASICA DE SAUDE DE CAPOEIRA GRANDE;AV PRINCIPAL;S/N;POV CAP GRANDE;(98)3971109;65278000.0;MA;Turiaçu;2016;5
6721;11271;5694329;-11.7462475299556;-44.9164697719097;POSTO DE SAUDE DA FAMILIA JARDILINO DOS SANTOS BOMFIM;RUA ANTONIO DOS SANTOS;S/N;CENTRO;77 36242291;47970000.0;BA;Riachão das Neves;2016;5
6723;11544;2375656;-5.7895555402052805;-35.331156093085205;UNIDADE DE SAUDE DA FAMILIA DE BARRO DURO;RUA PRINCIPAL;S/N;BARRO DURO;;59299400.0;RN;São Gonçalo do Amarante;2016;5
6724;11526;2321025;-7.0852845;-37.4449579;USF I PEDRO RUFINO SOBRINHO;RUA JOAO DOS SANTOS;S/N;CENTRO;(83)3419-1006;58720000.0;PB;Santa Teresinha;2016;5
6727;11251;2464519;-3.77189397811879;-45.217087268828;UNIDADE DE SAUDE DA FAMILIA DO ARATAUI;RUA PRINCIPAL;S/N;ARATAUI;;65335000.0;MA;Bela Vista do Maranhão;2016;5
6735;11364;7283938;-11.0879544989854;-43.287935256958;PSF DO BAIXAO DA APARECIDA;BAIXAO;S/N;ZONA RURAL;32262283;47100000.0;BA;Barra;2016;5
6736;11363;7192495;-7.88327685757892;-38.110853433609;UNIDADE DE SAUDE DA FAMILIA USF V JULIO RAMOS DE SOUSA;SITIO BREJINHO;001;ZONA RURAL;(87)3846-1294;56870000.0;PE;Triunfo;2016;5
6737;11398;2424126;-3.69600892066945;-40.3467965126026;CSF DOM EXPEDITO;RUA HELIO ARRUDA COELHO;S/N;DOM EXPEDITO;(88)3614 3831;62107000.0;CE;Sobral;2016;5
6740;11208;5887038;-9.41071709622786;-40.503552159443394;USF CAMPOS;SITIO SAO JOSE FAZENDA CAMPOS;S/N;FAZENDA;;48900130.0;BA;Juazeiro;2016;5
6742;11348;2428016;-7.51174567401951;-35.3187721210384;PSF DE CRUANGI POSTO DE SAUDE DE CRUANGI;VILA CRUANGI;S/N;ZONA RURAL;(81)36310131;55870000.0;PE;Timbaúba;2016;5
6743;11516;2380943;-6.29354978779003;-38.1666126187356;CENTRO DE SAUDE PANATI;SITIO PANATI;S/N;ZONA RURAL;;59970000.0;RN;Marcelino Vieira;2016;5
6744;11379;2426161;-7.210766;-39.316993355614294;UBS VILA SAO FRANCISCO;RUA FRANCISCA PEREIRA LOPES;385;PEDRINHAS;88 35722124;63018030.0;CE;Juazeiro do Norte;2016;5
6746;11582;4026802;-12.243501016417598;-41.6179588573911;UNIDADE DE SAUDA DA FAMILIA ADALBERTO FELIX;BA 122;25;JOAO PAULO II;7533642128;46980000.0;BA;Iraquara;2016;5
6752;11242;2554542;-5.65072774887069;-39.846768379210296;POSTO DE SAUDE DE BOA VISTA;DISTRITO DE BOA VISTA;S/N;CENTRO;5831699;63610000.0;CE;Mombaça;2016;5
6753;11220;2464950;-5.50949335098251;-46.960351467131204;UBS OTAVIO AGUIAR PONTES;R NOVA;S/N;POV CENTRO NOVO;(99)35331060;65935500.0;MA;Buritirana;2016;5
6755;11565;2420767;-10.918039083480501;-37.6718401908864;U B S LEANDRO MACIEL;AV NILO ROMERO;92;CENTRO;(79) 36319624;49400000.0;SE;Lagarto;2016;5
6756;11246;2724685;-3.8177704811095095;-39.5728397369373;UBSF DO JARDIM;JARDIM;S/N;ZONA RURAL;33231156;62614000.0;CE;Tejuçuoca;2016;5
6773;11573;2603594;-6.769855485;-37.7982672713629;USF I PEREIROS;RUA SEVERINO DOS RAMOS BEZERRA TRIGUEIRO;S/N;DOS PEREIROS;(83) 4312437;58840000.0;PB;Pombal;2016;5
6774;11589;2561751;-3.87010574340809;-38.756289482115605;U A P S NILDA MATOS BRITO DE MIRANDA;BR 020 KM 28;S/N;TUCUNDUBA;85-33428023;61688990.0;CE;Caucaia;2016;5
6775;11265;5371171;-13.7612250392523;-39.3745221879491;USF CACHOEIRA ALTA;CACHOEIRA ALTA;0000000000;ZONA RURAL;73-3688-2104;45436000.0;BA;Piraí do Norte;2016;5
6779;11566;2301067;-17.537749881681098;-39.7445176868085;PSF TANCREDO NEVES;RUA PAU FERRO;216;TANCREDO NEVES;( );45993264.0;BA;Teixeira de Freitas;2016;5
6784;11243;2327724;-4.41565632820117;-40.9044170379627;UNIDADE BASICA DE SAUDE DA SEDE;RUA JOAO OTAVIANO;S/N;CAROBA;;62390000.0;CE;Croatá;2016;5
6786;11245;2327228;-3.8411081;-40.9702282;UNIDADE BASICA DE SAUDE DA FAMILIA DE NOVA VENEZA;SITIO NOVA VENEZA;S/N;NOVA VENEZA;0000000;62350000.0;CE;Ubajara;2016;5
6788;11319;2638037;-8.12531;-35.289;U S F LIDIA QUEIROZ;AV ADELIO DE ANDRADE;100;LIDIA QUEIROZ;(81)35260292;55614295.0;PE;Vitória de Santo Antão;2016;5
6789;11576;2563851;-4.83955516829761;-37.7823914809586;UBASF DR CARLOS ALBERTO DE ARAUJO FONTES;PRACA ADOLFO FRANCISCO DA ROCHA;S/N;CENTRO;(88)3418.1201;62823000.0;CE;Jaguaruana;2016;5
6797;11536;2343401;-7.056384;-35.3185424166403;UNIDADE DE SAUDE DA FAMILIA FRANCISCO FAUSTINO;RUA JOAO FERREIRA DE PAIVA;S/N;JOSE AMERICO;(83)2872508;58345000.0;PB;Mari;2016;5
6798;11415;7549776;-14.967671629979;-39.838142395019496;USF FELISBERTO FRANCISCO DOS SANTOS;RUA A;101;CIDADE NOVA;;45720000.0;BA;Firmino Alves;2016;5
6799;11276;2529858;-4.25372901198713;-43.938837647438;UBS TERESA PEREIRA ROCHA;LAGOA DOS ALVINS;S/N;ZONA RURAL;(98) 6681296;65420000.0;MA;Timbiras;2016;5
6805;11590;2462796;-5.81854843133103;-46.142395635993395;UBS ALTO DO COCO;RUA DO POSTO;S/N;POVOADO;(99) 5326207;65940000.0;MA;Grajaú;2016;5
6807;11492;3428443;-11.3381145644914;-42.1337955487965;UBSF HIDROLANDIA;RUA DO PREDIO;S/N;HIDROLANDIA;(74)8837-3140;44950000.0;BA;Uibaí;2016;5
6809;11458;2372118;-3.84654521942127;-38.6573266983021;UBS MUCUNA;RODOVIA RAIMUNDO PESSOA DE ARAUJO;S/N;MUCUNA;(85)3392-8371;61914035.0;CE;Maracanaú;2016;5
6815;11498;2631563;-7.9771;-36.49462;POSTO DE SAUDE COHAB II;COHAB II;S/N;CENTRO;;55180000.0;PE;Jataúba;2016;5
6816;11482;2664410;-4.0259;-38.88413;UBS JOSE IVAN PONTES;RUA RAIMUNDO FIRMINO;S/N;AMANARI;8533690482;61979000.0;CE;Maranguape;2016;5
6823;11413;7298323;-5.172547291212389;-42.7732172150612;UNIDADE BASICA DE SAUDE XAVIER NETO MARIO COVAS;RUA JORNALISTA HUMBERTO LEAL;S/N;ANGELIM;(86) 32195524;64034622.0;PI;Teresina;2016;5
6828;11579;2321793;-7.62553095817544;-38.5566043853749;PSF DE SANTA INES PB;RUA JOAO RODRIGUES DO NASCIMENTO;S/N;CENTRO;834882711;58978000.0;PB;Santa Inês;2016;5
6829;11262;2321696;-7.33250498771646;-37.3975253105153;ESTRATEGIA SAUDE DA FAMILIA SANTO ALEIXO;DSITRITO DE SANTO ALEIXO;S/N;DISTRITO;(83)4821059;58745000.0;PB;Imaculada;2016;5
6830;11235;2430967;-8.88387056215618;-36.193574878074;UNIDADE DE SAUDE DA FAMILIA DE PAQUEVIRA;RUA CARLOS DE EUGENIO MUNIZ;44;PAQUEVIRA;(81) 3781-1156;55420000.0;PE;Canhotinho;2016;5
6834;11298;7897936;-5.9439004;-35.278017;UBS NOVA ESPERACA II ERNESTO MONTEIRO DA ROCHA;RUA SANTA CATARINA;10;NOVA ESPERANCA;;59144758.0;RN;Parnamirim;2016;5
6837;11274;2633876;-8.42014;-37.06233;UBSF COSTA LEITAO TAMBORIL;RUA VICENTE GOMES;S/N;TAMBORIL;(87)38210089;56512260.0;PE;Arcoverde;2016;5
6838;11572;4010965;-3.94952058792103;-38.888919353484;U A P S DR RENATO BRAGA;BR 020 KM 59;S/N;BOM PRINCIPIO;996336511;61600990.0;CE;Caucaia;2016;5
6841;11538;2352311;-7.83792441846847;-35.881802290678;CENTRO DE SAUDE DE SANTA MARIA DO CAMBUCA;RUA DR MIGUEL BRAZ;S/N;CENTRO;81-37571130;55765000.0;PE;Santa Maria do Cambucá;2016;5
6843;11261;2364581;-4.57068800926195;-42.2600913047778;PS SAO JOAQUIM;SAO JOAQUIM;S/N;ZONA RURAL;;64280000.0;PI;Campo Maior;2016;5
6848;11503;2344505;-8.01290631294227;-35.9072041511525;POSTO DE SAUDE DE TRAPIA PSF I;VILA TRAPIA;S/N;II DISTRITO;(81)37451133;55120000.0;PE;Riacho das Almas;2016;5
6853;11521;5441072;-5.49255251884444;-47.460293769835;CENTRO DE SAUDE VILA CAFETEIRA;AV LIBERDADE;34;VILA CAFETEIRA;;65901550.0;MA;Imperatriz;2016;5
6854;11513;6005187;-6.74963727499995;-35.6315999027685;PSF IX CHA DO LINDOLFO;CHA DO LINDOLFO;1;CHA DO LINDOLFO;;58220000.0;PB;Bananeiras;2016;5
6855;11411;2551802;-7.9642403125760595;-40.693187713621896;PS BAIXIO DOS BELOS PSF;POVOADO BAIXIO DOS BELOS;S/N;CENTRO;(89)34660046;64595000.0;PI;Curral Novo do Piauí;2016;5
6856;11212;2327201;-3.87719750404347;-41.0247516632068;UNIDADE BASICA DE SAUDE CACHOEIRA DO BOI MORTO;SITIO CACHOEIRA;S/N;CACHOEIRA;0000000;62350000.0;CE;Ubajara;2016;5
6858;11523;3896617;-6.055816411971871;-39.580349922178996;PSF GUARIBAS;DISTRITO SOLIDAO;S/N;ZONA RURAL;;63560000.0;CE;Acopiara;2016;5
6862;11559;3220265;-9.41071709622786;-40.503552159443394;USF SAO GERALDO;RUA DAS CASTANHOLAS;39;JARDIM UNIVERSITARIO;;48904775.0;BA;Juazeiro;2016;5
6865;11368;6944787;-5.78885078430159;-35.3020763397207;UNIDADE BASICA DE SAUDE DA FAMILIA DO NOVO SANTO ANTONIO;RN 160;S/N;SANTO ANTONIO;;59297396.0;RN;São Gonçalo do Amarante;2016;5
6866;11207;5547334;-4.25473750013981;-43.01401361554949;UNIDADE BASICA DE SAUDE JOAO PAULO II;RUA I;S/N;SARNEY;;65620000.0;MA;Coelho Neto;2016;5
6867;11238;2720388;-10.1716372985544;-36.709378540039104;POSTO DE SAUDE CAPIM GROSSO;POVOADO CAPIM GROSSO;S/N;ZONA RURAL;(82) 5541262;57280000.0;AL;Igreja Nova;2016;5
6868;11501;2800179;-12.6857452238202;-38.8583422664888;USF ANICETO MACHADO;POVOADO DO IGUAPE;S/N;SANTIAGO DO IGUAPE;;44300000.0;BA;Cachoeira;2016;5
6870;11252;2498235;-13.912636011070301;-42.8429324443126;USF THOMAZ PAULO PEREIRA;FAZENDA MOCO;S/N;ZONA RURAL;;46480000.0;BA;Matina;2016;5
6872;11347;2510537;-16.4191102981563;-39.0900206565846;USF PRACA DO GRAVATA;RUA WILSON ARTES;153;PRACA DO GRAVATA;(73) 3288-0401;45810000.0;BA;Porto Seguro;2016;5
6876;11345;3264890;-5.77907;-35.27699000000001;UNIDADE DE SAUDE DA FAMILIA DO GOLANDIM II;RUA GENERAL ADJER BARRETO;S/N;GOLANDIM;;59296277.0;RN;São Gonçalo do Amarante;2016;5
6879;11531;2005433;-10.1603043079373;-36.1596536636342;USF BARREIRAS JOSE SEVERIANO DOS SANTOS;RUA JOSE SEVERIANO DOS SANTOS;S/N;POVOADO BARREIRAS Z;(82)5512725;57230000.0;AL;Coruripe;2016;5
6886;11999;7805349;-5.106585400000001;-36.3224974;UNIDADE BASICA DE SAUDE SANTA MARIA III;ASSENTAMENTO SANTA MARIA III;S/N;ZONA RURAL;;59598000.0;RN;Guamaré;2016;5
6888;11839;5197929;-3.94033670425404;-41.7271256446826;UBS TRES LAGOAS;RUA MANOEL DANTAS CORREIA;S/N;TRES LAGOAS;33432226;64240000.0;PI;Piracuruca;2016;5
6889;11757;2627000;-11.7214526962923;-44.500932097435;UNIDADE DE SAUDE DA FAMILIA CASIMIRO JOSE DE SANTANA;RUA DA MATRIZ;S/N;DISTRITO DO TAGUA;(77) 6212116;47900000.0;BA;Cotegipe;2016;5
6890;11701;2713519;-7.918020486831441;-37.486853599547295;ESF DE IRAJAI;RUA PROJETADA S N;02;VILA DE IRAJAI;(87)38371156;56840000.0;PE;Iguaracy;2016;5
6895;11640;4014;-13.009250164031599;-38.4722542762745;USF PROFESSOR SABINO SILVA;RUA REINALDO DE MATOS;S/N;NORDESTE AMARALINA;(71)3611-3537;40100000.0;BA;Salvador;2016;5
6897;11830;2531674;-4.55475568771349;-45.1289606094347;UNIDADE BASICA DE SAUDE IRMA MARTA;RUA DO COMERCIO;01;PLANALTO;(98) 6441401;65715000.0;MA;Lago da Pedra;2016;5
6898;11902;2374498;-6.1258182618582095;-35.4724975676103;UBS CENTRO;RUA LUIZ FRANCISCO DE OLIVEIRA;101;CENTRO;(84) 3257 0289;59247000.0;RN;Lagoa Salgada;2016;5
6900;11878;6371655;-5.80984255286375;-38.304661655698794;POSTO DE SAUDE JOAQUIM NOGUEIRA DE MELO;RUA ANTONIO VALDENIR COSTA BARBOSA;S/N;HOLANDINO;088 34281103;62980000.0;CE;Iracema;2016;5
6902;11786;3579484;-6.99056625366191;-35.5591177940358;UBSF V CANAFISTULA;RUA MANOEL JOAQUIM DE CARVALHO;S/N;CENTRO;;58388000.0;PB;Alagoa Grande;2016;5
6908;11772;2717859;-6.340688467025571;-46.6393876075731;UBS SANTA MARIA;POVOADO SANTA MARIA;S/N;ZONA RURAL;(99) 5320205;65925000.0;MA;Sítio Novo;2016;5
6914;11966;5378818;-4.872157573699809;-43.3749246597277;UBS FAZENDINHA;RUA SAO JOSE;S/N;FAZENDINHA;(99) 3521-3965;65606450.0;MA;Caxias;2016;5
6917;11812;2453959;-4.88136291503892;-43.3498620986926;UBS VOLTA REDONDA;AVN VOLTA REDONDA;S/N;VOLTA REDONDA;(98)5213223;65606730.0;MA;Caxias;2016;5
6919;11789;2669021;-4.0204123357539;-42.075218732031004;PS LAGES;LAGES;S/N;ZONA RURAL;(86)33471278;64190000.0;PI;Batalha;2016;5
6920;11770;3386759;-3.86874318122853;-40.89982509612921;UNIDADE BASICA DE SAUDE DA FAMILIA DE SANTA LUZIA;SITIO SANTA LUZIA;01;SANTA LUZIA;;62350000.0;CE;Ubajara;2016;5
6921;11652;7718292;-4.03723;-38.63571;POSTO DE SAUDE JOSE ALVES DA COSTA;DOURADO;S/N;DISTRITO;8533761024;61890000.0;CE;Guaiúba;2016;5
6923;11749;2427869;-9.079749584197732;-36.81632280349621;PSF TANCREDO NEVES;POVOADO DO QUATIS;S/N;QUATIS;(87)37861096;55345000.0;PE;Iati;2016;5
6925;11641;2372746;-4.37538027763354;-37.977955341338;UNIDADE BASICA DE SAUDE DE JUAZEIRO;VILA DE JUAZEIRO;S/N;ZONA RURAL;08533782014;62840000.0;CE;Beberibe;2016;5
6926;11719;3490335;-13.94354;-39.11723;UNIDADE DE SAUDE DA FAMILIA DA CIDADE BAIXA;RUA JJ SEABRA;100;CIDADE BAIXA;;45445000.0;BA;Camamu;2016;5
6927;11741;2646323;-5.11573926436997;-43.818181795106106;UNIDADE DE SAUDE DA FAMILIA BOM JARDIM;POVOADO BOM JARDIM;S/N;ZONA RURAL;;65615000.0;MA;São João do Soter;2016;5
6930;11662;2506599;-14.266852140426199;-43.162751197813705;CENTRO DE SAUDE CLOVES DE ANDRADE VEIGA;RUA CANDIDO SPINOLA;S/N;CENTRO;(77)6622142;46460000.0;BA;Palmas de Monte Alto;2016;5
6934;11606;2304759;-12.7625947392978;-43.9523372558921;POSTO DE SAUDE DE BOQUEIRAO;POVOADO DE BOQUEIRAO;S/N;CENTRO;(77)6862080;47740000.0;BA;Serra Dourada;2016;5
6937;11678;2321769;-7.5110701505576385;-37.6422090442572;UNIDADE DE SAUDE DA FAMILIA DE BOM JESUS;POVOADO DE BOM JESUS;S/N;POVOADO;(83)4811026;58748000.0;PB;Água Branca;2016;5
6939;11787;2478404;-3.91392230987537;-40.29270172119021;POSTO DE SAUDE DE SALGADO DOS MENDES;DISTRITO SALGADO DOS MENDES;S/N;ZONA RURAL;6191133;62115000.0;CE;Forquilha;2016;5
6943;11873;3053407;-7.17012405395487;-34.8433756828298;USF INTEGRADA MANGABEIRA;RUA MILTON SANTA CRUZ;S/N;MANGABEIRA I;32141061;58055440.0;PB;João Pessoa;2016;5
6947;11957;2721783;-9.89937901496858;-35.9776711463918;UNIDADE BASICA DE SAUDE GENILZA DE CASTRO ALVES;DESTILARIA ROTEIRO;S/N;ZONA RURAL;(82)2761121;57257000.0;AL;Roteiro;2016;5
6949;11799;2003902;-9.61835220911148;-36.76677703857421;POSTO DE SAUDE BOM JESUS;POVOADO RIACHAO;S/N;ZONA RURAL;;57320000.0;AL;Craíbas;2016;5
6950;11779;2546256;-10.3580170968976;-37.7019192069375;PS POV BAIXA GRANDE;POVOADO BAIXA GRANDE;S/N;ZONA RURAL;;49550000.0;SE;Carira;2016;5
6952;11906;6735215;-12.139196925195696;-44.9911019733521;USF DR JAIME LIMA XVIII;RUA NOVA AURORA;S/N;VILA BRASIL;;47800302.0;BA;Barreiras;2016;5
6956;11825;2527367;-7.310427796781889;-38.9431567662076;POSTO DE SAUDE DE SERRA BRAVA;VILA SERRA BRAVA;S/N;VILA SERRA BRAV;5531364;63250000.0;CE;Milagres;2016;5
6961;11803;3941035;-5.67196011543257;-35.6004881858815;UNIDADE DE SAUDE DA FAMILIA DE SERRA PELADA;DISTRITO DE SERRA PELADA;S/N;RURAL;;59565000.0;RN;Taipu;2016;5
6963;11638;5708222;-8.205999499999999;-35.571492393837296;USF DRA ANA MARIA CAMINHA MACIEL SILVA;RUA AUDITOR JURANDIR MEDEIROS;604;AREA VERDE;(81) 35639024;55642160.0;PE;Gravatá;2016;5
6965;11781;2326183;-7.19261169433573;-42.30354309081911;US CARAIBAS;POVOADO CARAIBAS;S/N;ZONA RURAL;;64500000.0;PI;Oeiras;2016;5
6978;11792;2627078;-12.4069976806637;-38.3098196983326;UNIDADE BASICA DO PSF DO RETIRO;RUA RETIROLANDIA;S/N;RETIRO;(71)36451013;48120000.0;BA;Pojuca;2016;5
6979;11880;5870062;-3.79626673615443;-39.267008731469005;POSTO DE SAUDE ITAMARATY;AV DEPUTADO GOMES DA SILVA;84;ITAMARATY;0318533522619;62640000.0;CE;Pentecoste;2016;5
6980;11624;2409100;-5.79685449600203;-35.23536443710221;USF QUINTAS;TRV LUIZ SAMPAIO;S/N;QUINTAS;32328435;59042030.0;RN;Natal;2016;5
6984;11809;4026543;-14.1374736712628;-39.7356541802101;UNIDADE DE SAUDE DA FAMILIA JUVENCIO ALENCAR GONDIM;CAMINHO 19;24;CONCEICAO;(73)35315012;45570000.0;BA;Ipiaú;2016;5
6987;11802;5617197;-3.65106001760258;-39.4515234231949;UNIDADE BASICA DE SAUDE CANTO ESCURO;LOCALIDADE DO CANTO ESCURO;S/N;CANTO ESCURO;(85)33531379;62650000.0;CE;Uruburetama;2016;5
6988;11642;2554534;-5.74700454;-39.624405247857204;CENTRO DE SAUDE DE MOMBACA;RUA CICERO MARQUES;S/N;CENTRO;;63610000.0;CE;Mombaça;2016;5
6989;11899;7035632;-11.653917635998;-39.1139030456543;UNIDADE DE SAUDE DA FAMILIA DE MALHADA DO ALTO;POVOADO MALHADA DO ALTO;S/N;ZONA RURAL;75 32618500;48700000.0;BA;Serrinha;2016;5
6999;11778;2348519;-7.5911365130226205;-37.540265774187496;USF POVOADO DE BORBOREMA;RUA CENTRAL;S/N;ZONA RURAL;;56780000.0;PE;Tabira;2016;5
7004;11976;7404379;-8.064604766001201;-34.9213206768036;US 393 USF UPINHA DIA BONGI NOVO PRADO;RUA ISAAC MARKMAN;100;BONGI;81 33559567-33553567;50751375.0;PE;Recife;2016;5
7005;11707;2493209;-14.291882514953198;-43.6761260032641;UNIDADE DE SAUDE DA FAMILIA ZULEIDE NUNES DE ARAUJO B SORTE;DISTRITO DE JULIAO;S/N;JULIAO;;46440000.0;BA;Malhada;2016;5
7006;11728;5762979;-4.58601815914006;-42.8629297159505;UNIDADE DE SAUDE ANFRISIO LOBAO;PRACA BARAO DE GURGUEIA;S/N;CENTRO;;64120000.0;PI;União;2016;5
7008;11635;2344793;-7.99266007532292;-34.8613103898235;USF COHAB PEIXINHOS I II III;AV NACIONAL;S/N;PEIXINHOS;(81)34279591;53220460.0;PE;Olinda;2016;5
7009;11625;5654009;-10.832053524846199;-39.4291308507325;UNIDADE DE SAUDE DA FAMILIA SEDE;RUA OSVALDO ARAUJO ANDRADE;S/N;CENTRO;(75) 3650-2237;48870000.0;BA;Nordestina;2016;5
7018;11664;3490009;-3.93452167510975;-38.38889122009171;UBSF MACHUCA;CE 040 KM 18;S/N;ZONA RURAL;33624622;61700000.0;CE;Aquiraz;2016;5
7021;11882;2497697;-6.9403918320064495;-38.9769908769444;UNIDADE BASICA DE SAUDE 2 INGAZEIRAS;VILA INGAZEIRAS;S/N;CENTRO;5431123;63360000.0;CE;Aurora;2016;5
7024;11605;5273021;-8.10135483741737;-34.9852323532094;USF RETIRO;RUA MARECHAL HERMES FONSECA;25;SUCUPIRA;81 3251-2017;54310220.0;PE;Jaboatão dos Guararapes;2016;5
7029;11637;4028805;-10.4401577406579;-39.3327059520687;CENTRO DE SAUDE AGOSTINHO FERREIRA DA SILVA;RUA HELCIO CARDOSO DE MATOS;S/N;CENTRO;(75) 3275-1017;48800000.0;BA;Monte Santo;2016;5
7030;11836;2601230;-11.5957796573636;-39.1752076148975;UNIDADE BASICA DE SAUDE DA FAMILIA DE BANDIACU;RUA JOSE GREGORIO SIMOES;S/N;DISTRITO BANDIACU;(75) 2621818;48730000.0;BA;Conceição do Coité;2016;5
7033;11689;2526514;-14.9881088733669;-39.9234795570362;UNIDADE DE SAUDE DA FAMILIA SEDE;AVENIDA ITABUNA;454;CENTRO;;45720000.0;BA;Firmino Alves;2016;5
7038;11762;5097126;-5.06029844284043;-47.5594067573534;UNIDADE BASICA DE SAUDE CALIFORNIA;RUA OZIEL ALVES;0607;CALIFORNIA;;65930000.0;MA;Açailândia;2016;5
7040;11653;2723875;-3.75970602035512;-38.6615538597096;U A P S MARIA DE JESUS FERREIRA TORRES;CONJUNTO METROPOLITANO;S/N;PICUI;85-33428023;61604030.0;CE;Caucaia;2016;5
7042;11829;2605740;-6.485555301154291;-36.15320816550009;UBSF LUIZA DANTAS DE MEDEIROS;FRANCISCA MARIA DE JESUS;S/N;ANTONIO MARIZ;(08)33722831;58175000.0;PB;Cuité;2016;5
7044;11604;8015341;-6.267464160919008;-36.5146923065175;UNIDADE BASICA DE SAUDE JOANINHA PARTEIRA;RUA TOMAZ DE ARAUJO;S/N;GILBERTO PINHEIRO;(84)34052727;59380000.0;RN;Currais Novos;2016;5
7046;11948;3619478;-13.0729;-44.20135;UNIDADE DE SAUDE DA FAMILIA DE VACA MORTA;POVOADO DE VACA MORTA;S/N;ZONA RURAL;;47730000.0;BA;Canápolis;2016;5
7050;11842;6340504;-8.66285686583942;-36.3214966175308;USF DO POVOADO DE IMACULADA;POVOADO IMACULADA;S/N;RURAL;;55385000.0;PE;Lajedo;2016;5
7051;11935;2477769;-10.763007402419698;-37.3861956596364;UNIDADE PSF RIO DAS PEDRAS;POVOADO RIO DAS PEDRAS;S/N;RURAL;(79)34313366;49511899.0;SE;Itabaiana;2016;5
7052;11851;2426366;-3.17368626594534;-39.477052688597496;UNIDADE BASICA DE SAUDE MARINHEIROS;VILA DOS PRACIANOS;S/N;CENTRO;88 3616-0017;62520000.0;CE;Itapipoca;2016;5
7059;11717;2644401;-3.751155138015641;-45.179364681242596;UBS DA FAMILIA DE REZINGA;POVOADO REZINGA;S/N;REZINGA;;65335000.0;MA;Bela Vista do Maranhão;2016;5
7061;11670;2310775;-4.569003582000599;-44.6167230606066;CENTRO DE SAUDE JERUSALEM;TRIZIDELA DO VALE;S/N;TRIZIDELA DO VALE;(99) 6421171;65727000.0;MA;Trizidela do Vale;2016;5
7064;11765;6635512;-7.47402518326653;-37.2750721852438;ESF DE RIACHO DO MEIO II;POVOADO JUAZEIRINHO;100;JUAZEIRINHO;;56700000.0;PE;São José do Egito;2016;5
7066;11784;2653060;-11.49126;-39.43045;UNIDADE SAUDE DA FAMILIA LAGINHA;POVOADO DE LAGINHA;S/N;POV LAGINHA;(75) 2021299;48750000.0;BA;Retirolândia;2016;5
7068;11897;2712350;-9.04570925087953;-36.847275968433706;PSF BELA VISTA;POVOADO BELA VISTA;S/N;BELA VISTA;(87)37861096;55345000.0;PE;Iati;2016;5
7071;11998;2319403;-9.02724915072048;-36.5646966592672;UNIDADE DE SAUDE DA FAMILIA MANDACARU;RUA A;S/N;CENTRO;(87)37891156;55325000.0;PE;Brejão;2016;5
7073;11763;2459086;-2.07177042961115;-44.5647740364062;POSTO DE SAUDE DE CARAPIRA;POVOADO DE CARAPIRA;S/N;CENTRO;;65255000.0;MA;Guimarães;2016;5
7075;11908;2564106;-4.939737815364019;-37.975431296901;UNIDADE BASICA DE SAUDE JARDIM DE SAO JOSE;SITIO JARDIM DE SAO JOSE;S/N;ZONA RURAL;(88)4110318;62900000.0;CE;Russas;2016;5
7077;11738;2490439;-5.31206678256848;-41.10185139367029;PS DE JATOBA MEDONHO;JATOBA MEDONHO;S/N;ZONA RURAL;;64345000.0;PI;Buriti dos Montes;2016;5
7081;11746;5097142;-4.95769858360276;-47.746367454527395;UNIDADE BASICA DE SAUDE NOVA CONQUISTA;RUA DO CAMPO;S/N;NOVA CONQUISTA;;65930000.0;MA;Açailândia;2016;5
7082;11844;6999166;-14.061856269836;-42.6515007019031;UNIDADE DE SAUDE DA FAMILIA FLORISVALDO RODRIGUES SOARES;COMUNIDADE DE AROEIRAS;S/N;ZONA RURAL;;46400000.0;BA;Caetité;2016;5
7086;11767;3742288;-15.2608729973509;-39.4132815657126;USF ARATACA I;RUA CASTRO ALVES;100;CENTRO;(73)36731277;45695000.0;BA;Arataca;2016;5
7087;11695;2364093;-7.29502691351019;-35.6176892168186;USF VII CHA DOS PEREIRAS;SITIO CHA DOS PEREIROS;S/N;ZONA RURAL;8332891033;58380000.0;PB;Ingá;2016;5
7088;11991;7140770;-3.89242824393603;-38.420498371124296;UBSF JACUNDA;RUA CHICO MENDES;S/N;JACUNDA;;61700000.0;CE;Aquiraz;2016;5
7090;11645;3517306;-15.033496197201199;-41.260033479020294;USF SAGRADA FAMILIA;FAZENDA PERI PERI;01;ZONA RURAL;7734372016;45160000.0;BA;Belo Campo;2016;5
7093;11694;2704544;-9.480825662612641;-37.671754360197895;C S DR PEDRO JOSE DOS SANTOS;AV BERNARDES SOARES DE SOUZA;S/N;POVOADO PIAU;(82)36861113;57460000.0;AL;Piranhas;2016;5
7097;11710;2478420;-3.79895774308494;-40.2587689981082;UNIDADE BASICA DE SAUDE TRAPIA;DISTRITO DE TRAPIA;S/N;ZONA RURAL;6191133;62115000.0;CE;Forquilha;2016;5
7099;11602;2005522;-10.126;-36.176;USF BOTAFOGO;RUA DO POSTO;S/N;POVOADO BOTAFOGO Z;(82)2737522;57230000.0;AL;Coruripe;2016;5
7102;11806;2504898;-6.8926227092740895;-38.56126070022471;UNIDADE SAUDE DA FAMILIA DR VITAL ROLIM PADRE CICERO;PRACA PADRE CICERO;01;ESPERANCA;(83)05314399;58900000.0;PB;Cajazeiras;2016;5
7103;11691;2607700;-7.10168480873087;-35.6344985961904;UBSF IV ZUMBI;RUA SAO JOSE;236;ZUMBI;(8332732267;58388000.0;PB;Alagoa Grande;2016;5
7104;11607;2362759;-7.22149704;-35.8838591147815;UBS BENJAMIM B DA SILVA;RUA MANOEL BATISTA;S/N;CATINGUEIRA;(83)33106336;58421800.0;PB;Campina Grande;2016;5
7111;11712;2363585;-7.398229837417389;-35.1140427589406;UNIDADE DE SAUDE DA FAMILIA DE MANGUEIRA;RUA JOAO BOSCO DO NASCIMENTO;181;MANGUEIRA;(81)36351064;58328000.0;PB;Pedras de Fogo;2016;5
7112;14237;2345757;-8.07008028030372;-35.9715771675099;UBS JUA;RUA JOAO LUIZ FERREIRA;S/N;POVOADO JUA;(81)37011402;55111600.0;PE;Caruaru;2016;5
7114;11824;2415178;-7.23175278993044;-39.4083902977886;CENTRO DE SAUDE DA COHAB;CONJUNTO NOVO CRATO RUA 108;S/N;NOVO CRATO;8835233823;63100970.0;CE;Crato;2016;5
7115;11698;2413388;-14.760711193084301;-40.094239711760295;CENTRO DE SAUDE MANOEL NOVAIS;RUA DR EZEQUIEL BATISTA;S/N;MARINHO FREITAS;(73) 2712515;45280000.0;BA;Iguaí;2016;5
7116;11704;2487357;-12.1341825924055;-38.4226157693395;UNIDADE DE SAUDE DA FAMILIA BOA UNIAO;PRACA MANOEL TEIXEIRA LEAL;S/N;BOA UNIAO;;48103000.0;BA;Alagoinhas;2016;5
7117;11616;3491315;-14.3626079430408;-40.200521893825396;UNIDADE DE SAUDE JOAQUIM ABADE;RUA ALTO DO CRUZEIRO;02;ALTO DO CRUZEIRO;(77) 34332218;45250000.0;BA;Boa Nova;2016;5
7119;11744;6673538;-5.6936860084532;-36.232609748839295;POSTO DE SAUDE CLARICE PEREIRA;RUA FRANCISCO COSTA ALECRIM;S/N;COHAB;3532-2126;59535000.0;RN;Lajes;2016;5
7122;11718;2418770;-7.88270415387533;-41.5966339439158;PS DE SANTO ANTONIO;ZONA RURAL;S/N;ZONA RURAL;(89)34891201;64740000.0;PI;Conceição do Canindé;2016;5
7123;11648;3994988;-12.22928425248;-38.9600330963213;ESF DO JUSSARA;RUA JUSSARA;S/N;JUSSARA;7532267351;44007340.0;BA;Feira de Santana;2016;5
7127;11630;2003600;-10.260318517684599;-36.55859470367329;UNIDADE DA SAUDE DA FAMILIA DR ALCIDES DOS SANTOS ANDRADE;AVENIDA BRASIL;S/N;SANTA IZABEL;;57200000.0;AL;Penedo;2016;5
7129;11615;2755963;-7.1102300000000005;-34.87639;USF INTEGRADA ILHA DO BISPO;RUA APOLONIO SALES MIRANDA;S/N;ILHA DO BISPO;(83) 3218-5980;58020720.0;PB;João Pessoa;2016;5
7133;11956;6773338;-6.240183021140339;-42.6850242313083;UBS ALTO DO BALANCO;AV ALBERTO LEAL NUNES;S/N;ALTO DO BALANCO;862931385;64490000.0;PI;Regeneração;2016;5
7136;11903;2638118;-8.11098;-35.29634;U S F MARIO BEZERRA;QUADRA 58;100;MARIO BEZERRA;(81)35231111;55614340.0;PE;Vitória de Santo Antão;2016;5
7142;11788;2458403;-6.626440286636161;-44.269344806669906;UNIDADE BASICA DE SAUDE DE ROCADO;AV DOMINGOS SERTAO;S/N;POVOADO;;65870000.0;MA;Pastos Bons;2016;5
7144;11726;4026799;-12.243501016417598;-41.6179588573911;UNIDADE DE SAUDE DA FAMILIA OSVALDO TEIXEIRA DE ALMEIDA;RUA JOAO PEIXOTO MAGALHAES;S/N;MORUMBI;75 33642128;46980000.0;BA;Iraquara;2016;5
7145;11739;2371855;-6.5759388639372895;-39.8784828186035;POSTO DE SAUDE DE SAO JOSE;DISTRITO DE SAO JOSE;S/N;SAO JOSE;3526-1722;63590000.0;CE;Saboeiro;2016;5
7146;11634;3207048;-5.58527112007125;-35.228111743926;UBS JACUMA;RUA PRAIA DE JACUMA;S/N;PRAIA;;59570000.0;RN;Ceará-Mirim;2016;5
7147;11827;2326027;-6.44940513691504;-41.928722314402;SMS NOVO ORIENTE PSF;AV TANCREDO NEVES;03;DIRCEU MENDES;;64530000.0;PI;Novo Oriente do Piauí;2016;5
7149;11745;2362201;-7.22149704;-35.8838591147815;POLICLINICA LUZIA COSME DANTAS;RUA PLINIO LEMOS;S/N;ALVARO GAUDENCIO;(83)33107194;58432870.0;PB;Campina Grande;2016;5
7157;11914;2321548;-7.22370290861475;-37.2515615776267;ESF II JOSE MOURA MORORO;RUA VERONICA MARCELINO;S/N;AGUA AZUL;(83)4721830;58735000.0;PB;Teixeira;2016;5
7162;11608;2527189;-6.79184585564321;-39.2989329971137;UNIDADE BASICA DE SAUDE DO BAIRRO PATOS;RUA JOAO SOARES;130;PATOS;5411152;63540000.0;CE;Várzea Alegre;2016;5
7171;11730;2608561;-7.3309315;-35.3375333858727;PSF COSTA E SILVA;R BATISTA FREIRE;58;CONJ COSTA E SILVA;;58360000.0;PB;Itabaiana;2016;5
7173;11794;3504794;-12.731097949790303;-38.5304486902402;UNIDADE DE SAUDE DA FAMILIA PASSE;RUA RIO DO CUNHA;S/N;DISTRITO DE PASSE;(71) 6013635;43806200.0;BA;Candeias;2016;5
7179;12228;2450402;-7.537104678706008;-46.0342597961426;U S F POVOADO BATAVO;POVOADO BATAVO;S/N;ZONA RURAL;;65800000.0;MA;Balsas;2016;5
7180;12354;2663937;-7.236280000000002;-39.41278;CENTRO DE SAUDE DR RAIMUNDO BEZERRA DE FARIAS;RUA VALDEMAR DE ALENCAR LUNA;S/N;VILA ALTA;(88)5234448;63100970.0;CE;Crato;2016;5
7182;12400;2402289;-13.7437807885112;-39.4863240792918;USF DA BELA VISTA;RUA BELA VISTA;S/N;BELA VISTA;73 3254-1988;45450000.0;BA;Gandu;2016;5
7183;12052;3914453;-6.52492709513081;-38.407027010152795;UNIDADE DE SAUDE DA FAMILIA III DR JOSE LEONAN F JUNIOR;RUA PROJEDATA;S/N;GARRAFAO;(83)35342939;58915000.0;PB;Uiraúna;2016;5
7188;12062;2480948;-5.185226200000002;-40.6682386;PSF DO BAIRRO CENTRO;RUA GOMES COUTINHO;630;SAO VICENTE;;63700000.0;CE;Crateús;2016;5
7193;12112;2524112;-12.157294750213303;-39.458041191099895;UNIDADE DE SAUDE DA FAMILIA DO BRAVO;AV CONTORNO;S/N;BRAVO;(75)36091204;44660000.0;BA;Serra Preta;2016;5
7194;12083;2464543;-2.3215644;-46.0972209;CENTRO DE SAUDE JOSE TORRES EVANGELISTA;RUA DO COMERCIO;S/N;CENTRO;;65288000.0;MA;Centro do Guilherme;2016;5
7197;12150;4032055;-12.757723331451;-45.9472489356981;ESTRATEGIA SAUDE DA FAMILIA MARCOS KONISHI;RODA VELHA DE CIMA;S/N;ZONA RURAL;(77)36232216;47820000.0;BA;São Desidério;2016;5
7200;12280;2363364;-7.79257077750369;-36.661532855169895;UNIDADE BASICA SAUDE DA FAMILIA II CONGO;RUA LINDOLFO CAMPOS;S/N;CENTRO;83-333591041;58535000.0;PB;Congo;2016;5
7202;12355;2325268;-4.76305063948266;-42.5783745315456;PS EMA;VILA EMA;S/N;ZONA RURAL;(86)2641329;64110000.0;PI;José de Freitas;2016;5
7203;12350;2343975;-8.80064964294408;-36.349983215331;PSF DE VOLTA DO RIO;POVOADO VOLTA DO RIO;S/N;ZONA RURAL;(81)37841152;55435000.0;PE;São João;2016;5
7205;12297;2369478;-10.530953407287301;-44.5920467376696;PS GENIPAPO PSF;LOC GENIPAPO;S/N;ZONA RURAL;;64970000.0;PI;Parnaguá;2016;5
7210;12101;2401177;-12.911489262312903;-39.188094169582;USF ANTONIA BARRETO PITON;RUA DO CRUZEIRO;S/N;CENTRO;(75) 6482151;44560000.0;BA;Dom Macedo Costa;2016;5
7211;12031;6549365;-5.198404837425571;-39.2943542269635;UNIDADE BASICA DE SAUDE MARIA DA CONCEICAO DE A LIMA;RUA BENZINHO BARATA;S/N;ANTONIO SISNANDO;(88)34411112;63800000.0;CE;Quixeramobim;2016;5
7217;12249;2463792;-2.832616567611609;-42.3075556755054;UBSF BOM GOSTO;BOM GOSTO;S/N;CENTRO;(98) 4791423;65580000.0;MA;Tutóia;2016;5
7220;12316;2435462;-8.5945057868955;-35.4507136344899;UNIDADE DE SAUDE DA FAMILIA DE CUIAMBUCA;ENGENHO CUIAMBUCA B;S/N;ZONA RURAL;(81)36791113;55530000.0;PE;Gameleira;2016;5
7222;12094;2477092;-9.69789147376986;-37.8276228904713;UNIDADE DE SAUDE DA FAMILIA EDINALDO VIEIRA BARROS;RUA SANTA LUZIA;S/N;CUYABA;(79) 3461960;49820000.0;SE;Canindé de São Francisco;2016;5
7225;12255;2637758;-7.83048;-34.91547;USF AGAMENON MAGALHAES II;ESTRADA DO MONJOPE;473;LOT AGAMENON;(81)35431772;53610000.0;PE;Igarassu;2016;5
7227;12323;5414253;-11.643587350845001;-38.928422927855294;UNIDADE DE SAUDE DA FAMILIA TRES ESTRADAS;TRES ESTRADAS;S/N;ZONA RURAL;75-3261-8312;48700000.0;BA;Serrinha;2016;5
7228;12296;2372134;-3.87696445102036;-38.6244186465865;UBS DR ALARICO LEITE;RUA PATATIVA ASSARE;S/N;PARQUE SAO JOAO;(85)3392-8603;61910000.0;CE;Maracanaú;2016;5
7229;12162;2770652;-9.42856;-40.52113;USF QUIDE;RUA DA CAIXA;S/N;QUIDE;(74)611 2766;48901200.0;BA;Juazeiro;2016;5
7235;12397;2528193;-6.36055472004591;-39.2999056781645;UNIDADE DE PSF DO RIACHO VERMELHO;VILA RIACHO VERMELHO;S/N;ZONA RURAL;;63511000.0;CE;Iguatu;2016;5
7237;12330;2799138;-12.7275538444515;-39.8718094825733;UNIDADE BASICA DE SAUDE DA FAMILIA DE LAGEDO ALTO;RUA DA CORRIDA;S/N;LAGEDO ALTO;(75)3325-6047;46860000.0;BA;Iaçu;2016;5
7242;12132;2770873;-9.414;-40.503;USF CSU I;ROD LOMANTO JUNIOR;S/N;CASTELO BRANCO;(74)6112766;48903400.0;BA;Juazeiro;2016;5
7246;12102;3900495;-4.58601815914006;-42.8629297159505;UNIDADE DE SAUDE ANA NERY;POVOADO DAVID CALDAS;S/N;RURAL;;64120000.0;PI;União;2016;5
7248;12055;2524139;-11.6808593273159;-39.001893997191296;UNIDADE DE SAUDE DA FAMILIA DA CIDADE NOVA;RUA LAMARAO;S/N;CIDADE NOVA;(75)2612555;48700000.0;BA;Serrinha;2016;5
7250;12358;5470234;-3.33028435707083;-43.53903293609489;UNIDADE BASICA DE SAUDE AGUIDA CARNEIRO DE MESQUITA;RUA JOSE CARNEIRO DE MATOS;S/N;MIGUEL FERNANDES;;65440000.0;MA;São Benedito do Rio Preto;2016;5
7251;12118;2772388;-12.4001884013071;-38.755556916441705;USF ITAPICURU B;RUA RAULINO BASTOS;00001;ITAPICURU;(75)2422021;44230000.0;BA;Amélia Rodrigues;2016;5
7252;12043;7572638;-7.0995724950230885;-39.6724864840508;UNIDADE BASICA DE SAUDE DA FAMILIA TERREIRO DURO;SITIO TERREIRO DURO;S/N;TERREIRO DURO;88 35461669;63165000.0;CE;Nova Olinda;2016;5
7254;12212;3490386;-13.393545250139804;-44.1983088657849;USF MACAMBIRA II;RUA VILA NOVA;S/N;VILA NOVA;(77)34938922;47640000.0;BA;Santa Maria da Vitória;2016;5
7255;12254;2823462;-13.2914185523983;-43.907546997069;UNIDADE DE SAUDE DA FAMILIA DE PORTO NOVO;PCA DA MATRIZ;S/N;PORTO NOVO;;47700000.0;BA;Santana;2016;5
7257;12186;2504677;-6.8904645;-38.5605303718409;UNIDADE SAUDE DA FAMILIA SIMAO DE OLIVEIRA;RUA JUVENCIO CARNEIRO;388;CENTRO;(83)05314399;58900000.0;PB;Cajazeiras;2016;5
7258;12303;3045897;-7.017846400000002;-42.127424100000006;USF DR PEDRO BARBOSA;AV DESEMBARGADOR CANDIDO MARTINS;S/N;CENTRO;;64500000.0;PI;Oeiras;2016;5
7259;12087;5413958;-12.7751199192362;-38.9188814371553;UNIDADE DE SAUDE DA FAMILIA DONA PRUDENCIA ROSA;RUA MONTE CASTELO;S/N;CAPA GATO;;44420000.0;BA;Maragogipe;2016;5
7260;12364;2607972;-6.85332;-35.37993;UBS PSF VI TAINHA;SITIO TAINHA;S/N;ZONA RURAL;(83)2741048;58270000.0;PB;Araçagi;2016;5
7266;12223;2494701;-13.855664007664002;-40.088607327476296;USF DR MILTON RABELO;RUA ADEMAR DE BARROS;01;KM 04;(73)3527-8581;45211352.0;BA;Jequié;2016;5
7267;12279;6433391;-4.83955516829761;-37.7823914809586;UBASF JOAO CELEDONIO DA SILVA;SITIO PATOS;S/N;ZONA RURAL;(88) 34181619;62823000.0;CE;Jaguaruana;2016;5
7268;12158;2486555;-14.871636629104199;-40.863776206969;USF PROFESSOR NELSON BARROS;RUA IBIASSUCE;S/N;PATAGONIA;7734228120;45065450.0;BA;Vitória da Conquista;2016;5
7274;12272;5657326;-12.0337039631625;-38.771650778379396;USF DRA JOCELINA SILVA GOMES;LOTEAMENTO IPE;S/N;CENTRO;;44255000.0;BA;Irará;2016;5
7277;12320;2326604;-5.3610491752623;-42.6782369613635;CS USF DE DEMERVAL LOBAO PSF;R DA GLORIA;604;CENTRO;(86) 32601329;64390000.0;PI;Demerval Lobão;2016;5
7278;12103;2400448;-13.8717091083523;-40.10464668273811;USF DRA ISA CLERIA BORGES;AV OTAVIO MAGABEIRA;S/N;KM 03;(73)3527-8570;45210002.0;BA;Jequié;2016;5
7285;12105;2402718;-14.864273042783001;-40.5763729895987;USF DE BARRA NOVA;DISTRITO DE BARRA NOVA;S/N;ZONA RURAL;(77) 999071300;45120000.0;BA;Barra do Choça;2016;5
7287;12242;2481383;-4.05192732810962;-38.3637213706959;UBSF MARIA DE JESUS MAIA;AVENIDA CANDIDO BENICIO SAMPAIO;S/N;CAPONG BERNARDA;3612105;61700000.0;CE;Aquiraz;2016;5
7292;12125;6296017;-5.49714835330496;-36.85287460465421;POSTO DE ROSA MARIA AVELINO;AVENIDA JOAO PAULO II;10;PRESIDENTE LULA;33353902;59508000.0;RN;Ipanguaçu;2016;5
7293;12084;2514354;-12.028406888033302;-38.867161807705294;USF GOVERNADOR PAULO SOUTO;POVOADO ALTO ALEGRE;S/N;ZONA RURAL;(75)694 2141;44260000.0;BA;Santanópolis;2016;5
7312;12040;6679242;-7.903954982757338;-35.9881424903859;PSF DR JAIME JUSTINIANO DE SANTANA;LOTEAMENTO DANILO ANDRADE;S/N;CENTRO;;55770000.0;PE;Vertentes;2016;5
7313;12359;2726246;-3.89330148696888;-38.6162567138661;UBSF ELZA ALVES CAVALCANTE;AV B;S/N;PLANALTO BENJAMIN;3451291;61814004.0;CE;Pacatuba;2016;5
7314;12221;2375176;-6.335571703201151;-35.3170907892286;CENTRO DE SAUDE NOSSA SENHORA DA PIEDADE;RUA ALUIZIO BEZERRA;S/N;CENTRO;;59180000.0;RN;Espírito Santo;2016;5
7315;12146;2372789;-4.17476322117715;-38.123273042146295;CENTRO DE SAUDE DE BEBERIBE;RUA JOSE DE PAULA PEROBA;S/N;CENTRO;08533381256;62840000.0;CE;Beberibe;2016;5
7319;12193;2424037;-15.1171982288356;-40.0682330131519;CENTRO DE SAUDE MANOEL RODRIGUES SANTOS;TRAV LANDULFO ALVES;44;CENTRO;(73)26511033;45710000.0;BA;Itororó;2016;5
7322;12202;2372738;-4.17476322117715;-38.123273042146295;UNIDADE BASICA DE SAUDE DE SUCATINGA;RUA LUIS BARBOSA;S/N;VIL SUCATINGA;08533274254;62840000.0;CE;Beberibe;2016;5
7328;12351;2651033;-3.91687273979176;-41.7109465599048;UBS JACAREI DE BAIXO;LOCALIDADE JACAREI DE BAIXO;S/N;ZONA RURAL;(86)33432606;64240000.0;PI;Piracuruca;2016;5
7329;12269;2520222;-12.71797;-38.56172;USF DE JABEQUARA DE AREIA;RUA T;S/N;JABEQUARA;(71)3651-8558;43900000.0;BA;São Francisco do Conde;2016;5
7332;12088;5867363;-12.904139757156;-43.20684671401849;UNIDADE DE SAUDE DA FAMILIA DA LAGOA DANTA;BA 160 KM 91;S/N;ZONA RURAL;(77) 3664-2138;47500000.0;BA;Paratinga;2016;5
7333;12314;5053242;-7.22149704;-35.8838591147815;UBS MONTE SANTO;RUA AGRIPINO DINIZ;58;MONTE SANTO;(83)33106002;58404041.0;PB;Campina Grande;2016;5
7334;12329;5390028;-6.06143832206708;-43.0656766891467;PS FELISMINA SOARES RIBEIRO PSF;LOCALIDADE CASTELO;S/N;CENTRO;;64420000.0;PI;Palmeirais;2016;5
7341;12313;2451530;-3.1697165966033;-42.2811627387988;UBSF DE MAMORANA;POVOADO MAMORANA;S/N;POVOADO;(98)4771139;65550000.0;MA;São Bernardo;2016;5
7342;12205;6326420;-14.317814111709199;-39.327192306517404;USF EDMILSON COSTA CARNEIRO;RUA HUGO CASTELO BRANCO;S/N;ACM;;45675000.0;BA;Aurelino Leal;2016;5
7343;12387;2664208;-2.88806;-40.11866;UNIDADE SAUDE DA FAMILIA DE CAUASSU;POVOADO DE CAUASSU;S/N;CAUASSU;6611718;62580000.0;CE;Acaraú;2016;5
7345;12338;2482444;-3.723805035;-38.589927555043204;UAPS CESAR CALS 6;RUA CAPITAO ARAGAO;555;AEROLANDIA;(85)34729069;60851150.0;CE;Fortaleza;2016;5
7346;12292;3493741;-9.4231;-40.4774;USF CAJ;PROJETO CAJ;S/N;ITAMOTINGA;;48903400.0;BA;Juazeiro;2016;5
7350;12339;3885313;-14.3224918842312;-39.465615749358;USF ELTON DOS SANTOS VASCONCELOS;RUA D PEDRO II;100;CENTRO;;45540000.0;BA;Gongogi;2016;5
7354;12134;3006948;-7.15690160218846;-34.900078857421896;USF INTEGRADA SAUDE PARA TODOS;AVENIDA MARTA DA LUZ;S/N;BAIRRO DOS NOVAIS;(83) 3218-9186;58088620.0;PB;João Pessoa;2016;5
7356;12209;2480077;-4.74395073194117;-40.9263795102653;CENTRO DE SAUDE DE PORANGA;AVENIDA DR EPITACIO PINHO;S/N;VILA NOVA;8281227;62220000.0;CE;Poranga;2016;5
7359;12287;2344548;-8.03094148635841;-35.844097137450106;POSTO DE SAUDE DE PINHOES PSF II;VILA PINHOES;S/N;VILA;(81)37451133;55120000.0;PE;Riacho das Almas;2016;5
7364;12340;2450186;-7.5365996360776615;-46.05275630950789;U S F BAIRRO CATUMBI;RUA SAO JOSE;S/N;CATUMBI;;65800000.0;MA;Balsas;2016;5
7366;12200;2327597;-4.04472699;-40.8644898757611;UBS DE INHUCU;DISTRITO DE INHUCU;S/N;DISTRITO DE INH;6263004;62370000.0;CE;São Benedito;2016;5
7367;12309;2517248;-2.562;-44.054;UNIDADE BASICA DE SAUDE VILA SARNEY FILHO;RUA 03;13;VILA SARNEY FILHO;;65110000.0;MA;São José de Ribamar;2016;5
7369;12149;2417464;-15.6585001945491;-40.0668811798084;CENTRO DE SAUDE EZEQUIEL BATISTA;RUA JOAO PESSOA;S/N;CENTRO;(73) 2662276;45780000.0;BA;Itarantim;2016;5
7375;12131;2800225;-9.890672960941801;-39.024071242689;UNID DE SAUDE DA FAMILIA PSF BENDEGO;POVOADO DE BENDEGO;S/N;ZONA RURAL;;48520000.0;BA;Canudos;2016;5
7376;12220;6425763;-4.02658581733692;-38.9719605445851;UBS NOSSA SENHORA DO CARMO;LAGOA DO JUVENAL;00000;LAGOA DO JUVENAL;8533414118;61988000.0;CE;Maranguape;2016;5
7378;12395;2477076;-9.65410406729849;-37.7879637221177;UNIDADE DE SAUDE DA FAMILIA ANTONIO APOLONIO COSTA;AV ANTONIO CARLOS VALADARES;S/N;TORRE;(79) 3461960;49820000.0;SE;Canindé de São Francisco;2016;5
7380;12106;2406624;-5.13504624366745;-42.777907848356904;UNIDADE BASICA DE SAUDE DR DURVALINO COUTO;AV ERCINIO FORTES;S/N;BELA VISTA;(86) 32159158;64031090.0;PI;Teresina;2016;5
7384;12289;2004712;-9.50998663902255;-36.9036769866933;UNIDADE DE SAUDE DA FAMILIA DO TEIXEIRA;SITIO TEIXEIRA;S/N;ZONA RURAL;(82)4221131;57570000.0;AL;Cacimbinhas;2016;5
7391;12237;2334593;-6.85265779495219;-35.47852277755629;UBS NORDESTE II FRANCISCO ARAUJO DO NASCIMENTO FILHO;RUA JOSE AMERICO DE ALMEIDA;S/N;NORDESTE II;( );58200000.0;PB;Guarabira;2016;5
7392;12317;2493632;-12.5299707907046;-38.2972993248088;UNIDADE DE SAUDE DA FAMILIA ZILDA FEITOSA DIAS;RUA ALAMEDA DAS AMENDOEIRAS;S/N;IMBASSAI;(71)6351628;48280000.0;BA;Mata de São João;2016;5
7395;12236;2603551;-6.78327441215495;-35.4938864707936;UNIDADE DE SAUDE DA FAMILIA I DR JOSE PEREIRA DOS S FILHO;RUA JOSE CRUZ;227;CENTRO;(83)2771018;58213000.0;PB;Pirpirituba;2016;5
7398;12144;7166427;-4.346;-46.401;UNIDADE DE SAUDE V VICINAL;RUA PRINCIPAL;S/N;POVOADO V VICINAL;(98) 3664-6575;65393000.0;MA;Buriticupu;2016;5
7403;12275;2343940;-8.84194493293736;-36.4102578163136;PSF DE ANDA SO;SITIO ANDA SO;S/N;ZONA RURAL;(81)37841152;55435000.0;PE;São João;2016;5
7405;12390;2506297;-17.8933917821787;-39.3720115380737;USF 05 AV MARECHAL CASTELO BRANCO;AVENIDA MARECHAL CASTELO BRANCO;S/N;CASTELO POSTO DA M;;45928000.0;BA;Nova Viçosa;2016;5
7408;12270;4021665;-10.582419633865;-40.1945972442615;USF OSVALDO RIBEIRO DE SOUZA;POVOADO DE CALDEIRAO DO MULATO;S/N;POV CALDEIRAO MULATO;;44780000.0;BA;Antônio Gonçalves;2016;5
7413;12076;2603934;-3.73809814453114;-44.722573757170295;UNIDADE DE SAUDE RAIMUNDO DOS MULUNDUS DA SILVA;POVOADO LAPELA;S/N;ZONA RURAL;(98) 3751043;65340000.0;MA;Conceição do Lago-Açu;2016;5
7415;12140;3455440;-2.90374875068656;-40.1727104187;UBSF IZAIAS JOSE DO NASCIMENTO;AVENIDA TENENTE ALBANO;S/N;TUCUNS;;62595000.0;CE;Cruz;2016;5
7416;12231;2721155;-9.931610389742447;-36.4715218222232;UNIDADE BASICA DE SAUDE DA FAMILIA RETIRO;POVOADO DO RETIRO;S/N;ZONA RURAL;(82)5411318;57270000.0;AL;Junqueiro;2016;5
7422;12109;2514370;-11.012420654296598;-44.51634407043329;UNIDADE BASICA DE SAUDE MAE BIRROCHA;RUA PROFESSOR ELPIDIO SANTANA;151;CENTRO;(77) 36251313;47150000.0;BA;Santa Rita de Cássia;2016;5
7425;12349;2413183;-12.584999799728001;-42.6326823234546;POSTO SATELITE DE CACHOEIRA;POVOADO CACHOEIRA;S/N;ZONA RURAL;(77)36472155;46700000.0;BA;Ibitiara;2016;5
7426;12128;5058546;-9.1747059108515;-39.0595150265112;UNIDADE BASICA DE SAUDE DA SEDE;RUA DO CAMPO;100;CENTRO;75 3284-2159;48650000.0;BA;Macururé;2016;5
7429;12305;2665646;-6.45913883139328;-37.09648877119221;UNIDADE DE SAUDE DA FAMILIA IV WALFREDO GURGEL;RUA JOAO FRANCISCO DE MEDEIROS;S/N;WALFREDO GURGEL;(84) 34172691;59300000.0;RN;Caicó;2016;5
7432;12050;3538400;-13.2469797134396;-43.3998370170581;UNIDADE BASICA DE SAUDE CLARA ELISA GONZALES;RUA PRINCESA ISABEL;S/N;VILA MAIA;(77)34815039;47600000.0;BA;Bom Jesus da Lapa;2016;5
7433;12337;2645238;-4.2114329338072505;-44.783234596251106;CENTRO DE SAUDE SETUBAL;RUA DA CRUZ;40;SETUBAL;(99)3621 1881;65700000.0;MA;Bacabal;2016;5
7434;12241;26328;-8.03215;-34.87724;US 262 PSF JOSE SEVERIANO DA SILVA;AV JERONIMO VILELA;794;CAMPO GRANDE;(81) 3232-7719;52040180.0;PE;Recife;2016;5
7437;12335;2457032;-1.91340208053583;-45.824210643767;UNID DE SAUDE DA FAMILIA DO POVOADO PORTAO;POVOADO PORTAO;S/N;ZONA RURAL;(98) 33712017;65284000.0;MA;Governador Nunes Freire;2016;5
7443;12170;2423286;-10.8845973014828;-37.2081184387196;U S F MANOEL JUVINO SANTOS CARDOSO;POVOADO CARDOSO;S/N;CARDOSO;;49100000.0;SE;São Cristóvão;2016;5
7447;12389;5728878;-4.834413528442241;-47.5932240486131;UNIDADE BASICA DE SAUDE NOVA VITORIA;ASSENTAMENTO NOVA VITORIA;S/N;NOVA CONQUISTA;;65930000.0;MA;Açailândia;2016;5
7449;12145;5223;-12.960562705993302;-38.447663784026;UBS EUNISIO COELHO TEIXEIRA;RUA JURUCUTUS;S/N;SABOEIRO;(71) 3611-5412/13;41180780.0;BA;Salvador;2016;5
7454;12133;2328143;-6.4030230045316685;-39.5816802978504;CENTRO DE SAUDE NENEN BARROS;DISTRITO DE VILA MEL;S/N;DISTRITO DE VILA MEL;;63580000.0;CE;Jucás;2016;5
7457;12278;2531526;-4.5703107;-45.1304773;UNIDADE BASICA DE SAUDE DO POVOADO TRES LAGOS;POV TRES LAGOS;1;TRES LAGOS;(98) 6441401;65715000.0;MA;Lago da Pedra;2016;5
7462;12394;3507513;-3.39043021202078;-44.3639516830431;UBS MARIA JOSE DAS NEVES OLIVEIRA MARTINS;BR 222;S/N;TRIZIDELA;(98)34632433;65485000.0;MA;Itapecuru Mirim;2016;5
7464;12129;2369672;-4.2760686932553496;-41.7785048523536;UBSF VISTA ALEGRE PSF 01;RUA PROFESSOR BEM;S/N;VISTA ALEGRE;(86) 32764620;64260000.0;PI;Piripiri;2016;5
7468;12192;5546869;-15.6590655;-40.0666145;USF EDVALSON GONCALVES;RUA JOAQUIM PESSOA;01;CENTRO;7332662110;45780000.0;BA;Itarantim;2016;5
7470;12108;2808935;-7.140810000000001;-34.88918;USF INTEGRADA CRUZ DAS ARMAS;AVENIDA CRUZ DAS ARMAS;S/N;CRUZ DAS ARMAS;83 32156134;58085330.0;PB;João Pessoa;2016;5
7471;12091;2409461;-6.06859445571882;-38.004541397093604;POSTO DE SAUDE PEDRO NOLASCO;SITIO BAIXA GRANDE;S/N;ZONA RURAL;(84)33772195;59810000.0;RN;Portalegre;2016;5
7472;12176;2451379;-4.98544335365281;-44.69828367233149;CENTRO DE SAUDE MARLY SARNEY PSFSB;RUA MENDES PEREIRA;S/N;CENTRO;(99) 6371593;65755000.0;MA;Joselândia;2016;5
7473;12268;2345900;-8.177851438522097;-35.96833705902;UBS RAFAEL;RUA ERNESTO BRANCO;122;VILA RAFAEL;(81)37124480;55008000.0;PE;Caruaru;2016;5
7476;12253;2343002;-7.001241445541179;-34.8313593864431;USF PE ALFREDO BARBOSA;R NILO MONTENEGRO;S/N;CAMBOINHA III;;58103676.0;PB;Cabedelo;2016;5
7477;12023;3749878;-11.307463645934696;-41.8658494949329;UBSF RAIMUNDO C SOMBRA PAULO FREIRE;TEOTONIO OTACILIO MARQUES DOURADO;03;PAULO FREIRE;07436414791;44900000.0;BA;Irecê;2016;5
7478;12025;7637756;-4.51208316185346;-44.6841430664062;UNIDADE BASICA DE SAUDE CHICO CHICOTE;LOTEAMENTO SAO JOSE;S/N;SANTO ANTONIO DOS OL;;65727000.0;MA;Trizidela do Vale;2016;5
7479;12171;4332;-12.919814586639;-38.442363739012606;UBS PIRES DA VEIGA;RUA JAIME VIEIRA LIMA;S/N;PAU DA LIMA;(71) 3611-7831;40080002.0;BA;Salvador;2016;5
7481;12097;7130333;-3.834;-44.893;UNIDADE BASICA DE SAUDE MARIA ANEDINA DE MATOS;POVOADO ANDIROBAL DOS MACIES;S/N;ZONA RURAL;;65340000.0;MA;Conceição do Lago-Açu;2016;5
7482;12198;2458683;-2.50888466835015;-44.0323662757861;UNIDADE BASICA DE SAUDE DO PANAQUATIRA;AV PANAQUATIRA;S/N;PANAQUATIRA;;65110000.0;MA;São José de Ribamar;2016;5
7483;12382;3517187;-12.668522049407198;-38.5332404920119;UNIDADE DE SAUDE DA FAMILIA DO SARANDI;RUA TOME DE SOUZA;S/N;SARANDI;(71) 6013635;43820255.0;BA;Candeias;2016;5
7484;12153;2010860;-9.276752471923562;-35.7226467132558;2010860 USF 04 C S CLIMERIO W SARMENTO;RUA CORONEL ALCANTARA;S/N;CENTRO;(82)32561128;57995000.0;AL;Flexeiras;2016;5
7485;12181;3013316;-11.50171;-39.61154000000001;UNIDADE DE SAUDE DA FAMILIA SANTO ANTONIO;POV SANTO ANTONIO;S/N;POV STO ANTONIO;75-3695-2211;48895000.0;BA;São Domingos;2016;5
7486;12785;2452324;-5.10068111012935;-42.8337278988596;E S F DO BAIRRO CONJUNTO BOA VISTA 01 04;RUA NOVE;S/N;BOA VISTA;;65631640.0;MA;Timon;2016;5
7487;12756;2433036;-7.84423249520262;-35.3126019234256;PSF MANOEL MACHADO DE AMORIM;ROVPE 90 KM 40;S/N;CAMPO ALEGRE;;55820000.0;PE;Lagoa do Carro;2016;5
7489;12662;2010267;-9.77993457613103;-36.0942642743776;UNIDADE BASICA DE SAUDE ROBERTO CORREIA DE OLIVEIRA;QUADRA A 4;S/N;HELIO JATOBA III;(82)32712002;57240970.0;AL;São Miguel dos Campos;2016;5
7490;12411;2360403;-3.0134940147399;-45.14550447463861;UNIDADE DA ESF DE SAO FELIPE;POVOADO SAO FELIPE;S/N;POVOADO SAO FELIPE;(98)33510913;65215000.0;MA;Viana;2016;5
7492;12700;2713985;-7.92517;-34.91896;USF EMBRIOES I;AV D;S/N;CAETES I;(81)35426703;53540200.0;PE;Abreu e Lima;2016;5
7495;12727;3444627;-1.96188569068903;-45.199964046477;PSF DE OUTEIRO;POVOADO;S/N;POVOADO;;65276000.0;MA;Turilândia;2016;5
7497;12657;2313553;-6.76825404167156;-38.227443695067294;ESF VIII ZU SILVA;RUA RAIMUNDA XAVIER DE SOUSA;27;CONJ DR ZEZE;(83)5222684;58800190.0;PB;Sousa;2016;5
7501;12742;3033570;-8.16539146735745;-34.921173467260296;USF FREI DAMIAO I;RUA CAMARATINGA;S/N;SANTO ALEIXO;81 3379-6100;54120250.0;PE;Jaboatão dos Guararapes;2016;5
7503;12424;2463873;-2.7928447723387904;-42.2802400588977;UBSF DE PORTO DE AREIA;PORTO DE AREIA;S/N;PORTO DE AREIA;98-34791562;65580000.0;MA;Tutóia;2016;5
7508;12517;2321203;-6.905969381332201;-37.6012873649586;USF I MARIA DALVA RAMALHO;RUA OZORIO QUEIROGA DE ASSIS;S/N;CENTRO;0(83)8151-6336;58714000.0;PB;Condado;2016;5
7509;12507;2607646;-7.132165431976111;-35.8389472961415;UBSF FLORIANO;SITIO FLORIANO;S/N;ZONA RURAL;(83) 3366-1997;58117000.0;PB;Lagoa Seca;2016;5
7516;12709;2478099;-4.3357157707213085;-40.155780315398005;CENTRO DE SAUDE OTAVIO LOBO;RUA JOSE MARIA CATUNDA;S/N;CENTRO;6280331;62280000.0;CE;Santa Quitéria;2016;5
7519;12690;2309300;-2.53838896751396;-44.2029976844775;CENTRO DE SAUDE SALOMAO FIQUENE;AVENIDA LESTE OESTE;S/N;COHATRAC II;;65052020.0;MA;São Luís;2016;5
7523;12617;2375648;-5.7895555402052805;-35.331156093085205;UNIDADE BASICA DE SAUDE DA FAMILIA DE GUAJIRU;RUA MARIA DE FATIMA MAGALHOES;S/N;GUAJIRU;;59290185.0;RN;São Gonçalo do Amarante;2016;5
7524;12714;2597810;-9.41071709622786;-40.503552159443394;USF LAGOA DO SALITRE;DISTRITO LAGOA DO SALITRE;S/N;DISTRITO DE JUNCO;(74)611 2766;48903400.0;BA;Juazeiro;2016;5
7525;12719;2465574;-3.2440888881682404;-46.2245464324938;UNIDADE BASICA DE SAUDE MARIA ALVES COSTA DO NASCIMENTO;RUA ANTONI0 MEDEIROS;S/N;POVOADO CONQUISTA;;65365000.0;MA;Zé Doca;2016;5
7533;12781;4448;-12.9661953449246;-38.464550971983705;UBS DO CSU PERNAMBUES;RUA TOMAZ GONZAGA;150;PERNAMBUES;(71) 3611-9010;41130000.0;BA;Salvador;2016;5
7536;12459;2475820;-6.66398433637305;-37.3949730105827;UNIDADE BASICA DE SAUDE PAULINA BEZERRA DE FARIA MARIZ;RUA LEONIDAS GOMES FILHO;01;ARECIO BATISTA DE FA;;59318000.0;RN;Serra Negra do Norte;2016;5
7544;12610;2502038;-5.18513917922959;-37.36671209335221;UBS DR CHICO PORTO;AV MOTA NETO;30;OURO NEGRO;( );59607000.0;RN;Mossoró;2016;5
7548;12511;2592436;-7.07507729530314;-36.732530593871004;ESTRATEGIA SAUDE DA FAMILIA RITA DE SOUZA;RUA TEREZA BALDUINO;S/N;CENTRO;8334661079;58685000.0;PB;Assunção;2016;5
7551;12685;2703793;-7.928867340087661;-37.5855374336232;USF QUITIMBU;VILA QUITIMBU;S/N;ZONA RURAL;;56640000.0;PE;Custódia;2016;5
7552;12606;2409909;-6.38009754919079;-37.3492178522692;CENTRO DE SAUDE DE JARDIM DE PIRANHAS;RUA CEL JOAO FLORENCIO;421;SAO JOSE;;59324000.0;RN;Jardim de Piranhas;2016;5
7555;12626;2714191;-8.658803701400501;-35.1521944999685;PSF RUA DA LAMA;LAMA;S/N;CENTRO;;55570000.0;PE;Rio Formoso;2016;5
7559;12427;2721759;-9.782;-36.351;UBS 14 E 16 JOSE EGIDIO;AV GUARANI;270;CENTRO;( )82275111;57250000.0;AL;Campo Alegre;2016;5
7560;12426;6706320;-7.387397999999999;-38.772795438031004;ESF VILA DE FATIMA;AV BURITI GRANDE;S/N;VILA DE FATIMA;;63210000.0;CE;Mauriti;2016;5
7562;12481;2714809;-8.26427221298194;-39.8451161384571;USF JACARE;POVOADO JACARE;S/N;POVOADO;(87)38831015;56163000.0;PE;Parnamirim;2016;5
7565;12611;2503638;-5.142556428909152;-37.3472929000844;UBS DR MOISES COSTA LOPES;RUA SENADOR RUI CARNEIRO;S/N;REDENCAO I;(84)3186470;59619720.0;RN;Mossoró;2016;5
7567;12741;2481014;-5.17695055079545;-40.668400130844795;PSF DA LOCALIDADE DE QUEIMADAS;RUA PRINCIPAL;S/N;QUEIMADAS;;63700000.0;CE;Crateús;2016;5
7570;12675;2721724;-9.897115230560019;-36.22267484664809;UBS 07 E 20 EXPEDITO SERGIO DOS SANTOS;POVOADO LUZIAPOLIS;S/N;ZONA RURAL;;57250000.0;AL;Campo Alegre;2016;5
7572;12608;2474220;-5.505456265773821;-35.262074868072;UBS NOSSA SENHORA DA CONCEICAO;RUA SAO CRISTOVAO;S/N;CENTRO;(84)32612211;59580000.0;RN;Maxaranguape;2016;5
7575;12792;2422689;-10.2925180922231;-37.0221808560785;USF GETULIO VARGAS;AVENIDA GETULIO VARGAS;S/N;CENTRO;;49790000.0;SE;Aquidabã;2016;5
7577;12739;6157068;-3.2631540298461004;-45.65269947051871;UNIDADE BASICA DE SAUDE BENEDITO DA LUZ;GUARANI;S/N;SAO FRANCISCO;;65365000.0;MA;Zé Doca;2016;5
7584;12707;2414961;-6.0856103897093;-39.2199039459217;POSTO DE SAUDE DE SANTA FELICIA;DISTRITO STA FELICIA;S/N;RURAL;0000000;63560000.0;CE;Acopiara;2016;5
7590;12601;7575122;-10.276748498637199;-37.9208564758301;UNIDADE DE SAUDE DA FAMILIA LAGOA DO VELHO;POVOADO LAGOA DO VELHO;S/N;ZONA RURAL;;48590000.0;BA;Coronel João Sá;2016;5
7593;12432;2697831;-14.82557;-39.3133;USF MANOEL RODRIGUES;PRACA DE FERRADAS;S/N;FERRADAS;;45600200.0;BA;Itabuna;2016;5
7601;12678;2453975;-4.90500926971421;-43.353166580198895;UBS ITAPECURUZINHO;RUA GRANDE;135;ITAPECURUZINHO;;65606600.0;MA;Caxias;2016;5
7607;12782;2635313;-7.576;-40.49800000000001;PACS CIPAUBA;SITIO CIPAUBA;S/N;ZONA RURAL;;56280000.0;PE;Araripina;2016;5
7610;12771;3020037;-13.39855;-44.20566;USF DO PLANALTO;RUA 12 DE OUTUBRO;S/N;DR ROBERTO;(77)4835242;47640000.0;BA;Santa Maria da Vitória;2016;5
7611;12581;2410664;-5.646178722381428;-35.4321956634511;UBS NOVA DESCOBERTA;RUA NOVE;S/N;CENTRO;(84)274 9012;59570000.0;RN;Ceará-Mirim;2016;5
7613;12533;5522544;-12.7690665495628;-40.2266824121475;UNIDADE BASICA DE SAUDE DA FAMILIA DA BOIADEIRA II;AVENIDA PROFIRIO MAGALHAES NETO;S/N;BOIADEIRA;;46860000.0;BA;Iaçu;2016;5
7614;12647;2375230;-6.2770915257477;-35.501343234040604;CENTRO DE SAUDE JOSE TEIXEIRA DE SOUZA;RUA JOSE CORREIA DE ANDRADE;S/N;CENTRO;(84) 3284-0024;59258000.0;RN;Serrinha;2016;5
7616;12715;2354276;-7.59512543678262;-35.233905315398104;PSF JOAO BORBA MARANHAO;R 02;S/N;COHAB;(81)36371250;55890000.0;PE;Aliança;2016;5
7617;12658;2343924;-8.87755937542735;-36.368253076532895;PSF DA LIBERDADE;RUA DA LIBERDADE;325;CENTRO;(81)37841152;55435000.0;PE;São João;2016;5
7618;12593;2410583;-5.60428261756881;-35.3082132339467;UBS COQUEIROS;RUA SERGIO VARELA NETO;1016;ZONA RURAL;084 3228 8132;59570000.0;RN;Ceará-Mirim;2016;5
7621;12798;3524035;-5.52246501943405;-43.201208282913;UNIDADE DE SAUDE DA FAMILIA DO POVOADO ONCA;POVOADO ONCA;S/N;ZONA RURAL;;65645000.0;MA;Matões;2016;5
7627;12636;2375567;-5.7840013504026615;-35.284073352812705;UBS REGO MOLEIRO VEREADORA MARIA DO CARMO DE BRITO;POVOADO DE BARREIRO;S/N;BARREIRO;(84)214 3663;59298622.0;RN;São Gonçalo do Amarante;2016;5
7629;12774;2559714;-5.791176102858679;-37.5537021978471;UNIDADE BASICA DE SAUDE RAIMUNDO NONATO DE MORAIS;SITIO APANHA PEIXE;S/N;ZONA RURAL;;59780000.0;RN;Caraúbas;2016;5
7630;12413;2532581;-12.10303902626;-37.69119501113779;UNIDADE SAUDE DA FAMILIA DE BAIXIO;POVOADO BAIXIO;S/N;BAIXIO;(75) 4271360;48370000.0;BA;Esplanada;2016;5
7634;12750;2598019;-9.47342;-40.49929;USF JOAO PAULO II JOSE CARLOS TANURY;RUA DA LIBERDADE;16;JOAO PAULO II;7436123600;48914004.0;BA;Juazeiro;2016;5
7641;12800;2525194;-13.285657167434303;-38.9646649360645;UNIDADE DE SAUDE DA FAMILIA DO GUAIBIM;RUA DO TAMARINEIRO;S/N;SAO JOSE;75 36419595;45400000.0;BA;Valença;2016;5
7647;12550;3023346;-13.714735507964699;-41.2428045272815;USF DO CAMPO GRANDE;POVOADO DO CAMPO GRANDE;S/N;CAMPO GRANDE;;46640000.0;BA;Ituaçu;2016;5
7649;12418;2713314;-7.859640748665;-40.0370979309082;USF CARA BRANCA;VILA SAO FRANCISCO;01;ZONA RURAL;(87)38741595;56200000.0;PE;Ouricuri;2016;5
7651;12403;2529653;-7.19741821289042;-45.6329584121691;UNIDADE BASICA DE SAUDE SAO FRANCISCO;POVOADO CANTO GRANDE;S/N;ZONA RURAL;(98);65840000.0;MA;São Raimundo das Mangabeiras;2016;5
7654;12764;2422123;-9.92511749267549;-37.4803090095509;UNIDADE DE SAUDE DA FAMILIA DO POVOADO LINDA FRANCA;POVOADO LINDA FRANCA;S/N;ZONA RURAL;;49800000.0;SE;Porto da Folha;2016;5
7655;12607;3775453;-5.505456265773821;-35.262074868072;UBS NOSSA SENHORA DA GUIA;RUA DA CUMOA;S/N;CARAUBAS;;59580000.0;RN;Maxaranguape;2016;5
7656;12693;5373263;-4.32050228118884;-46.45167589187489;UNIDADE DE SAUDE DA FAMILIA BREJINHO;AV PRINCIPAL;S/N;VILA BREJINHO;98-3664-7538;65393000.0;MA;Buriticupu;2016;5
7659;12770;2561980;-3.6056325;-38.972075865280296;UNIDADE BASICA DE SAUDE WALTER R ARAUJO;PRAIA DA TAIBA;S/N;TAIBA;;62670000.0;CE;São Gonçalo do Amarante;2016;5
7661;12755;2322188;-7.50814802202896;-38.4032833862304;UNIDADE MISTA DE SAUDE PAULO BEZERRA;RUA OSORIO PINTO RAMALHO;325;CENTRO;(83)4541043;58980000.0;PB;Ibiara;2016;5
7662;12474;6265987;-4.44430232048022;-45.328752994535996;UNIDADE BASICA DE SAUDE CENTRO DOS LEITE;POVOADO CENTRO DOS LEITE;S/N;POVOADO;;65716000.0;MA;Paulo Ramos;2016;5
7664;12718;2631032;-8.35545610783496;-36.6955147218979;POSTO DE SAUDE CAIC;RUA 05;S/N;COHAB II;;55200000.0;PE;Pesqueira;2016;5
7667;48500;7083440;-6.9929999999999986;-41.13800000000001;UBS JOSE IDELFONSO DE BARROS;RUA 24 DE DEZEMBRO;S/N;CENTRO;89 3450 1216;64645000.0;PI;Francisco Santos;2016;5
7670;12793;4031687;-13.393545250139804;-44.1983088657849;USF DE INHAUMAS;INHAUMAS;S/N;ZONA RURAL;;47640000.0;BA;Santa Maria da Vitória;2016;5
7671;12710;2422697;-10.285391505433301;-37.0188283386231;CENTRO DE SAUDE DE AQUIDABA;RUA GENERAL ADEMAR MESSIAS ARAGAO;317;CENTRO;;49790000.0;SE;Aquidabã;2016;5
7675;12409;2326760;-7.56208062171914;-45.233845710753094;PS DE VILA NOVA;R SAO JOAO;S/N;VILA NOVA;(89) 35671378;64865000.0;PI;Ribeiro Gonçalves;2016;5
7678;12735;2323087;-6.34132146835309;-42.824513912199706;PS ARARAS;POVOADO ARARAS;S/N;ZONA RURAL;;64400000.0;PI;Amarante;2016;5
7679;12632;7561644;-6.25813;-38.30949;CENTRO DE SAUDE ANTONIO GABRIEL NETO;RUA NOVO TEMPO;55;SAO GONCALO;;59987000.0;RN;Riacho de Santana;2016;5
7681;12761;2500043;-8.78384828567479;-35.812554359435;CENTRO DE SAUDE DE MARAIAL;RUA DR JOSE HIGINO;47;CENTRO;(81)36831025;55405000.0;PE;Maraial;2016;5
7682;12646;2559528;-6.07046571160569;-35.2402746487129;UBS ARENA;DISTRITO DE ARENA;S/N;ZONA RURAL;;59162000.0;RN;São José de Mipibu;2016;5
7684;12579;2410656;-5.64654350280745;-35.3514719009389;UBS MASSANGANA;POVOADO DE MASSANGANA;S/N;ZONA RURAL;(84)3274 9288;59570000.0;RN;Ceará-Mirim;2016;5
7687;12578;2375214;-6.192579058700041;-35.35735405404179;UBS JOAO PAULO;CONJ JOAO PAULO II;S/N;SITIO TABULEIRO;;59219000.0;RN;Brejinho;2016;5
7689;12733;2344416;-8.24011277651398;-35.464740812514;PSF URBANO II;R JOSE ALVES VARELA;S/N;CENTRO;(81)35371315;55636000.0;PE;Chã Grande;2016;5
7691;12616;2375605;-5.79477310180647;-35.3284478187551;CENTRO DE S G DO AMARANTE;RUA TENENTE MANOEL CAVALCANTE;S/N;CENTRO;(84)2782394;59291598.0;RN;São Gonçalo do Amarante;2016;5
7698;12754;2487683;-14.8480048115856;-40.8398095371781;USF NESTOR GUIMARAES;PRACA JOSE ARCANJO DOS SANTOS;479;JUREMA;7734228128;45000500.0;BA;Vitória da Conquista;2016;5
7699;12457;2563746;-4.74394507677328;-37.96623516109739;UNIDADE BASICA DE SAUDE CANTO DA CRUZ;CANTO DA CRUZ;S/N;ZONA RURAL;;62910000.0;CE;Palhano;2016;5
7700;12729;2591286;-6.050065755843941;-44.2364287376391;UNIDADE BASICA DE SAUDE PIQUETE;POVOADO PIQUETE;S/N;ZONA RURAL;(99)35521221;65690000.0;MA;Colinas;2016;5
7701;12775;6439934;-14.9403870105739;-41.8298435211169;UNIDADE DE SAUDE DA FAMILIA ARACAS II;PRACA CORONEL JOSE MOREIRA CORDEIRO;104;ZONA RURAL;7734472114;46280000.0;BA;Cordeiros;2016;5
7702;12651;2605066;-7.55132;-38.50796;UNID BAS PSF SAO GERALDO;PROJETADA;S/N;SAO GERALDO;(83)4532450;58970000.0;PB;Conceição;2016;5
7706;12788;2564009;-4.939737815364019;-37.975431296901;UNIDADE BASICA DE SAUDE VARZEA ALEGRE;RUA MIGUEL REINALDO MACIEL;S/N;VARZEA ALEGRE;;62900000.0;CE;Russas;2016;5
7707;12492;2345447;-7.687565088271871;-39.9991393089283;USF 03 BELARMINO GONCALVES DE SOUZA;VILA SIPAUBA;1;VILA SIPAUBA;(81)38781142;56220000.0;PE;Bodocó;2016;5
7708;12765;2565072;-4.84251565928671;-39.137467531557604;UNIDADE DE SAUDE DA FAMILIA DE MONTE CASTELO;MONTE CASTELO;S/N;MONTE CASTELO;(88)4381080;63950000.0;CE;Choró;2016;5
7712;12760;2523531;-14.8091626167293;-39.2743635177601;UBS DR JOSE EDITES DOS SANTOS;RUA FLORESTA;S/N;SAO CAETANO;(73)6175598;45607050.0;BA;Itabuna;2016;5
7714;12590;6735185;-12.1176172753513;-45.00426471233371;USF ANTONIA ZELIA XV;RUA OTACILIO FRANCA;S/N;VILA AMORIM;;47813470.0;BA;Barreiras;2016;5
7717;12740;2459906;-3.6248767375945;-43.1745314598071;CLINICA DA FAMILIA BENEDITO GREGORIO;POVOADO DE LAGOINHA;S/N;POVOADO;;65510000.0;MA;Mata Roma;2016;5
7719;12779;2591804;-6.7858815193174316;-35.6245851516713;UNIDADE BASICA DE SAUDE PSF II;SITIO MARIA DO O;S/N;ZONA RURAL;(83)3601036;58394000.0;PB;Borborema;2016;5
7722;12429;2565560;-5.499461889266808;-39.3068504333485;UNIDADE BASICA DE SAUDE BENTO CORREIA DE ALBUQUERQUE;VILA DE ENCANTADO;S/N;ZONA RURAL;93565621;63800000.0;CE;Quixeramobim;2016;5
7724;12438;2527537;-7.390093751117789;-38.7232875823975;ESF COITE;AVENIDA BRASIL;S/N;COITE;5521411;63210000.0;CE;Mauriti;2016;5
7725;12637;5512379;-7.522186200000001;-35.3313782;PSF NOVA VIDA;RUA 15 DE NOVEMBRO;S/N;CENTRO;8136310907;55870000.0;PE;Timbaúba;2016;5
7726;12420;3525821;-8.98244976997349;-36.52778148651021;UNIDADE DE SAUDE DA FAMILIA VILA FERREIRA;VILA FERREIRA;S/N;ZONA RURAL;(87)37891154;55325000.0;PE;Brejão;2016;5
7727;12406;2432242;-9.12866550151904;-36.3297018953137;USF POCO COMPRIDO;DISTRITO DE POCO COMPRIDO;S/N;POCO COMPRIDO;(87)37721158;55315000.0;PE;Correntes;2016;5
7730;12684;2631245;-8.528856039046989;-35.8524656295766;USF DE FORMIGUEIRO;SITIO FORMIGUEIRO;S/N;RURAL;;55670000.0;PE;São Joaquim do Monte;2016;5
7731;12655;2347644;-7.71812641014088;-37.846445619545705;PSF MARIA DAS DORES PEREIRA DE CARVALHO;RUA BENEDITO PEREIRA DE CARVALHO;S/N;CENTRO;(81)38548152;56828000.0;PE;Quixaba;2016;5
7732;12604;4012917;-4.98220324516282;-37.154817581175706;CASA DE SAUDE E MAT ANA M GONCALVES;AV CORONEL SOLON;S/N;CENTRO;(84)3272418;59675000.0;RN;Grossos;2016;5
7733;12674;7698798;-9.77599;-36.35051;UBS 15 LUANA KELLY DOS SANTOS;POVOADO PIMENTEIRA;S/N;CENTRO;8232751183;57250000.0;AL;Campo Alegre;2016;5
7734;12516;6529291;-10.7342066123577;-40.357159193636;UNIDADE DE SAUDE FAMILIA DA LAGE;RUA FRANCISCO ROCHA;1;LAGE;7435482383;44770000.0;BA;Pindobaçu;2016;5
7736;12703;2414716;-15.2540659904476;-40.2406239509571;CENTRO DE SAUDE JOSE MENDONCA LUNA;AV GERSON DE OLIVEIRA;S/N;NOVA ITAPETINGA;(77) 2611701;45700000.0;BA;Itapetinga;2016;5
7737;12421;3549704;-13.501170000000002;-42.07167000000001;UNIDADE DE SAUDE DA FAMILIA SEDE I;AVENIDA BARRA;16;CENTRO;(77)36772150;46180000.0;BA;Érico Cardoso;2016;5
7738;12552;2592819;-6.8105149269102006;-34.9354934692373;UNIDADE DE SAUDE DA FAMILIA DE TANQUES;SITIO TANQUES;S/N;ZONA RURAL;(83);58297000.0;PB;Rio Tinto;2016;5
7740;12777;2429012;-7.40926386;-35.110627357431696;UNIDADE DE SAUDE DA FAMILIA QUEBEC;RUA PROJETADA;S/N;QUEBEC;;55920000.0;PE;Itambé;2016;5
7741;12422;2533103;-11.2387528666866;-41.7555812001228;UNIDADE DE SAUDE DA FAMILIA HORACIO FERNANDES DA FONSECA;POV ANGICAL;01;CENTRO;(74)6414791;44900000.0;BA;Irecê;2016;5
7748;12933;2380935;-6.25682115554791;-38.2144618034352;POSTO DE SAUDE DA VACA MORTA;SITIO VACA MORTA;S/N;ZONA RURAL;;59970000.0;RN;Marcelino Vieira;2016;5
7753;12888;2721317;-9.992741346358963;-36.4894795417775;POSTO DE SAUDE TABULEIRO DE DENTRO;POVOADO TABULEIRO DE DENTRO;S/N;ZONA RURAL;(82)5421355;57275000.0;AL;São Sebastião;2016;5
7755;12935;6890;-12.970999999999998;-38.511;USF DE BARREIRAS;RUA FERNANDO PEDREIRA;240;BARREIRAS;99243-8820;41195200.0;BA;Salvador;2016;5
7756;12901;6860141;-2.9506015777587;-45.663900375364896;UNIDADE DE SAUDE DA FAMILIA DE ARAGUANA;RUA DA ASSEMBLEIA DE DEUS;51;CENTRO;;65368000.0;MA;Araguanã;2016;5
7760;13001;2433826;-8.316;-36.293;UBS IGREJINHA;SITIO IGREJINHA;S/N;RURAL;;55140000.0;PE;Tacaimbó;2016;5
7761;12917;3234029;-6.4027011394498885;-43.4600901603686;POSTO DE SAUDE DOS TINGUIS GIZELDA CARVALHO RIBEIRO;POVOADO TINGUIS;S/N;ZONA RURAL;99 35531124;65668000.0;MA;Sucupira do Riachão;2016;5
7763;13014;2367645;-9.07094898367372;-44.3605250848238;UBS HELIO FIGUEREDO DA FONSECA;RUA NOVA;S/N;JOSUE PARENTE;;64900000.0;PI;Bom Jesus;2016;5
7768;13044;2427648;-7.51174567401951;-35.3187721210384;PSF CRUZEIRO II PSF ALTO DO CRUZEIRO II;RUA PROF ARAO TEODOMIRO DE SOUZA;S/N;ALTO DO CRUZEIRO;(81)36310131;55870000.0;PE;Timbaúba;2016;5
7769;12880;5310598;-3.74541880170377;-39.7922381150856;CENTRO DE SAUDE DA FAMILIA TANCREDO GOMES DA MOTA;RUA JOSE TEIXEIRA MATOS;S/N;CRUZEIRO;(88) 3635-1666;62620000.0;CE;Irauçuba;2016;5
7772;13034;2346427;-8.020521767497598;-34.9957213563856;USF SANTA MARIA;RUA CANDELARIA;S/N;ALBERTO MAIA;(81)34580257;54771680.0;PE;Camaragibe;2016;5
7776;12959;2327651;-4.055789709091069;-40.939414501189;UBS DA FAZENDINHA;SITIO FAZENDINHA;S/N;SITIO FAZENDINHA;0000000;62370000.0;CE;São Benedito;2016;5
7777;12950;2600838;-10.7556810441524;-39.2097303271294;CENTRO DE SAUDE DE QUIJINGUE USF SEDE I;AVENIDA PRESIDENTE GETULIO VARGAS;S/N;CENTRO;(75)4872176;48830000.0;BA;Quijingue;2016;5
7778;12994;5197945;-3.9239645004271297;-41.71761989593379;UBS BAIXA DA EMA;CONJUNTO SAO RAIMUNDO;S/N;BAIXA DA EMA;33432606;64240000.0;PI;Piracuruca;2016;5
7782;13036;5310601;-3.74541880170377;-39.7922381150856;CENTRO DE SAUDE DA FAMILIA JOSE RODRIGUES MOTA;RUA VALMAR BRAGA;1254;ESPERANCA;(88) 3635-1666;62620000.0;CE;Irauçuba;2016;5
7789;12939;2460513;-6.5083158016202916;-43.3075261116015;POSTO DESAUDE CARAIBA DOS LOPES;CARAIBA DOS LOPES;S/N;POVOADO;(98)5231323;65660000.0;MA;Barão de Grajaú;2016;5
7792;12871;2719517;-9.60326;-37.24795;CENTRO DE SAUDE DE MONTEIROPOLIS;RJUSCELINO KUBITSCHEL;S/N;CENTRO;;57440000.0;AL;Monteirópolis;2016;5
7793;12876;2310953;-3.6937129497527;-43.0220103263842;UBSF DE JOSE ANTONIO MARQUES DE FARIAS;POVOADO AGUA RICA;S/N;AGUA RICA;;65525000.0;MA;Anapurus;2016;5
7794;12887;2651092;-6.515347629776;-41.5823863012861;P S SITIO STO ANTONIO;SITIO SANTO ANTONIO;S/N;ZONA RURAL;(89)4671144;64308000.0;PI;Lagoa do Sítio;2016;5
7797;12809;3843572;-13.985606431960699;-44.0472579002368;UBS DA BARRINHA;POVOADO DA BARRINHA;S/N;ZONA RURAL;;46445000.0;BA;Carinhanha;2016;5
7799;13015;7303416;-5.898149772869719;-35.2045026049018;UBS NOVA PARNAMIRIM II ENF JOAO DIAS;ESPLANADA NELIO DIAS;10;NOVA PARNAMIRIM;;59153050.0;RN;Parnamirim;2016;5
7802;12895;2368781;-4.0690505504607;-42.7532958984363;PSF CIPRIANO AZEVEDO;OLHO DAGUA DOS AZEVEDOS;S/N;ZONA RURAL;(86)32441165;64130000.0;PI;Miguel Alves;2016;5
7805;13020;5933838;-9.53196244231297;-36.436741595943104;UNIDADE DE SAUDE DA FAMILIA LUCILA FONSECA;POVOADO BONITO;S/N;ZONA RURAL;;57635000.0;AL;Tanque d'Arca;2016;5
7806;12885;6294731;-6.067876624108219;-35.3320992692543;UBS SANTA LUZIA;SITIO SANTA LUZIA;S/N;ZONA RURAL;;59182000.0;RN;Monte Alegre;2016;5
7807;12886;2008467;-9.3842817;-36.15471420000001;UNIDADE BASICA DE SAUDE DIVA TOLEDO PSF;RUA DO PONTO;001;CENTRO;(82)32841225;57770000.0;AL;Cajueiro;2016;5
7812;12891;4023714;-10.505661554543801;-40.3188209870999;P S DA FAMILIA DO POVOADO DE TIQUARA;POVOADO DE TIQUARA;S/N;CENTRO;(74)3645 1312;44790000.0;BA;Campo Formoso;2016;5
7813;12919;2344335;-7.9551895;-36.20395001714571;UNIDADE DE SAUDE DA FAMILIA DO POCO FUNDO;RUA JOSE FRANCISCO DE MOURA;42;VILA POCO FUNDO;(81)37312424;55192000.0;PE;Santa Cruz do Capibaribe;2016;5
7818;12937;6793;-12.9382467269894;-38.4853219985951;USF NOSSA SENHORA DE GUADALUPE ALTO DO PERU;2 TRAVESSA DO ORIENTE;S/N;ALTO DO PERU;(71) 3235-7600;40357110.0;BA;Salvador;2016;5
7821;12873;6191118;-7.74832758583151;-37.6376860181022;ESTRATEGIA DE SAUDE DA FAMILIA DO POVOADO DE QUEIMADA GRANDE;SITIO QUEIMADA GRANDE;S/N;ZONA RURAL;;56800000.0;PE;Afogados da Ingazeira;2016;5
7824;12881;6768105;-3.4648990631102503;-43.905293941496495;UNIDADE BASICA DE SAUDE DR JOSE MARTINS;RUA MANOEL VICENTE;S/N;CENTRO;09834651397;65450000.0;MA;Nina Rodrigues;2016;5
7828;13010;5321476;-9.362787008285249;-40.616798400877705;UBS GILDEVANIA DE OLIVEIRA SILVA;VILA VELHA;S/N;N 5;;56304020.0;PE;Petrolina;2016;5
7831;12863;2458012;-4.19827799611915;-44.74668145179751;CENTRO DE SAUDE SAO PAULO APOSTULO;SAO PAULO APOSTULO;S/N;SAO PAULO APOSTULO;(99)36211881;65700000.0;MA;Bacabal;2016;5
7834;12834;2009501;-9.6545871;-36.2214093;UBS ORITENILA BATISTA DE MOURA PRACA PE CICERO;RUA ANTONIO DE BARROS LINS;S/N;CENTRO;;57680000.0;AL;Boca da Mata;2016;5
7835;13128;6517145;-9.178594574088619;-40.9757969268709;ESF VILA MASSU;PRACA DO CRUZEIRO;S/N;VILA MASSU;;47300000.0;BA;Casa Nova;2016;5
7842;13091;6420281;-8.51097589828508;-41.0107532143593;ESF JOSE RAMOS;RUA DOIS;S/N;JOSE RAMOS;;56360000.0;PE;Afrânio;2016;5
7844;13089;2474689;-5.5339014530180295;-35.822081565855896;PSF 2 SAO FRANCISCO;RUA JOSE SEVERIANO DA CAMARA;002;SAO FRANCISCO;3262212813;59550000.0;RN;João Câmara;2016;5
7849;12943;2665670;-6.44238710403424;-37.076647281645606;UNIDADE DE SAUDE DA FAMILIA II ALTO DA BOA VISTA;MARIA DANTAS;S/N;ALTO DA BOA VISTA;(84)34175986;59300000.0;RN;Caicó;2016;5
7861;12921;2479680;-4.52270865440356;-40.5908775329578;UNIDADE BASICA DE SAUDE COSMA MAURICIO DE SOUSA;RUA ANTONIO BARROS DE CARVALHO;S/N;DISTRITO DE CONCEICA;36384081;62270000.0;CE;Hidrolândia;2016;5
7870;12946;4029461;-10.6826591491696;-41.2867498397815;USF DO POVOADO DE ALAGADICO SENHOR ELIO DIAS REGO;POVOADO DE ALAGADIAO;S/N;CENTRO;(74)6812128;44718000.0;BA;Ourolândia;2016;5
7872;13002;2592436;-7.07507729530314;-36.732530593871004;ESTRATEGIA SAUDE DA FAMILIA RITA DE SOUZA;RUA TEREZA BALDUINO;S/N;CENTRO;8334661079;58685000.0;PB;Assunção;2016;5
7874;12807;3464415;-12.142360210418301;-38.8476991653431;USF JOAO PAULO II;POVOADO DO RETIRO;S/N;RETIRO;;44250000.0;BA;Coração de Maria;2016;5
7876;13073;3004570;-4.95282769203172;-36.8824553489674;USF DE PONTA DO MEL;PRAIA DE PONTA DO MEL;S/N;ZONA RURAL;;59655000.0;RN;Areia Branca;2016;5
7879;13062;3419037;-6.07046571160569;-35.2402746487129;UBS COHAB;RUA ITAPIRACA;S/N;CENTRO;;59162000.0;RN;São José de Mipibu;2016;5
7883;12882;2704536;-9.42474603652927;-37.714884281157396;UBS LUIZ LUNA TORRES;POVOADO LAGOA NOVA;S/N;CENTRO;(82)36861113;57460000.0;AL;Piranhas;2016;5
7885;12918;2720345;-9.65835193876391;-37.0035959132308;POSTO DE SAUDE CAMPO ALEGRE;POVOADO CAMPO ALEGRE;S/N;CENTRO;(82) 5331120;57425000.0;AL;Jaramataia;2016;5
7890;13000;2509083;-11.2693548202511;-42.0117187499988;UNIDADE DE SAUDE DA FAM FELIZARDA DA R MACHADO QUILOBOLAS;POVOADO DE QUEIMADA;S/N;POV DE QUEIMADA;(74)640 1010;44930000.0;BA;Presidente Dutra;2016;5
7891;13187;2431092;-7.519701719283838;-39.717099666594294;UNIDADE DE SAUDE DA FAMILIA VILA NOSSA SRA APARECIDA;R PEDRO APOLINARIO;S/N;CENTRO;;56230000.0;PE;Exu;2016;5
7892;13065;2723727;-3.81492733955372;-39.3346595764149;CENTRO DE SAUDE DA FAZ EXPERIMENTAL;FAZENDA EXPERIMENTAL DA UFC;S/N;FAZ EXPERIMENTAL;;62640000.0;CE;Pentecoste;2016;5
7893;12805;5086329;-10.4456162452695;-39.9722313880909;UNIDADE DE SAUDE DA FAMILIA DE RIACHO SECO;FAZENDA RIACHO SECO;S/N;RONA RURAL;7435291485;48990000.0;BA;Andorinha;2016;5
7894;13136;5512824;-11.9065940380093;-41.3161253929126;UNIDADE DE SAUDE DA FAMILIA DE BAIXA DO CHEIRO;POVOADO DE BAIXA DO CHEIRO;S/N;POVOADO DE BAIXA DO;75 9 9801-4847;46820000.0;BA;Bonito;2016;5
7897;12811;2408414;-5.750898537612059;-35.2522547280543;USF GRAMORE;AV GUARATINGUETA;S/N;LAGOA AZUL;32328245;59135500.0;RN;Natal;2016;5
7902;12822;6387799;-12.881748676299699;-38.4111428260792;USF CAJAZEIRAS XI;RUA JUCELINO KUBITSCHEK QD D;18;CAJAZEIRAS XI;(71) 36115353;41330400.0;BA;Salvador;2016;5
