index;gid;co_cnes;lat;long;no_fantasia;no_logradouro;nu_endereco;no_bairro;nu_telefone;co_cep;uf;cidade;ano_ubs_det;mes_ubs_det;lat_corrigida;long_corrigida;endereco_google
9592;15545;2724952;-5.9522080421446;-39.7381711006153;POSTO DE SAUDE DE CATOLE;DISTRITO DE CATOLE;S/N;CENTRO;5831699;63610000.0;CE;Mombaça;2016;5;-5.7451694;-39.6272966;Centro, Mombaça - CE, 63610-000, Brazil
9593;15329;2367122;-6.240183021140339;-42.6850242313083;PS BENJAMIN DO REGO MONTEIRO;RUA PARAIBA;S/N;BELA VISTA;(86)2931198;64490000.0;PI;Regeneração;2016;5;-7.239960900000001;-36.7819505;State of Paraíba, Brazil
9594;15296;2308444;-2.51165270805352;-44.2368149757372;CENTRO DE SAUDE AMAR;RUA DEPUTADO LUIS ROCHA;24;VICENTE FIALHO;;65070290.0;MA;São Luís;2016;5;-2.5107747;-44.2422385;Rua Deputado Luís Rocha, 24 - Vila Vicente Fialho, São Luís - MA, 65052-050, Brazil
9595;15231;2309262;-2.68136143684379;-44.2956519126879;CENTRO DE SAUDE DE PEDRINHAS I;BR 135 KM 13;S/N;PEDRINHAS;;65095603.0;MA;São Luís;2016;5;-2.6310702;-44.2636156;BR 135, KM 06, Bairro Maracanã CEP: 65.095-602, Brazil
9598;15542;2721007;-9.638487270779919;-36.5796842002284;UNIDADE DE SAUDE DA FAMILIA PEREIRA VELHO;SITIO PEREIRA VELHO;S/N;ZONA RURAL;;57325000.0;AL;Coité do Nóia;2016;5;-9.6325553;-36.5809891;Coité do Nóia, State of Alagoas, 57325-000, Brazil
9599;15432;7249098;-8.1965387156065;-34.9198722839355;USF CATAMARA;RUA CARACOL;S/N;CANDEIAS;;54430180.0;PE;Jaboatão dos Guararapes;2016;5;-8.1983446;-34.9318215;R. Caracol, 701 - Candeias, Jaboatão dos Guararapes - PE, 54430-180, Brazil
9600;15275;2606100;-6.69761538505535;-38.516650199889;USF JOAO FEITOSA DE AQUINO;DISTRITO;S/N;DISTRITO;;58910000.0;PB;São João do Rio do Peixe;2016;5;-6.727253399999999;-38.449499;São João do Rio do Peixe - State of Paraíba, Brazil
9601;15294;2644673;-3.05812597274771;-45.046262741087595;UNIDADE BASICA DE SAUDE SANTA VITORIA;POV SANTA VITORIA;6;ZONA RURAL;;65218000.0;MA;Matinha;2016;5;-3.0988588;-45.0354138;Matinha, State of Maranhão, 65218-000, Brazil
9602;15550;2007770;-9.53360127527465;-37.2978907897967;UBS NOVA BRASILIA;R N S APARECIDA;S/N;CENTRO;;57442000.0;AL;Olho d'Água das Flores;2016;5;-22.8469023;-45.23166519999999;Aparecida, State of São Paulo, 12570-000, Brazil
9603;15345;2307642;-4.14781909711357;-42.944180203607296;UNIDADE DE SAUDE DA FAMILIA DO POV MOCAMBO DOS MARQUES;POVOADO MOCAMBO DOS MARQUES;S/N;ZONA RURAL;98 34741224;65625000.0;MA;Duque Bacelar;2016;5;-4.1503996;-42.9480775;Duque Bacelar, MA, 65625-000, Brazil
9606;15543;2008513;-9.53368865946464;-36.62815971645;UNIDADE DE SAUDE DA FAMILIA DE CARAIBINHAS;POVOADO CARAIBINHAS;S/N;ZONA RURAL;;57620000.0;AL;Igaci;2016;5;-9.4900745;-36.68913089999999;Caraibinha, Igaci - AL, 57620-000, Brazil
9610;15276;2368250;-5.98983407020551;-41.928119659422606;PS DE ALTO ALEGRE PSF;LOC ALTO ALEGRE;S/N;ZONA RURAL;;64315000.0;PI;Santa Cruz dos Milagres;2016;5;-5.9861349;-41.912738;Alto Alegre, Santa Cruz dos Milagres - PI, 64315-000, Brazil
9615;15299;4014782;-6.18807175929035;-35.0926003671736;UBS PIAU;PIAU;S/N;DISTRITO;;59178000.0;RN;Tibau do Sul;2016;5;-6.2352095;-35.1330664;Piau, Tibau do Sul - RN, 59178-000, Brazil
9619;15212;2420538;-10.9153009698622;-37.666353409722;C S JOSEFA BARBOSA DOS REIS ROMAO;AV MACHADO;S/N;ALDEMAR DE CARVALHO;(79)6319620;49400000.0;SE;Lagarto;2016;5;-10.9116629;-37.6596738;Av. Machado - Ademar de Carvalho, Lagarto - SE, 49400-000, Brazil
9628;15264;4022211;-11.9429111480709;-42.032768726347705;POSTO DE SAUDE DE LAGOA DO PEIXE;POV LAGOA DO PEIXE;S/N;CENTRO;(74)6541373;44990000.0;BA;Barra do Mendes;2016;5;37.1356631;-8.451722799999999;8400 Lagoa, Portugal
9629;15284;5792452;-4.61354970931993;-44.7938990592944;UNIDADE BASICA DE SAUDE DE MORADA NOVA;POV MORADA NOVA;S/N;CENTRO;(99)36481178;65723000.0;MA;Bernardo do Mearim;2016;5;-4.6270462;-44.76114930000001;Bernardo do Mearim, MA, 65723-000, Brazil
9630;15356;2007606;-9.21992182731602;-37.751255035399296;CENTRO DE SAUDE DRDENISSON DE MENEZES;RUA MUNIZ FALCAO;S/N;CENTRO;(82) 6451481;57545000.0;AL;Inhapi;2016;5;-9.218549699999999;-37.7519772;R. Muniz Falcão, Inhapi - AL, 57545-000, Brazil
9631;15522;3446212;-7.14938202;-34.87338481353861;USF INTEGRADA QUATRO ESTACOES;RUA JUREMA TEOTONIO DA SILVA;S/N;MANGABEIRA;32139493;58058235.0;PB;João Pessoa;2016;5;-7.1673886;-34.8305471;R. Jurema Teotônio da Silva - Mangabeira VII, João Pessoa - PB, 58033-455, Brazil
9636;15584;2408457;-5.809557437896558;-35.235493183135;USF BOM PASTOR;RUA AUGUSTO CALHEIROS;S/N;BOM PASTOR;32328455;59052070.0;RN;Natal;2016;5;-5.809752800000001;-35.2354162;R. Augusto Calheiros - Bom Pastor, Natal - RN, 59052-080, Brazil
9641;15283;3043940;-12.624597099999999;-38.992552;USF DR JOSE MARIA DE MAGALHAES NETTO;RUA SABINO SILVA;12;CENTRO;(75)34242818;44340000.0;BA;Muritiba;2016;5;-12.6255307;-38.9918692;R. Sábino Santiago, Muritiba - BA, 44340-000, Brazil
9643;15500;3983854;-3.50022912025441;-39.5977950096119;UNIDADE BASICA DE SAUDE MOURAO;RUA JOAQUIM RODRIGUES TEIXEIRA;S/N;MOURAO;;62500785.0;CE;Itapipoca;2016;5;-3.4997893;-39.5988537;Rua Joaquim Rodrigues Teixeira - Mourão, Itapipoca - CE, 62540-000, Brazil
9644;15334;2426196;-3.4651458263396204;-39.42134857177621;UNIDADE BASICA DE SAUDE CEMOABA;AV JOAQUIM BARBOSA FILHO;S/N;CEMOABA;3531334;62655000.0;CE;Tururu;2016;5;-3.4676524;-39.4210968;Avenida Joaquim Barbosa Filho, Tururu - CE, 62655-000, Brazil
9647;15435;2009234;-9.15621;-35.53587;UNIDADE DE SAUDE DA FAMILIA SANTA CRUZ DO RIACHAO;FAZENDA SANTA CRUZ DO RIACHAO;S/N;ZONA RURAL;;57910000.0;AL;Matriz de Camaragibe;2016;5;36.9741171;-122.0307963;Santa Cruz, CA, USA
9650;15344;2325306;-4.76305063948266;-42.5783745315456;PSF VERTENTE;VIL A VERTENTE;S/N;ZONA RURAL;(86)2641329;64110000.0;PI;José de Freitas;2016;5;-4.757564599999999;-42.5761867;José de Freitas, State of Piauí, 64110-000, Brazil
9653;15561;2406810;-5.088365077972259;-42.736666202543894;UNIDADE BASICA DE SAUDE ALTO DA RESSURREICAO;RUA FRANCISCO LUCAS PEREIRA;7013;GURUPI;(86) 2159218;64090195.0;PI;Teresina;2016;5;-5.0823509;-42.7418148;Gurupi, Teresina - PI, Brazil
9656;15338;5173914;-7.8081;-37.7943;UNIDADE DE SAUDE DA FAMILIA PROFESSOR FERNANDO FIGUEIRA;POVOADO DE ROCA DE DENTRO;S/N;CENTRO;38541280;56820000.0;PE;Carnaíba;2016;5;-7.716667;-37.716667;Roça de Dentro, Carnaíba - PE, 56820-000, Brazil
9658;15324;4032675;-11.352599859237301;-40.2730464935291;PSF DE SALAMIM;POVOADO SALAMIM;S/N;POVOADO;7436312607;44710000.0;BA;Serrolândia;2016;5;-11.3519144;-40.2735144;R. da Serrinha, 73-151, Serrolândia - BA, 44710-000, Brazil
9661;15222;2463350;-5.25452256202682;-45.7666182517992;POSTO DE SAUDE CRIOLIZAO;POVOADO;S/N;CENTRO;(98)6432624;65948000.0;MA;Itaipava do Grajaú;2016;5;-5.1431995;-45.7892087;Itaipava do Grajaú, MA, 65948-000, Brazil
9663;15230;2422824;-10.9967327673046;-37.307826933068796;USF DO POVOADO NOVA DESCOBERTA;POVOADO NOVA DESCOBERTA;S/N;ZONA RURAL;;49120000.0;SE;Itaporanga d'Ajuda;2016;5;-11.0641436;-37.2861509;Itaporanga d'Ajuda - State of Sergipe, 49120-000, Brazil
9664;15341;2404885;-5.66612362861617;-42.2061038017261;POSTO MUNICIPAL DE SAUDE FUNDEC PSF;AV GETULIO VARGAS;290;CENTRO;(86)3250-1172;64370000.0;PI;Prata do Piauí;2016;5;-5.673045399999999;-42.2050202;Prata do Piauí, PI, 64370-000, Brazil
9666;15409;3434400;-13.81391;-41.29822;USF DA SEDE;RUA PLINIO DE CASTRO;S/N;CENTRO;;46640000.0;BA;Ituaçu;2016;5;-13.8172267;-41.2975335;R. Plínio de Castro, Ituaçu - BA, 46640-000, Brazil
9670;15260;2602318;-14.017489999999999;-39.88885;USF GILDA RAMOS DOS SANTOS;AV LOMANTO JUNIOR;S/N;CENTRO;(73)35352245;45225000.0;BA;Jitaúna;2016;5;-14.0188292;-39.8891397;Av. Lomanto Junior, Jitaúna - BA, 45225-000, Brazil
9672;15537;6562868;-7.63251543045022;-39.499304294585;PSF SANTO EXPEDITO;POVOADO DE CANTA GALO;S/N;RURAL;;56150000.0;PE;Moreilândia;2016;5;-7.6274465;-39.5513371;Moreilândia - State of Pernambuco, Brazil
9674;15201;2351390;-7.608233324198671;-34.9451065063477;PSF CARRAPICHO;VILA CARRAPICHO;01;TEJUCUPAPO;(81);55900000.0;PE;Goiana;2016;5;-7.6011905;-34.8941405;Tejucopapo, Goiana - PE, 55900-000, Brazil
9675;15213;2770644;-9.41071709622786;-40.503552159443394;USF MANICOBA II JATOBA;PROJETO DE IRRIGACAO MANICOBA;S/N;DIST MANICOBA II;(74)611 2766;48903400.0;BA;Juazeiro;2016;5;-9.249765;-40.296862;Maniçoba, Juazeiro - BA, Brazil
9677;15540;6427731;-9.94893550872774;-36.71214580535779;UNIDADE DE SAUDE DA FAMILIA CURRAL FALSO;SITIO CURRAL FALSO;21;ZONA RURAL;;57350000.0;AL;Campo Grande;2016;5;-20.4697105;-54.6201211;Campo Grande, State of Mato Grosso do Sul, Brazil
9678;15217;2414287;-13.034451362197;-39.5981225034895;UNIDADE DE SAUDE DA FAMILIA CORTA MAO;PRACA DOM JOAO NILTON;S/N;CORTA MAO;75 36349040;45300000.0;BA;Amargosa;2016;5;-13.0297318;-39.60207;Amargosa, State of Bahia, 45300-000, Brazil
9679;15282;3628426;-7.995;-35.580999999999996;USF ALTO DA ESPERANCA;ALTO DA ESPERANCA;S/N;ALTO DA ESPERANCA;(81)36511454;55650000.0;PE;Passira;2016;5;-7.9872289;-35.5746768;Alto da Esperança, Passira - PE, 55650-000, Brazil
9682;15437;2478986;-4.76214408874498;-39.4837045669544;POSTO DE SAUDE DE MACAOCA;BR 020 KM 256;S/N;ZONA RURAL;8120018;63860000.0;CE;Madalena;2016;5;-9.749375599999999;-43.2081501;BR-020, Brazil
9688;15474;6568955;-13.6789119243618;-39.12598371505621;PS DE ITABEROE;RODOVIA ITUBERA X VALENCA;S/N;RODOVIA;7332563269;45435000.0;BA;Ituberá;2016;5;-13.7360329;-39.1465637;Ituberá, State of Bahia, 45435-000, Brazil
9689;15249;5246059;-3.48235487937917;-44.04863119125239;USBF JABORANDI;POVOADO JABORANDI;S/N;JABORANDI;;65455000.0;MA;Presidente Vargas;2016;5;-3.4082405;-44.0237929;Presidente Vargas, Maranhão, Presidente Vargas - State of Maranhão, 65455-000, Brazil
9691;15567;2660008;-12.6015538384449;-39.0340236148013;POSTO DE SAUDE DA FAMILIA DE PORTAO;RUA FELIX PEDROSA;S/N;PORTAO;07536382081;44350000.0;BA;Governador Mangabeira;2016;5;-12.6070754;-39.0278595;R. Félix Pedrosa, Gov. Mangabeira - BA, 44350-000, Brazil
9693;15389;3063690;-7.1992199999999995;-34.84172;USF INTEGRADA CAMINHO DO SOL;RUA CORONEL FRANCISCO MONTEIRO SEGUNDO;S/N;VALENTINA;32189112;58064360.0;PB;João Pessoa;2016;5;-7.1987299;-34.8398215;Rua Coronel Francisco Monteiro Segundo - Conj. Valentina Figueredo I, João Pessoa - PB, 58033-455, Brazil
9696;15209;3035573;-13.0351482201811;-39.0106225828794;UNIDADE SAUDE DA FAMILIA CABOTO LEONE;FAZENDA CABOTO LEONE;S/N;ZONA RURAL;(75)36362713;44400000.0;BA;Nazaré;2016;5;-12.933333;-38.933333;Cabotó, Nazaré - BA, 44400-000, Brazil
9702;15351;2363968;-7.3309315;-35.3375333858727;PSF CAMPO GRANDE;CAMPO GRANDE;182;CAMPO GRANDE;;58360000.0;PB;Itabaiana;2016;5;-7.3348079;-35.3529741;Campo Grande, Itabaiana - PB, 58360-000, Brazil
9706;15408;8014248;-6.067876624108219;-35.3320992692543;UBS BAIRRO DAS FLORES;RUA GOIAS;S/N;BARRENTA;;59182000.0;RN;Monte Alegre;2016;5;-6.0713136;-35.3433153;Estr. da Barrenta, Monte Alegre - RN, 59182-000, Brazil
9707;15582;2005832;-9.602103986041731;-35.7150077819824;UNIDADE DE S JOSE TENORIO DE A LINS 5 DS;CONJUNTO JOSE TENORIO DE A LINS;S/N;SERRARIA;(082)33155417;57043000.0;AL;Maceió;2016;5;-9.6018729;-35.71928219999999;Conjunto José Tenório Albuquerque Lins - s/n Qd 1, Maceió - AL, 57046-350, Brazil
9711;15554;6705766;-9.233997063353133;-37.3566354220481;USF URBANO II;RUA JOSE VIEIRA DE CARVALHO;85;CENTRO;;57520000.0;AL;Maravilha;2016;5;-9.2305336;-37.352062;R. José Vieira Carvalho, 85, Maravilha - AL, 57520-000, Brazil
9715;15467;2601842;-18.075870000000002;-39.55684;UBS 001 GUSTAVO ANTUNES SAUDE;RUA DO CONTORNO;321;ETORY GAZZINELY;;45930000.0;BA;Mucuri;2016;5;-18.0806242;-39.549171;R. do Contôrno, 321, Mucuri - BA, 45930-000, Brazil
9716;15205;4031458;-11.9449006530394;-38.9763732910156;UNIDADE DE SAUDE DA FAMILIA ALMERINDA DA SILVA LIMA;RUA MANAUS;S/N;CENTRO;(75)32361116;44150000.0;BA;Santa Bárbara;2016;5;-3.1190275;-60.0217314;Manaus, State of Amazonas, Brazil
9718;15280;2412837;-13.4263272087783;-41.2720658080784;POSTO DE SAUDE SEBASTIAO JOSE DOMINGUES;RUA JOAO BENEDITO DE OLIVEIRA;31;CENTRO;77 34132044;46760000.0;BA;Ibicoara;2016;5;-13.4136556;-41.284438;Ibicoara, BA, 46760-000, Brazil
9719;15568;4111;-12.9098045825955;-38.425519466399;UBS SETE DE ABRIL;RUA DA FELICIA;S/N;SETE DE ABRIL;(71) 3611-7832;41385740.0;BA;Salvador;2016;5;-12.9098139;-38.4254602;R. Felícia - Sete de Abril, Salvador - BA, 41301-110, Brazil
9721;15381;7191138;-7.4929999999999986;-38.985;PSF DO SAO SEBASTIAO;VILA SAO SEBASTIAO;S/N;ZONA RURAL;88 3531 1830;63260000.0;CE;Brejo Santo;2016;5;-7.467898300000001;-38.9268328;São Sebastião, Brejo Santo - CE, 63260-000, Brazil
9725;15297;2486636;-15.4457259178157;-41.07144355773811;USF DE CERCADINHO;POVOADO DE CERCADINHO;S/N;ZONA RURAL;7734248931;45000100.0;BA;Vitória da Conquista;2016;5;-15.4427896;-41.0716515;Cercadinho, Vitória da Conquista - BA, Brazil
9726;15572;2399210;-7.18867654886099;-34.8398954515457;USF INTEGRADA NOVA ESPERANCA;RUA ARLINDO BEZERRA CAMBOIM;S/N;MANGABEIRA IV;32141067;58057540.0;PB;João Pessoa;2016;5;-7.189044099999999;-34.838717;R. Monsenhor Arlíndo Bezerra Camboim - Mangabeira, João Pessoa - PB, 58033-455, Brazil
9730;15421;2601621;-13.4725200035756;-40.225229503190796;UNIDADE DE SAUDE DA FAMILIA DR ANTENOR R COSTA;RUA MANOEL HONORATO;S/N;CENTRO;(73) 35561127;45365000.0;BA;Lajedo do Tabocal;2016;5;-13.4754413;-40.2242435;Lajedo do Tabocal - State of Bahia, Brazil
9733;15546;2561913;-3.49507927894582;-39.02277231216321;U B S JARDIM;JARDIM DE CIMA;S/N;JARDIM DE CIMA;3447097;62680000.0;CE;Paracuru;2016;5;-3.4142906;-39.0303806;Paracuru, State of Ceará, 62680-000, Brazil
9736;15286;2527316;-7.310427796781889;-38.9431567662076;POSTO DE SAUDE DE CAFE DA LINHA;VILA CAFE DA LINHA;S/N;V CAFE DA LINHA;5531364;63250000.0;CE;Milagres;2016;5;-7.2939927;-39.0355758;CE-293, 208, Milagres - CE, 63250-000, Brazil
9737;15339;2564440;-7.30244278907755;-39.278483390807;POSTO DE SAUDE DA MALVINAS;RUA P 8;S/N;MALVINAS;(88)3532 1275;63180000.0;CE;Barbalha;2016;5;-7.306336399999999;-39.2778031;Malvinas, Barbalha - CE, 63180-000, Brazil
9738;15526;2595435;-7.23066;-35.88039000000001;UBS JOSE AURINO DE BARROS FILHO;RUA JOAO BENONE DE ANDRADE;S/N;CATOLE;(83)33107085;58410336.0;PB;Campina Grande;2016;5;-7.2311143;-35.879947;Rua João Benone de Andrade - Catolé, Campina Grande - PB, 58410-336, Brazil
9740;15361;2341336;-7.12318539619425;-35.427453517912795;USF I SANTO ANTONIO;LOTEAMENTO SANTO ANTONIO;S/N;CENTRO;(83)2851215;58356000.0;PB;Gurinhém;2016;5;-7.123869399999999;-35.4256661;Av. Sete de Setembro, 472-514, Gurinhém - PB, 58356-000, Brazil
9742;15255;7187521;-3.7407234555054303;-44.225890338420896;U B S DR LUIZ DE SOUSA GUIMARAES PSFSB;R ESTRADA MATOES;S/N;ESTRADA MATOES;;65460000.0;MA;Pirapemas;2016;5;-5.5222551;-43.2038032;Matões, MA, 65645-000, Brazil
9746;15575;2799596;-12.182453870773001;-43.2134342193591;UNIDADE DE SAUDE DA FAMILIA POLO CANABRAVA ILHAS;PRACA MANOEL VITORINO;S/N;CENTRO;(77)3698 2478;47520000.0;BA;Ibotirama;2016;5;-14.148071;-40.2402642;Manoel Vitorino, BA, 45240-000, Brazil
9750;15354;3498212;-14.546962271672196;-41.9371481668575;UNIDADE DE SAUDE DA FAMILIA DA CANCELA;FAZENDA CANCELA;S/N;ZONA RURAL;(77) 3417-2169;46205000.0;BA;Guajeru;2016;5;-14.547196;-41.9374432;Guajeru - State of Bahia, Brazil
9752;15536;6048889;-5.608031304819112;-39.4496982307434;UNIDADE BASICA DE SAUDE DE ENGENHEIRO JOSE LOPES II;SITIO BONITO;S/N;DISTRITO DE ENGENHEI;088 34491243;63600000.0;CE;Senador Pompeu;2016;5;-5.587376799999999;-39.3731832;Senador Pompeu - State of Ceará, 63600-000, Brazil
9754;15426;2704501;-9.605998992919641;-37.7587008476246;C S NEHEMIAS RODRIGUES ALENCAR;RUA MARECHAL DEODORO;S/N;NS DA SAUDE;(82)36861113;57460000.0;AL;Piranhas;2016;5;-9.7670022;-35.8510491;Marechal Deodoro, State of Alagoas, 57160-000, Brazil
9755;15548;2720957;-10.1292988371728;-36.653345012518;ESF 07 CENTRO DE SAUDE JENIPAPO;POVOADO JENIPAPO;S/N;ZONA RURAL;(82) 5541271;57280000.0;AL;Igreja Nova;2016;5;-10.0830464;-36.5661908;Igreja Nova - State of Alagoas, 57280-000, Brazil
9762;15724;2008521;-9.51729297637912;-36.5644311904897;UNIDADE DE SAUDE DA FAMILIA LAGOA DO CAPIM;POVOADO LAGOA DO CAPIM;S/N;ZONA RURAL;;57620000.0;AL;Igaci;2016;5;-9.517284199999999;-36.5641773;Lagoa do Capim, Igaci - AL, 57620-000, Brazil
9763;15667;22462;-8.119860000000001;-34.95755;US 229 PSF UR 10;AV MONTE ALEGRE;132;COHAB;(81) 32323172;51340080.0;PE;Recife;2016;5;-8.1171019;-34.9540411;Av. Monte Alegre, 132 - COHAB, Recife - PE, 51340-080, Brazil
9764;15939;2756145;-7.1081199999999995;-34.867509999999996;USF INTEGRADA VIVER BEM;RUA MARIA DIAS DE OLIVEIRA;S/N;TREZE DE MAIO;(83)2147135;58025810.0;PB;João Pessoa;2016;5;-7.1077435;-34.8679278;R. Maria Dias de Oliveira - Treze de Maio, João Pessoa - PB, 58020-325, Brazil
9765;15926;7337566;-5.64427474120224;-37.268921434879296;UNIDADE BASICA DE SAUDE MARIA MARLUSA DE MEDEIROS BEZERRA;RUA JOSE LOPES;S/N;PEGAS;(84) 998425082;59670000.0;RN;Upanema;2016;5;-5.644041199999999;-37.2659767;R. José Lopes, Upanema - RN, 59670-000, Brazil
9766;15933;2778041;-6.76003;-43.011559999999996;PS DIRCEU ARCOVERDE;AV DIRCEU ARCOVERDE;S/N;MALARIA;(89)3515-1056;64800000.0;PI;Floriano;2016;5;-6.7792739;-43.0280523;Av. Sen. Dirceu Arco-Verde, Floriano - PI, 64800-000, Brazil
9767;15997;6624383;-8.149967193603281;-34.9767351150503;USF INTEGRACAO MURIBECA;AVENIDA RIO TINTO;S/N;INTEGRACAO MURIBECA;81 3377-5688;54320000.0;PE;Jaboatão dos Guararapes;2016;5;-8.1496897;-34.9768399;Avenida Rio Beberibe - Integração, 140-204 - Muribeca, Jaboatão dos Guararapes - PE, 54365-170, Brazil
9769;15693;2462745;-5.81802;-46.1441;CENTRO DE ESPECIALIDADES AMBULATORIAIS DR ITAMAR GUARA;RUA DAS VERBENIAS;S/N;CANOEIRO;;65940000.0;MA;Grajaú;2016;5;-5.8167284;-46.1585516;R. das Verbenas - Bairro Canoeiro, Grajaú - MA, 65940-000, Brazil
9770;15695;2561166;-3.7181103229521604;-38.464851379393394;UAPS CELIO BRASIL GIRAO;RUA PROF HENRIQUE FIRMEZA;82;CAIS DO PORTO;(85)34332739;60180762.0;CE;Fortaleza;2016;5;-3.718373;-38.464861;Rua Professor Henrique Firmeza, 82 - Cais do Porto, Fortaleza - CE, 60180-762, Brazil
9772;15799;2369486;-10.2241516113278;-44.6359705924975;PS DE PARNAGUA PSF;AV BARAO DE PARAIM;S/N;ZONA RURAL;;64970000.0;PI;Parnaguá;2016;5;-10.2243813;-44.637345;Parnaguá - State of Piauí, Brazil
9773;15772;2355159;-8.442639112472289;-38.8393092155445;USF BARRA DO SILVA;POVOA DA BARRA DO SILVA;S/N;DISTRITO AREA RURAL;(81)38771100;56420000.0;PE;Carnaubeira da Penha;2016;5;41.3803685;-8.7609294;Povoa de Varzim, Portugal
9779;15878;2309572;-4.16419386863696;-45.465202331541605;UNIDADE BASICA SAUDE DE ALTAMIRA DO MARANHAO;AV GETULIO VARGAS;1107;CENTRO;;65310000.0;MA;Altamira do Maranhão;2016;5;-4.1644026;-45.4672512;Altamira do Maranhão - State of Maranhão, Brazil
9781;15880;2658429;-10.47467;-36.417790000000004;UNIDADE DE SAUDE DA FAMILIA JADER PEREIRA DE FARIAS;POVOADO BREJAO;S/N;POVOADO;(79)33661250;49995000.0;SE;Brejo Grande;2016;5;-10.4251946;-36.4630206;Brejo Grande, SE, 49995-000, Brazil
9788;15628;2566095;-5.457075908368349;-39.709446899414;CENTRO DE SAUDE DE PEDRA BRANCA;R JOAQUIM CAVALCANTE;49;CENTRO;(88)5152401;63630000.0;CE;Pedra Branca;2016;5;-5.4540847;-39.7177635;R. Joaquim Cavalcante, 49, Pedra Branca - CE, 63630-000, Brazil
9790;15771;2778408;-3.99122535178458;-42.6239510484895;PS DR JOSE DO REGO LAGES;AV FAROL DA VIRGEM;189;CENTRO;;64140000.0;PI;Nossa Senhora dos Remédios;2016;5;-3.9788417;-42.6170268;Av. Farol da Virgem, 189, Nossa Sra. dos Remédios - PI, 64140-000, Brazil
9792;15676;2463024;-4.9513770001624815;-47.5066645931119;UNIDADE BASICA DE SAUDE LARANJEIRAS BOM JARDIM;RUA 13 DE MAIO;S/N;LARANJEIRA;;65930000.0;MA;Açailândia;2016;5;-4.942391;-47.49936959999999;R. Treze de Maio, Açailândia - MA, 65907-230, Brazil
9793;15830;3946967;-3.46038222312917;-44.87393617629871;UNIDADE BASICA DE SAUDE AMBROSINA COSTA SAMPAIO BUZICA;BAIRRO ALTO SAO FRANCISCO;0;ALTO SAO FRANCISCO;;65350000.0;MA;Vitória do Mearim;2016;5;38.7128331;-9.1450582;Bairro Alto, Lisbon, Portugal
9795;15621;2725576;-6.24279878368761;-38.9135959845487;POSTO DE SAUDE DE SANTAREM;RUA NOSSA SENHORA APARECIDA;S/N;DISTRITO SANTAREM;88 35847049;63523000.0;CE;Orós;2016;5;-22.8469023;-45.23166519999999;Aparecida, State of São Paulo, 12570-000, Brazil
9800;15725;2720507;-10.0996507964636;-36.68191271972661;POSTO DE SAUDE DE FAZENDA NOVA IGREJA NOVA;POVOADO FAZENDA NOVA;S/N;ZONA RURAL;(82) 5541262;57280000.0;AL;Igreja Nova;2016;5;-10.1480363;-36.5440283;Rodovia AL-110, S/n - Fazenda Vilarinho, Igreja Nova - AL, 57280-000, Brazil
9808;15810;2343045;-7.09527969360331;-35.3048658370961;POSTO DE SAUDE DE ALFAVACA;SITIO ALFAVACA;S/N;ZONA RURAL;(83)287115;58345000.0;PB;Mari;2016;5;-7.052300499999999;-35.3201392;Mari, State of Paraíba, 58345-000, Brazil
9809;15732;2306999;-5.3432500362394695;-44.151220321653994;UNIDADE BASICA SAUDE ISABEL FAUSTINA;RUA DO COMERCIO;S/N;POV SOCORRO;;65780000.0;MA;Governador Eugênio Barros;2016;5;-5.3452528;-44.1515219;Socorro, Gov. Eugênio Barros - MA, 65780-000, Brazil
9811;15871;2326302;-6.703312397002982;-41.9776225090015;USF BOA NOVA;POVOADO BOA NOVA;S/N;ZONA RURAL;;64500000.0;PI;Oeiras;2016;5;-6.699222199999999;-41.973284;Boa Nova, Oeiras - PI, 64500-000, Brazil
9815;15652;2724669;-4.58091;-38.367490000000004;POSTO DE SAUDE DE ARUARU II;RUA ANGELO SILVA;S/N;ARUARU;;62940000.0;CE;Morada Nova;2016;5;-4.578646600000001;-38.3684888;Travessa Ângelo da Silva, Morada Nova - CE, 62940-000, Brazil
9816;15748;2310260;-3.84902358055104;-43.2939863204943;UBSF DE SAO JOSE;POVOADO SAO JOSE;S/N;POVOADO SAO JOSE;;65500000.0;MA;Chapadinha;2016;5;-4.9609498;-45.2744159;State of Maranhão, Brazil
9826;15850;2455129;-5.30596733093246;-44.48503732681151;U B DE SAUDE MAE DOS ANJOS SFSB;RUA SAO FRANCISCO;S/N;SAO JOSE;(98)663 2468;65760000.0;MA;Presidente Dutra;2016;5;-5.2900794;-44.4955672;Presidente Dutra - State of Maranhão, Brazil
9827;15813;2563517;-3.8035011291502796;-40.874247550963204;UNIDADE BASICA DE SAUDE DA FAMILIA DE ARATICUM;DISTRITO DE ARATICUM;S/N;ARATICUM;0000000;62350000.0;CE;Ubajara;2016;5;-3.8101254;-40.8761066;Estr. Araticum, Ubajara - CE, 62350-000, Brazil
9828;15794;2725738;-5.28226733207687;-38.3612322807301;POSTO DE SAUDE DE UIRAPONGA;RUA PROF MARIA PAULA;S/N;UIRAPONGA;4221497;62940000.0;CE;Morada Nova;2016;5;-5.389568499999999;-38.4487112;Uiraponga, Morada Nova - CE, 62940-000, Brazil
9829;15755;2326485;-3.61117601394643;-41.9314026832568;PS BOIADAS;BOIADAS;S/N;BOIADAS;(86)33330008;64233000.0;PI;Caraúbas do Piauí;2016;5;-3.4756249;-41.8428891;Caraúbas do Piauí, PI, 64233-000, Brazil
9831;15964;3996700;-7.943188;-34.8847916197368;USF MARIA FARINHA;RUA PEDRO CARNEIRO LEAO;270;MARIA FARINHA;3436 1536;53401441.0;PE;Paulista;2016;5;-7.851422299999999;-34.8369558;R. Pedro Augusto Carneiro Leão, 270 - Maria Farinha, Paulista - PE, 53427-750, Brazil
9834;15768;5116279;-7.22149704;-35.8838591147815;UBS BODOCONGO;RUA FLORIPEDES COUTINHO;S/N;BODOCONGO;(83)33107013;58430600.0;PB;Campina Grande;2016;5;-7.221923899999999;-35.92162310000001;R. Florípedes Coutinho - Bodocongó, Campina Grande - PB, Brazil
9835;15892;2327120;-4.16398856236529;-40.935631577279;UNIDADE BASICA DE SAUDE DE FAVEIRA FRANCISCO FRANCO DA SILVA;SITIO FAVEIRA;S/N;SITIO FAVEIRA;0000000;62375000.0;CE;Carnaubal;2016;5;-4.060702;-40.9653944;Faveira, Carnaubal - CE, 62375-000, Brazil
9840;15800;2346125;-8.020521767497598;-34.9957213563856;USF BAIRRO DOS ESTADOS;AVENIDA PERNAMBUCO;159;BAIRRO DOS ESTADOS;(81)34585771;54762720.0;PE;Camaragibe;2016;5;-8.0201116;-34.968666;Av. Pernambuco, 159 - COHAB, Camaragibe - PE, 50980-427, Brazil
9844;15945;5519861;-6.1015320672853;-37.6401023994731;UNIDADE BASICA DE SAUDE DR MAURICIO CORTEZ DE PAIVA;RUA PROJETADA;00;SANTA TEREZINHA;;59770000.0;RN;Patu;2016;5;-5.6;-35.366667;Santa Terezinha, Ceará-Mirim - RN, 59570-000, Brazil
9845;15811;2450267;-7.5371897220609405;-46.042520999907104;U S F BAIRRO NAZARE;PRACA NOSSA SENHORA DE NAZARE;S/N;NAZARE;;65800000.0;MA;Balsas;2016;5;39.6012147;-9.0700991;2450 Nazaré, Portugal
9848;15788;3567249;-2.90145;-40.83889;UBASF JOSE VIEIRA IBIAPINA;DISTRITO DE FLAMENGAS;S/N;FLAMENGAS;(88)36211110;62400000.0;CE;Camocim;2016;5;-2.9008418;-40.84209999999999;Camocim, State of Ceará, 62400-000, Brazil
9851;15930;2387662;-15.2546131610866;-41.3384413719165;U S F BARRA DO FURADO;POVOADO DE BARRA DO FURADO;S/N;BARRA DO FURADO;(77)3438-1075;45157000.0;BA;Cândido Sales;2016;5;-15.26373;-41.3310389;Barra do Furado, Cândido Sales - BA, 45157-000, Brazil
9853;15696;2799561;-10.6911242008206;-39.8530769348133;CENTRO DE SAUDE DE ITIUBA;RUA SAO BENTO;S/N;CENTRO;(74)5461506;48850000.0;BA;Itiúba;2016;5;-10.6902297;-39.8556824;Itiúba, BA, 48850-000, Brazil
9854;15793;2611848;-4.22496000078457;-39.1930329149954;UNIDADE DE SAUDE PAULO DE FRANCA BARROS;RUA VICENTE DE PAULA FONSECA;S/N;DISTRITO SAO DOMINGO;3241142;62730000.0;CE;Caridade;2016;5;-4.2365155;-39.2786289;R. Vicente de Paula Fonseca, Caridade - CE, 62730-000, Brazil
9855;15959;2344645;-7.99266007532292;-34.8613103898235;USF ALTO DA CONQUISTA I E II;RUA DA TIJUCA;S/N;ALTO DA CONQUISTA;(81)34430051;53190000.0;PE;Olinda;2016;5;-7.9820408;-34.8967942;R. Tijuca - Alto da Conquista, Olinda - PE, Brazil
9856;15872;2456192;-5.52652402518113;-47.4798108057682;CENTRO DE SAUDE NOVA IMPERATRIZ;RUA SOUSA LIMA;S/N;NOVA IMPERATRIZ;(99) 5249883;65907150.0;MA;Imperatriz;2016;5;-5.517710999999999;-47.4932783;Rua Sousa Lima - Nova Imperatriz, Imperatriz - MA, 65907-230, Brazil
9864;15690;2408929;-5.79275608062727;-35.1872992515554;USF APARECIDA;RUA GUANABARA;195;MAE LUIZA;32328620;59014180.0;RN;Natal;2016;5;-5.788198;-35.1903885;R. Guanabara, 195 - Areia Preta, Natal - RN, 59014-106, Brazil
9865;15789;3019640;-12.899311780929198;-38.658742904662;USF DE PONTA DE AREIA;RUA DO RIO;99;PONTA DE AREIA;;44460000.0;BA;Itaparica;2016;5;-12.8940591;-38.6673008;Travessa do Coqueiral - R. Ponta de Areia, s/n, Itaparica - BA, 44460-000, Brazil
9867;15855;2483246;-13.512950342097199;-41.590142014589894;UNIDADE DE SAUDE DA FAMILIA DE ESPINHO;POVOADO ESPINHO;S/N;ZONA RURAL;;46670000.0;BA;Jussiape;2016;5;-13.5244412;-41.5937075;Estr. p/ Povoado do Espinho, Jussiape - BA, 46670-000, Brazil
9868;15733;2526255;-13.688587752524901;-39.47967080319121;UNIDADE DE SAUDE DA FAMILIA DO COCAO;POVOADO DO COCAO;S/N;ZONA RURAL;73-3278-2193;45460000.0;BA;Wenceslau Guimarães;2016;5;-13.602955;-39.609461;45460- - Av. Venceslau Guimarães, 120, Apuarema - BA, 45355-000, Brazil
9871;15753;2412993;-14.165032496122501;-39.3744665327401;CENTRO SAUDE DR ANTONIO CARLOS MAGALHAES;RUA NELSON DAVID RIBEIRO;014;CENTRO;(73)2592122;45500000.0;BA;Ibirapitanga;2016;5;-14.1676113;-39.37649;Rua Nelson David Ribeiro, Ibirapitanga - BA, 45500-000, Brazil
9872;15663;6565786;-7.819722890853652;-38.1570410728444;USF JANAINA BRAZ;R ANTONIO INACIO;120;CENTRO;;56895000.0;PE;Santa Cruz da Baixa Verde;2016;5;-7.820286800000001;-38.152763;R. Antonio Inacio, 120, Santa Cruz da Baixa Verde - PE, 56895-000, Brazil
9874;15708;2005808;-9.666;-35.735;UNIDADE DO PSF VALE DO PITANGUINHA 3 DS;RUA ANTONIO NOGUEIRA;S/N;PITANGUINHA;(82)33155284;57052020.0;AL;Maceió;2016;5;-9.6415844;-35.7318466;R. Antônio Guedes Nogueira - Pitanguinha, Maceió - AL, Brazil
9875;15697;2770903;-9.43414;-40.51714000000001;USF ALTO DO CRUZEIRO;RUA 06;402;ALTO DO CRUZEIRO;07436123600;48905229.0;BA;Juazeiro;2016;5;-9.4330289;-40.4762281;R. Seis, 402 - Tabuleiro, Juazeiro - BA, Brazil
9876;15729;2463474;-5.0233697891233895;-44.9936914443957;CENTRO DE SAUDE NOSSA SENHORA DAS DORES;RUA ANISIO CARNEIRO;S/N;CENTRO;(99)6251241;65758000.0;MA;São Roberto;2016;5;-5.0283544;-44.9930155;R. Anisio Carneiro, São Roberto - MA, 65758-000, Brazil
9879;15633;2473089;-5.3129625320433;-35.4721927642812;UBS DE SANTA LUZIA 1;SANTA LUZIA;S/N;DISTRITO;(84) 2632423;59584000.0;RN;Touros;2016;5;-5.1961669;-35.4635381;Touros, State of Rio Grande do Norte, 59584-000, Brazil
9880;15818;2633965;-8.42177152633642;-37.606394290923;POSTO DE SAUDE DE POCO DO BOI USF;POVOADO POCO DO BOI;S/N;ZONA RURAL;;56580000.0;PE;Ibimirim;2016;5;-8.4893676;-37.0356201;Poço do Boi, Arcoverde - PE, Brazil
9882;15857;2011077;-9.66526;-37.132459999999995;POSTO DE SAUDE CAJA DOS NEGROS;POVOADO CAJA DOS NEGROS;S/N;ZONA RURAL;;57420000.0;AL;Batalha;2016;5;-9.674621499999999;-37.13335;Batalha, State of Alagoas, 57420-000, Brazil
9884;15671;3009394;-4.40036773681628;-42.8885650634753;UNIDADE DE SAUDE EDUVIGENS GONCALVES COSTA;POVOADO NOVO NILO;S/N;ZONA RURAL;;64120000.0;PI;União;2016;5;-4.399897999999999;-42.889365;Novo Nilo, União - PI, 64120-000, Brazil
9885;15706;2611406;-6.60387754440288;-39.0608596801746;CENTRO DE SAUDE RUBENS BEZERRA ALBUQUEQUER;RUA CORONEL JOAO CANDIDO;S/N;FATIMA;(88) 3564-0546;63400000.0;CE;Cedro;2016;5;-6.6044284;-39.060133;R. Cel. João Cândido - Centro, Cedro - CE, 63400-000, Brazil
9888;15921;3074684;-10.9110859138183;-37.028078044891295;VER ANA DOS ANJOS SANTOS;RUA GILBERTO GIL;335;CAMINHO DO PORTO;79 30258162;49140000.0;SE;Barra dos Coqueiros;2016;5;-10.910922;-37.020617;Rua Gilberto Gil, 335 - Lot. Caminho Do Porto, Barra dos Coqueiros - SE, 49140-000, Brazil
9889;15891;3758699;-6.59210801124554;-36.7751240730275;PSF BAIXA DA BELEZA I;TRAVESSA TENENTE JOSE ALVES;101;COMISSAO;(84) 34723913;59343000.0;RN;Jardim do Seridó;2016;5;-6.5919502;-36.7750815;Tv. Ten. Jose Alves, 101, Jardim do Seridó - RN, 59343-000, Brazil
9890;15715;2454602;-1.83715224266047;-44.870331287382704;CENTRO DE SAUDE AREIA BRANCA;RODANTONIO DINO;S/N;AREIA BRANCA;(98)3911422;65268000.0;MA;Cururupu;2016;5;-1.8151083;-44.8648291;Cururupu, MA, 65268-000, Brazil
9894;15662;2551837;-6.5188730722938875;-42.1050020825819;PS BARRA DALCANTARA;RUA LUIS LOPES DA SILVA;S/N;CENTRO;(89)34230111;64528000.0;PI;Barra D'Alcântara;2016;5;-6.5300876;-42.0989404;R. Luís Lopes da Silva, Barra D'Alcântara - PI, 64528-000, Brazil
9895;15709;2344874;-7.99266007532292;-34.8613103898235;USF DE SAPUCAIA II E III;RUA 02 DE FEVEREIRO;S/N;SAPUCAIA;(81)34435201;53270260.0;PE;Olinda;2016;5;-7.9994767;-34.8867822;1ª Travessa Dois de Fevereiro, 2 - Aguazinha, Olinda - PE, 53270-261, Brazil
9896;15783;2665433;-6.4734470844266925;-37.1026325225819;UNIDADE DE SAUDE DA FAMILIA IX SOLEDADE;RUA CICERO ANTONIO DA SILVA;S/N;SOLEDADE;(84) 34171147;59300000.0;RN;Caicó;2016;5;-6.473234199999999;-37.1030092;R. Cícero Antônio da Silva, Caicó - RN, 59300-000, Brazil
9900;15685;5670446;-5.98631885234114;-35.5888032897951;UNIDADE DE SAUDE DA FAMILIA DRA MARIA ZILDA;RUA PEDRO BELARMINO;135;CENTRO;8432532106;59270000.0;RN;Bom Jesus;2016;5;-5.9817684;-35.5797397;Rua Pedro Belarmino, 135, Bom Jesus - RN, 59270-000, Brazil
9901;15808;2725193;-4.31046009063708;-38.3953714370716;UNIDADE BASICA DE SAUDE LAGOA DO CEDRO;RUA PROJETADA;S/N;LAGOA DO CEDRO;;62875000.0;CE;Chorozinho;2016;5;-4.315462699999999;-38.3959014;Lagoa do Cedro, Chorozinho - CE, 62875-000, Brazil
9902;15740;2380692;-6.0936873705590795;-38.37368307882221;CENTRO DE SAUDE FRANCISCO ILDOMAR DE CASTRO;RUA PRINCESA ISABEL;14;CENTRO;(84)3153034;59910000.0;RN;Doutor Severiano;2016;5;-6.0962334;-38.3759648;R. Princesa Isabel, 14, Dr. Severiano - RN, 59910-000, Brazil
9903;15720;2389029;-5.19380123470868;-37.3568741367043;UBS VEREADOR LAHYRE ROSADO;RUA JOAO NEPONUCENO DE MOURA;S/N;SUMARE;;59633390.0;RN;Mossoró;2016;5;-5.2307712;-37.3265961;R. João Neponuceno de Moura - Alto do Sumaré, Mossoró - RN, 59633-690, Brazil
9905;15807;2363623;-7.401538499999999;-35.113177982706496;UNIDADE DE SAUDE DA FAMILIA ITABATINGA;POVOADO DE ENGENHO NOVO;S/N;ZONA RURAL;;58328000.0;PB;Pedras de Fogo;2016;5;-7.400925300000001;-35.1117491;Pedras de Fogo, State of Paraíba, Brazil
9906;15637;2598272;-11.054949760436699;-38.9253330230702;USF MARIA MARTINS DE ROMA;POVOADO DE RUA NOVA;S/N;POVADO RUA NOVA;( );48790000.0;BA;Tucano;2016;5;-11.0533956;-38.926357;Rua Nova, Tucano - BA, 48790-000, Brazil
9907;15902;2386801;-12.5371357853541;-39.1867130922404;USF EURIDICE LEITE DA SILVA;RUA ALVARO AURELIANO;S/N;ZONA RURAL;;44345000.0;BA;Cabaceiras do Paraguaçu;2016;5;-12.5304936;-39.1029508;R. Álvaro Aureliano, Cabaceiras do Paraguaçu - BA, 44345-000, Brazil
9909;15627;2362171;-6.573064327239798;-38.51218700408821;UBS ADILIA ALVES DE MOURA;RUA JOSE DE MOURA;S/N;CENTRO;(83)35641008;58908000.0;PB;Poço de José de Moura;2016;5;-6.5742584;-38.5113258;Poço de José de Moura, PB, 58908-000, Brazil
9910;15883;2480069;-4.7521877288817;-40.8311176300037;CENTRO DE SAUDE DE ARARENDA;ARARENDA;S/N;CENTRO;0000000;62213000.0;CE;Ararendá;2016;5;-4.7590788;-40.8285471;Centro, Ararendá - CE, 62210-000, Brazil
9913;15852;2824418;-14.133870000000002;-39.73618;UNIDADE DE SAUDE DA FAMILIA EPIFANIO FLORENCIO VIEIRA;AV NOSSA SENHORA APARECIDA;3553;ANTONIO LOURENCO;(73)35317153;45570000.0;BA;Ipiaú;2016;5;-22.8469023;-45.23166519999999;Aparecida, State of São Paulo, 12570-000, Brazil
9918;15995;2356740;-7.29472875595072;-35.8928704261769;UBSF LIGEIRO II;SITIO LIGEIRO;S/N;ZONA RURAL;(83)33921109;58475000.0;PB;Queimadas;2016;5;-7.2914119;-35.8900077;Ligeiro, Queimadas - PB, 58475-000, Brazil
9920;15666;2723891;-3.6953115463255797;-38.594090938567;U A P S PEDRO GABRIEL DE OLIVEIRA;RUA A;S/N;PARQUE LEBLON;85-33428023;61610040.0;CE;Caucaia;2016;5;-3.6977753;-38.5971727;R. Antônio Gonçalves - Parque Leblon, Caucaia - CE, Brazil
9924;15684;2351374;-7.69057989120461;-34.8597693443288;POSTO MEDICO E DENTARIO DE ATAPUZ;RUA ATAPUZ;09;DISTRITO DE ATAPUZ;(81)36260263;55900000.0;PE;Goiana;2016;5;-7.680273799999999;-34.86206260000001;R. Dezenove, 80 - Atapuz, Goiana - PE, 55900-000, Brazil
9927;15816;2452294;-5.10068111012935;-42.8337278988596;E S F DA VILA BANDEIRANTE 02 35;RUA AMANCIO PEQUENO DE SOUSA;1157;PARQUE ALVORADA;;65634340.0;MA;Timon;2016;5;-5.1255766;-42.8385875;R. Amâncio Pequeno de Souza, 1157 - Parque Alvorada, Timon - MA, 65633-390, Brazil
9930;15839;2627043;-12.3756366205794;-38.2805166149009;UNIDADE BASICA DO PSF DE RIACHAO;FAZENDA RIACHAO;S/N;DIST RIACHAO;(71)36451013;48120000.0;BA;Pojuca;2016;5;-12.3576;-38.27706999999999;Loteamento Riachão, Lote 70, Fazenda Riachão, S/N - Distrito de Riachão, Pojuca - BA, 48120-000, Brazil
9931;15827;2458837;-4.07659292221058;-44.941484928129796;UBS PEDRO RODRIGUES RIBEIRO;POVOADO VITAL BRASIL;S/N;ZONA RURAL;(98)6351122;65705000.0;MA;Lago Verde;2016;5;-3.9764989;-44.8879576;Lago Verde - State of Maranhão, Brazil
9935;15938;2798522;-7.142411470413;-34.910752773283896;USF INTEGRADA NOVA CONQUISTA;RUA DURVAL COUTINHO;S/N;ALTO DO MATEUS;(83) 3218-9251;58090260.0;PB;João Pessoa;2016;5;-7.1404787;-34.9124598;R. Durval Coutinho - Alto do Mateus, João Pessoa - PB, Brazil
9936;15820;2307820;-3.3463990688322998;-44.6514844894396;UNIDADE BASICA DE SAUDE FRANCISCA DE JESUS SILVA;POVOADO PERIMIRIM;S/N;POVOADO;(98)4541000;65490000.0;MA;Anajatuba;2016;5;-2.579072;-44.8534351;Peri Mirim - State of Maranhão, Brazil
9937;15929;2343134;-7.32313871383646;-34.8675155639638;UNIDADE DE SAUDE DA FAMILIA DE MATA DA CHICA;SITIO MATA DA CHICA;S/N;ZONA RURAL;;58322000.0;PB;Conde;2016;5;-7.322586599999999;-34.8674281;Unnamed Rd, 58322-000, Conde - PB, Brazil
9940;15847;2712326;-8.858724832534529;-35.1396203041066;POSTO DE SAUDE ABREU DO UNA;RUA DO POSTO;001;ABREU DO UNA;;55565000.0;PE;São José da Coroa Grande;2016;5;-8.8401551;-35.1402291;95, - R. da Praia, 1, São José da Coroa Grande - PE, 55565-000, Brazil
9943;15774;2526107;-11.2349382194634;-40.8390891551971;UNIDADE BASICA DE SAUDE DE GILO;POV JILO;S/N;JILO;(74)36592125;44690000.0;BA;Várzea Nova;2016;5;-11.2531193;-40.9466551;Várzea Nova - State of Bahia, Brazil
9944;15604;2493551;-12.7405679225918;-38.6104631423939;UNIDADE DE SAUDE DA FAMILIA DA AREA DE LAZER;PRACA ZIZETE VELOSO;001;CENTRO;(71)36044688;42600000.0;BA;Madre de Deus;2016;5;-12.7436259;-38.6126766;Praça Zizete Velôso, Me. de Deus - BA, Brazil
9945;15776;5479959;-3.52479815483083;-42.721002101897;UBSF DE FREIXEIRAS;AV PRINCIPAL;S/N;FREXEIRAS;;65545000.0;MA;Milagres do Maranhão;2016;5;-8.3860531;-35.3233049;Frexeiras, Escada - PE, 55500-000, Brazil
9949;15766;2416506;-14.6332093972062;-39.1992831230164;UNIDADE DE SAUDE DA FAMILIA CASTELO NOVO BANCO DO PEDRO;RUA SALGADO FILHO;S/N;CASTELO NOVO;(073)32345109;45662899.0;BA;Ilhéus;2016;5;-14.813078;-39.0252309;R. Salgado Filho - Pontal, Ilhéus - BA, Brazil
9957;15899;2486431;-14.853236675262;-40.8621025085437;USF SOLANGE HORTELIO FRANCO CSU;RUA A;1383;BATEIAS;7734228133;45000100.0;BA;Vitória da Conquista;2016;5;-14.8448341;-40.8638677;R. A, 1383 - Ibirapuera, Vitória da Conquista - BA, 45075-460, Brazil
9958;15826;2631253;-8.4321515;-35.8094911721096;USF MONTE ALEGRE OLINDINA RUFINA;DISTRITO DE MONTE ALEGRE;S/N;RURAL;;55670000.0;PE;São Joaquim do Monte;2016;5;-8.4308222;-35.8110426;São Joaquim do Monte - State of Pernambuco, Brazil
9961;15779;2510367;-12.2893169587982;-40.5003712305803;USF FIDELCINO JOSE DE OLIVEIRA;PRACA DA IGREJA;S/N;POV SANTA CLARA;(75)3252-1778;46800000.0;BA;Ruy Barbosa;2016;5;37.3541079;-121.9552356;Santa Clara, CA, USA
9962;15665;2003562;-9.377054354489749;-36.2483932029197;UNIDADE BASICA DE SAUDE DR JAYME CARNEIRO LOPES;RUA MOTA LIMA;S/N;CENTRO;;57700000.0;AL;Viçosa;2016;5;-9.3711507;-36.2420586;R. Mota Lima, Viçosa - AL, 57700-000, Brazil
9968;15863;2364697;-6.776139736175341;-43.0123543739306;UBS RAIMUNDO FILHO;RUA MAJOR CARLINDO NUNES;271;CATUMBI;(89)3515-1042;64800000.0;PI;Floriano;2016;5;-6.776269;-43.0124158;R. Maj. Carlindo Nunes, 271 - Catumbi, Floriano - PI, 64800-000, Brazil
9969;15888;2349698;-8.0837686852499;-34.9823843383789;USF CURADO III I;RUA ANTONIO JACOME BEZERRA;S/N;CURADO III;81-3452-0476;54220240.0;PE;Jaboatão dos Guararapes;2016;5;-8.0744958;-35.0031148;Av. Antônio Jácome Bezerra, Jaboatão dos Guararapes - PE, Brazil
9970;15622;2483483;-12.354201078414599;-40.90576887130621;UNIDADE DE SAUDE DA FAMILIA PEDRO ALCANTARA MARQUES;RUA JULIO CAVALCANTE;S/N;CENTRO;(75) 3327 2126;46825000.0;BA;Lajedinho;2016;5;-12.3541573;-40.9062492;R. Júlio Cavalcante, Lajedinho - BA, 46825-000, Brazil
9971;15775;2550520;-12.9357333313259;-38.619159746346995;UNIDADE DE SAUDE DA FAMILIA DE JIRIBATUBA;RUA PRINCIPAL;S/N;JIRIBATUBA;(71)36386141;44470000.0;BA;Vera Cruz;2016;5;-13.0602076;-38.7953734;Jiribatuba, Vera Cruz - BA, 44470-000, Brazil
9974;15998;7162731;-15.2725935111553;-39.066867828369105;UNIDADE DE SAUDE DA FAMILIA DO BAIRRO MARCEL GANEM;RUA 03;S/N;MARCEL GANEM;73-32361248;45690000.0;BA;Una;2016;5;0.0;0.0;Não encontrado
9977;15760;6214932;-10.4567714931968;-40.189984539995606;PSF SANTOS DUMONT;RUA SANTOS DUMONT;1;SANTOS DUMONT;7435414140;48970000.0;BA;Senhor do Bonfim;2016;5;-10.4734559;-40.1792047;Rua Jardim Aeroporto, 1169 - Tomaz Guimarães, Sr. do Bonfim - BA, 48970-000, Brazil
9983;15669;2414163;-17.0511674880977;-39.5501589775074;ESFSB VARZEA ALEGRE 1 E 2;RUA SANTO ANTONIO;S/N;VARZEA ALEGRE;(73)2940876;45836000.0;BA;Itamaraju;2016;5;-17.0149848;-39.54192390000001;R. Santo Antônio, Itamaraju - BA, 45836-000, Brazil
9984;15905;5346576;-12.8060138225552;-38.2771825790394;USF DE CAJAZEIRA DE ABRANTES;RUA DIRETA DA CAJAZEIRA;S/N;CAJAZEIRAS;7188997616;42810000.0;BA;Camaçari;2016;5;-12.8993599;-38.4079273;Cajazeiras, Salvador - State of Bahia, 41301-110, Brazil
9985;15764;2404060;-7.85795729388299;-41.9109103616519;PS LAGOA DE DENTRO;LAGOA DE DENTRO;S/N;ZONA RURAL;(89) 3482 1100;64700000.0;PI;Simplício Mendes;2016;5;37.1356631;-8.451722799999999;8400 Lagoa, Portugal
9990;15614;22403;-8.06276248305241;-34.8889419445777;US 238 PSF IRAQUE;RUA MEARIM;55;ESTANCIA;(81) 32322542;50771450.0;PE;Recife;2016;5;-8.0906179;-34.927931;R. Mearim, 55 - Estância, Recife - PE, 50771-450, Brazil
9991;15616;2326434;-2.9033601445089197;-41.778170592024495;UBS SABIAZAL;RUA GERALDO MACHELA;260;SABIAZAL;( );64215115.0;PI;Parnaíba;2016;5;-2.9479002;-41.7858322;Av. Gerardo Pontes Cavalcante, 260 - Igaraçu, Parnaíba - PI, Brazil
9992;15631;2478889;-4.210928678512451;-39.7355532646168;POSTO DE SAUDE DA FAMILIA DO SALITRE;RUA JOAO AMARO DE SOUSA;2444;SALITRE;(85)3481424;62700000.0;CE;Canindé;2016;5;-4.2112694;-39.73434880000001;Rua Joao Amaro de Souza - Salitre, Canindé - CE, 62700-000, Brazil
9993;15822;2460866;-2.8586769104003102;-45.0797152519213;U B DE SAUDE PSF SAO JERONIMO;POV SAO JERONIMO;35;CENTRO;(98) 3830259;65235000.0;MA;São Bento;2016;5;0.0;0.0;Não encontrado
9995;15723;2350998;-8.742109;-36.336591999999996;PSF MARIA ALVES FEITOSA;POVOADO RIACHO DANTAS;S/N;ZONA RURAL;(87)37931181;55375000.0;PE;Calçado;2016;5;-11.0686313;-37.7257814;Riachão do Dantas - State of Sergipe, Brazil
9996;15638;2722119;-9.47077274322482;-37.1788072586049;UNIDADE DE SAUDE DE F NOVA;POVOADO DE FAZENDA NOVA;S/N;ZONA RURAL;(82)6321160;57550000.0;AL;Olivença;2016;5;-9.469790200000002;-37.1765549;Olivença - State of Alagoas, 57550-000, Brazil
9997;15914;2363429;-7.61865212451031;-37.15437894251321;UBSF MABEL DANTAS ESF I;CONJUNTO JOSE MARIZ;S/N;CENTRO;(83) 33501234;58560000.0;PB;Ouro Velho;2016;5;-7.6209354;-37.1509898;Ouro Velho, PB, 58560-000, Brazil
9998;15983;2390434;-2.97591090202323;-44.3165731430041;CENTRO DE SAUDE DR DOMAR BRITO ANCELES;AVENIDA JOSE DA SILVA CALVET;S/N;CENTRO;(98) 3346-1079;65143000.0;MA;Bacabeira;2016;5;-2.9802632;-44.3141282;R. José Dasilva Calvet, Bacabeira - MA, 65143-000, Brazil
10000;15707;2713543;-7.9215300000000015;-34.91536;USF CAETES II;AV A;S/N;CAETES II;;53540010.0;PE;Abreu e Lima;2016;5;-7.921942700000001;-34.9156827;Av. A - Caetés II, Abreu e Lima - PE, 53540-010, Brazil
10001;15928;2480115;-5.52986741065963;-40.66550731658821;POSTO DE SAUDE DE SANTA MARIA;DISTRITO DE SANTA MARIA;S/N;ZONA RURAL;36291165;63740000.0;CE;Novo Oriente;2016;5;-5.536340399999999;-40.7731445;Novo Oriente, State of Ceará, 63740-000, Brazil
10002;15838;3393232;-4.30214524269091;-45.538072586058206;UNIDADE BASICA DE IGARAPE DO MEIO;POVOADO DE IGARAPE DO MEIO;S/N;CENTRO;( );65315000.0;MA;Brejo de Areia;2016;5;-3.6580899;-45.2117714;Igarapé do Meio, MA, 65345-000, Brazil
10003;15678;5346428;-13.767759032841;-43.995470471382106;UNIDADE BASICA DE SAUDE DA FAMILIA IV;PRACA ACM POVOADO DE ALAGOINHAS;S/N;ZONA RURAL;77 3483-1921;47665000.0;BA;São Félix do Coribe;2016;5;-12.1339689;-38.4211223;Alagoinhas, State of Bahia, Brazil
10007;15651;2682672;-7.4805025244755985;-36.6556668629229;UBSF 03 SANTA LUZIA;SANTA LUZIA;S/N;ZONA RURAL;(83)33542856;58580000.0;PB;Serra Branca;2016;5;-7.6044676;-36.8162794;Santa Luzia do Cariri, Serra Branca - PB, 58580-000, Brazil
10012;15988;2824582;-12.2036862373349;-38.84645462036021;USF DE ITACAVA;PRACA DO SAO SIMAO;S/N;ITACAVA;;44250000.0;BA;Coração de Maria;2016;5;-12.2041433;-38.8461378;Coração de Maria - State of Bahia, 44250-000, Brazil
10015;15630;2342278;-7.15150361574026;-35.2612426920121;USF LAGOA DO PADRE;SITIO LAGOA DO PADRE;S/N;ZONA RURAL;(83)36281011;58348000.0;PB;Riachão do Poço;2016;5;-7.1467702;-35.2669845;SITIO LAGOA DO PADRE S/N ZONA RURAL, Riachão do Poço - PB, 58348-000, Brazil
10018;15942;2606003;-7.480337619781281;-36.1276173591603;UBSF BAIRRO NOVO;RUA JOSE BARBOSA DE SOUZA;10;CENTRO;(83)33911299;58450000.0;PB;Boqueirão;2016;5;-7.482138000000001;-36.1347507;Boqueirão - State of Paraíba, Brazil
10019;15805;2415399;-7.22371459007242;-39.4289660453785;CENTRO DE SAUDE AMELIA PINHEIRO TELES;RUA ELIZIO FIGUEIREIDO;S/N;GISELIA PINHEIRO;(88)5231014;63100970.0;CE;Crato;2016;5;-7.223477399999999;-39.4290929;R. Dr. Elísio Figueiredo - Gizélia Pinheiro (Batateiras), Crato - CE, 63115-000, Brazil
10021;15815;3775445;-5.505456265773821;-35.262074868072;UBS MARACAJAU;RUA SENADOR DINARTE MARIZ;12;MARACAJAU;;59580000.0;RN;Maxaranguape;2016;5;-5.4119747;-35.3104373;R. Sen. Dinarte Mariz, 12, Maxaranguape - RN, 59580-000, Brazil
10024;15986;6786731;-5.76;-35.99800000000001;POSTO DE SAUDE SERRA DA GAMELEIRA;SITIO SERRA DA GAMELEIRA;S/N;ZONA RURAL;;59540000.0;RN;Caiçara do Rio do Vento;2016;5;-5.756382800000001;-36.001383;R. da Gameleira, Caiçara do Rio do Vento - RN, 59540-000, Brazil
10026;15623;5732573;-9.314117369241341;-35.5654908365835;UNIDADE BASICA DE SAUDE SANDOVAL TOLEDO SILVA;PRACA ERNESTO GOMES MARANHAO;S/N;CENTRO;32541374;57920000.0;AL;São Luís do Quitunde;2016;5;-4.9609498;-45.2744159;State of Maranhão, Brazil
10027;15951;2816407;-13.0294525623318;-42.356607913969704;UNIDADE BASICA DE SAUDE DE SACO DO FOGO;POV DE SACO DO FOGO;S/N;ZONA RURAL;(77) 36742017;46540000.0;BA;Ibipitanga;2016;5;-13.0287759;-42.35550660000001;46540-000, Ibipitanga - BA, Brazil
10028;15639;2408430;-5.8404564857481205;-35.273580551146395;USF GUARAPES;RUA DA LAGOA SECA;S/N;GUARAPES;32328405;59075740.0;RN;Natal;2016;5;-5.8415656;-35.2749027;R. da Lagoa Seca - Guarapes, Natal - RN, Brazil
10030;15937;2412292;-16.584;-39.783;ESF CAJUITA;PRACA ANTONIO COSTA;S/N;ZONA RURAL;;45840000.0;BA;Guaratinga;2016;5;-16.5787744;-39.7789477;Antônio Costa, Guaratinga - BA, 45840-000, Brazil
10038;15641;3099164;-14.97489;-41.4085;USF MANOEL INACIO PEREIRA;AV SETE DE SETEMBRO;151;CENTRO;07734942459;45170000.0;BA;Tremedal;2016;5;-12.9789027;-38.5144007;Av. Sete de Setembro, 151 - Dois de Julho, Salvador - BA, 40080-001, Brazil
10040;15648;3285480;-13.625934001962099;-44.4659699896562;POSTO DE ASSISTENCIA A SAUDE MANOEL BENEDITO DE SOUZA;POVOADO DE SAO MANOEL;S/N;ZONA RURAL;(77)6832152;47655000.0;BA;Jaborandi;2016;5;-13.475672;-44.49631;São Manuel, Jaborandi - BA, 47655-000, Brazil
10043;15605;4033558;-11.412489535751;-39.46424606630821;UNIDADE DE SAUDE DA FAMILIA DE TANQUINHO;RUA CIDADE DE VALENTE;11;POVOADO DE TANQUINHO;(75) 32632521;48890000.0;BA;Valente;2016;5;-11.4461453;-39.4217658;R. Cidade de Valente, 11, Valente - BA, 48890-000, Brazil
10044;15739;5065380;-6.398196022715711;-41.7405359913299;PS NEMESIO VELOSO MARTINS DE CASTRO;RUA EDMUNDO SOARES;S/N;LAVANDERIA;;64300000.0;PI;Valença do Piauí;2016;5;-6.4075269;-41.7348049;R. Edmundo Soares, Valença do Piauí - PI, 64300-000, Brazil
10045;15900;3001628;-12.398521900176599;-39.145574569701;USF OLAVO LOBO;DISTRITO DE SANTO ESTEVAO VELHO;S/N;ZONA RURAL;XXXXXXXXXXXXXXXX;44180000.0;BA;Antônio Cardoso;2016;5;-12.3983726;-39.145483;Unnamed Road, 44180-000, Antônio Cardoso - BA, Brazil
10048;15712;2369311;-7.126833200454509;-41.08494043350101;PS KM 80;LOCALIDADE KM 80;S/N;CENTRO;(86)4571151;64578000.0;PI;Campo Grande do Piauí;2016;5;-7.128678099999999;-41.0318535;Campo Grande do Piauí, PI, 64578-000, Brazil
10049;15642;2565579;-5.4456996917723;-39.201042652129004;UNIDADE DE SAUDE CORONEL AGRIPINO LEITE;RUA CAPITAO AGRIPINO FERREIRA LEITE;S/N;VILA NENELANDIA;0000000;63800000.0;CE;Quixeramobim;2016;5;-5.4466017;-39.2007599;Rua Capitão Agripino Ferreira Leite, Quixeramobim - CE, 63800-000, Brazil
10051;15786;2325217;-5.4476028602403614;-42.370616702474706;UBS EDNALVA RODRIGUES GOMES DE BRITO;SAO PEDRO;25;SAO PEDRO;;64380000.0;PI;Beneditinos;2016;5;-7.718340100000001;-42.72892359999999;State of Piauí, Brazil
10052;15747;2600544;-11.909662485122302;-39.198896884917104;PSF DE BELO ALTO;POVOADO DE BELO ALTO;01;BELO ALTO;(75)2352130;48710000.0;BA;Candeal;2016;5;-11.9039813;-39.1904067;Belo Alto, Candeal - BA, 48710-000, Brazil
10053;15881;2402262;-13.736954927444101;-39.393453598021296;POSTO DE SAUDE DE TARARANGA;POVOADO DE TARARANGA;S/N;TARARANGA;;45450000.0;BA;Gandu;2016;5;-13.7371375;-39.3929819;45436 - 000, BA - 250, Piraí do Norte - BA, 45436-000, Brazil
10054;15673;2363909;-7.355357313717049;-35.4433017394971;PSF SALGADO DE SAO FELIX;RUA JOSE SILVEIRA;13;CENTRO;;58370000.0;PB;Salgado de São Félix;2016;5;-7.3555233;-35.4351145;R. José Silveira, 13, Salgado de São Félix - PB, 58370-000, Brazil
10057;15660;2454610;-1.8262428458880904;-44.868811815977104;CENTRO DE SAUDE FLAVIO SILVA;RUA GETULIO VARGAS;S/N;CENTRO;(98)3911110;65268000.0;MA;Cururupu;2016;5;-1.8260888;-44.8733479;R. Getúlio Vargas, Cururupu - MA, 65268-000, Brazil
10058;15607;3153568;-8.09015114849718;-34.8850555000305;US 297 PSF DO PINA;RUA BARREIROS;120;PINA;(81);51011260.0;PE;Recife;2016;5;-8.090238700000002;-34.88493920000001;R. Barreiros, 120 - Pina, Recife - PE, 51011-260, Brazil
10061;15874;2327600;-4.02580261230457;-40.9065198898303;UBS DE PEDRA DE COCO;SITIO PEDRA DE COCO;S/N;SITIO PEDRA DE COCO;;62370000.0;CE;São Benedito;2016;5;-4.0256962;-40.9065169;Unnamed Road, São Benedito - CE, 62370-000, Brazil
10062;15907;3001695;-17.986882925033;-39.739716053007896;USF 10 COLONIA NOVA;RUA PRINCIPAL;S/N;CANDIDO MARIANO KM;;45928000.0;BA;Nova Viçosa;2016;5;-17.9008502;-39.371702;Nova Viçosa, State of Bahia, 45920-000, Brazil
10063;16000;4025598;-12.2093617916104;-38.992238044737604;ESF DA ASA BRANCA I;RUA ARRAIO DO MEIO;S/N;ASA BRANCA;7532251884;44044337.0;BA;Feira de Santana;2016;5;-12.2094436;-38.9902453;R. Arroio do Meio - Parque Asa Branca, Feira de Santana - BA, Brazil
10064;15916;7365977;-11.6626598777382;-39.834022521972706;UNIDADE DE SAUDE DA FAMILIA JOVENILIO CARNEIRO;AVENIDA OSVALDO FERNANDES DE ARAUJO;S/N;ALTO ALEGRE;(75)3690-2111;44645000.0;BA;Capela do Alto Alegre;2016;5;-21.5826153;-50.1664925;Alto Alegre - State of São Paulo, 16310-000, Brazil
10066;15840;2369109;-5.834244489669629;-42.6338839530932;PS DE LAGOINHA;RUA COSMA MARIA;S/N;CENTRO;( )2860062;64465000.0;PI;Lagoinha do Piauí;2016;5;-5.835522;-42.63432150000001;R. Cosma Maria, Lagoinha do Piauí - PI, 64465-000, Brazil
10074;16126;2402580;-15.109462738036699;-41.0831594467151;USF DE SAO JOAO DA VITORIA;RUA DR RIVA DAVILA;S/N;ZONA RURAL;7734248931;45065000.0;BA;Vitória da Conquista;2016;5;-14.8619237;-40.8445346;Vitória da Conquista, State of Bahia, Brazil
10075;16372;2608928;-7.24923353038705;-35.2104513918797;POSTO DE SAUDE LAGOA DOS MOCOIS PSF II;SITIO LAGOA DOS MOCOIS;S/N;ZONA RURAL;;58334000.0;PB;São Miguel de Taipu;2016;5;-7.250388199999999;-35.2095872;São Miguel de Taipu, State of Paraíba, 58334-000, Brazil
10079;16044;2627280;-12.258939999999999;-38.038959999999996;UNIDADE DE SAUDE DA FAMILIA MARCIONILIO SOUZA GOMES;RUA GETULIO VARGAS;S/N;CENTRO;(75)34532113;48290000.0;BA;Itanagra;2016;5;-12.262291;-38.0383044;Itanagra - State of Bahia, Brazil
10080;16154;2478765;-4.09743233197342;-39.239466495031294;UBS DOM LUSTOSA SEDE;RUA RAIMUNDO ABEL;S/N;CENTRO;(85)33201229;62736000.0;CE;Paramoti;2016;5;-4.0998466;-39.2380491;R. Raimundo Abel, Paramoti - CE, 62736-000, Brazil
10083;16298;6481752;-4.15387272834766;-38.7952566146839;POSTO DE SAUDE DE PIROAS;SERRA DO PIROAS;S/N;PIROAS;(85)3332-2275;62790000.0;CE;Redenção;2016;5;-4.0548029;-38.7213394;Piroás, Maranguape - CE, Brazil
10084;16114;3713741;-11.1724627017972;-40.5359458923328;PSF DA LADEIRA VERMELHA;RUA LADEIRA VERMELHA;S/N;LADEIRA VERMELHA;74-3622-2154;44700000.0;BA;Jacobina;2016;5;-11.1691261;-40.53504239999999;Av. Ladeira Vermelha - Ladeira Vermelha, Jacobina - BA, 44700-000, Brazil
10086;16168;2462648;-5.73345780372603;-46.2811088561998;UBS EUNICE LIMA BRITO BREJO SITIO DO MEIO;POV BREJO DO SITIO DO MEIO;S/N;ZONA RURAL;;65940000.0;MA;Grajaú;2016;5;-3.6783341;-42.7530837;Brejo, State of Maranhão, 65520-000, Brazil
10089;16246;5479657;-14.7676527500148;-42.6562213897693;PSF DORIVALDO DANTAS;PRACA ANANIAS DE MATOS;S/N;CENTRO;;46350000.0;BA;Urandi;2016;5;-14.7672073;-42.6571253;Urandi, BA, 46350-000, Brazil
10090;16008;2816261;-12.879106145324199;-42.4912287412418;UNIDADE BASICA DE SAUDE DE CASTANHAO;POV DE CASTANHAO;S/N;ZONA RURAL;(77) 36742017;46540000.0;BA;Ibipitanga;2016;5;-13.95;-40.1666669;Castanhão, Jequié - BA, Brazil
10094;16047;7764421;-12.148091094109398;-39.7434533948898;UNIDADE BASICA DE SAUDE PORTE II;RUA SAO VICENTE;510;CENTRO;;44600000.0;BA;Ipirá;2016;5;-9.4183153;-40.5115866;R. São Vicente, 510 - Santo Antonio, Juazeiro - BA, 48902-050, Brazil
10098;16391;3619389;-13.0759114976724;-44.2050289853753;UNIDADE DE SAUDE DA FAMILIA DA SEDE;RUA PATRICIO DE QUEIROZ;S/N;CENTRO;;47730000.0;BA;Canápolis;2016;5;-13.072895;-44.2013359;Canápolis - State of Bahia, Brazil
10101;16051;2375184;-6.3355717032011505;-35.3170907892286;UBS TABOCAS;SITIO TABOCAS;S/N;ZONA RURAL;;59180000.0;RN;Espírito Santo;2016;5;-6.390321699999999;-35.3240061;Espírito Santo - State of Rio Grande do Norte, 59180-000, Brazil
10102;16288;2414430;-15.2480900287624;-40.6261539459217;CENTRO DE SAUDE CORIOLANO JOSE FAGUNDES;AV JOAO DURVAL CARNEIRO;S/N;HUMBERTO LOPES;(77)34328316;45140000.0;BA;Itambé;2016;5;-15.2499624;-40.6237441;Av. Gov. João Durval Carneiro, Itambé - BA, 45140-000, Brazil
10103;16025;2497662;-7.356976595898299;-39.0475466361851;UBS VILA SAO JOSE ESF II;VILA DE SAO JOSE;S/N;ZONA RURAL;3558 1210;63240000.0;CE;Abaiara;2016;5;-7.3606417;-39.0477953;Abaiara - State of Ceará, Brazil
10104;16102;4029682;-12.143587203813901;-38.6490014216411;UNIDADE DE SAUDE DA FAMILIA DA BOA VISTA;FAZENDA BOA VISTA;S/N;CENTRO;;48140000.0;BA;Pedrão;2016;5;-12.1495827;-38.6490673;Pedrão, BA, 48140-000, Brazil
10107;16001;6316212;-8.45968723297095;-35.942952632903;PSF NOVO AGRESTE ANDRELINA TENORIO DE BARROS;RUA VEREADOR BARBOSA VERAS;41;NOVO AGRESTE;;55495000.0;PE;Agrestina;2016;5;-8.35;-36.866667;Agreste, Pesqueira - State of Pernambuco, 55200-000, Brazil
10112;16322;2306719;-4.25473750013981;-43.01401361554949;UNIDADE BASICA DE SAUDE SAO FRANCISCO;RUA FRANCISCO A SOUSA;S/N;SAO FRANCISCO;98 3473 1101;65620000.0;MA;Coelho Neto;2016;5;-4.2496756;-43.0125503;R. Francisco Z. de Souza, Coelho Neto - MA, 65620-000, Brazil
10114;16297;2321998;-7.31372952461221;-38.515920639037;UBSF I CENTRO DE SAUDE;RUA AMORIN ZINET;S/N;CENTRO;(83)34901296;58960000.0;PB;Bonito de Santa Fé;2016;5;-7.313137699999999;-38.5156978;R. Moacir Amorim, Bonito de Santa Fé - PB, 58960-000, Brazil
10116;16175;2388375;-14.722069493739998;-41.26543132366921;UNIDADE DE SAUDE DA FAMILIA JIBOIA;POVOADO DA JIBOIA;S/N;POV DA JIBOIA;773443 1011;45177000.0;BA;Caraíbas;2016;5;-14.5973645;-41.2454878;Caraíbas - State of Bahia, 45177-000, Brazil
10118;16250;2509598;-13.5886077869907;-41.818790556361705;UNIDADE DE SAUDE DA FAMILIA DE MARCOLINO MOURA;RUA FRANCISCO SANTOS;S/N;RURAL;(77)34757063;46170000.0;BA;Rio de Contas;2016;5;-13.585845;-41.8136196;Rio de Contas, BA, 46170-000, Brazil
10120;16360;2508923;-11.758031845092402;-40.71230649948;USF PORTO FELIZ;RUA DO COLEGIO;S/N;POVOADO DE PORTO FEL;(74)36282123;44830000.0;BA;Piritiba;2016;5;-11.7305647;-40.5575606;R. Régis Pachêco, s/n - Centro, Piritiba - BA, 44830-000, Brazil
10123;16277;4219;-12.928419113158801;-38.498089313506;UBS MINISTRO ALKIMIN;RUA LOPES TROVAO;S/N;MASSARANDUBA;(71) 3611-6561;40435000.0;BA;Salvador;2016;5;-12.9279226;-38.4993821;R. Lopes Trovão - Massaranduba, Salvador - BA, 40435-000, Brazil
10124;16377;2633140;-8.06888;-37.26873;USF VILA DA COHAB;RUA B;S/N;VILA DA COHAB;;56600000.0;PE;Sertânia;2016;5;-8.0727076;-37.2726942;R. Benjamin Barbosa, Sertânia - PE, 56600-000, Brazil
10125;16157;2345684;-8.28250050544715;-35.942223072051;UBS RENDEIRAS I E II;RUA MAJOR JOAO COELHO;376;RENDEIRAS;(81)37011380;55022220.0;PE;Caruaru;2016;5;-8.280433;-35.9349316;R. Maj. João Coelho, 376 - Rendeiras, Caruaru - PE, 55022-220, Brazil
10130;16167;2526115;-14.678018989783402;-39.3817881541009;U S F JOSE DE ANCHIETA;AVENIDA PRESIDENTE KENNEDY;S/N;JOSE DE ANCHIETA;;45630000.0;BA;Itajuípe;2016;5;-14.6763856;-39.3854145;Av. Pres. Kenedy, Itajuípe - BA, 45630-000, Brazil
10131;16208;2424223;-3.68803768376442;-40.34866803365821;CSF EXPECTATIVA LIONS CAICARA;RUA EVA;S/N;EXPECTATIVA;(88)3611 6082;62011000.0;CE;Sobral;2016;5;-3.6758302;-40.35117229999999;R. Eva, Sobral - CE, Brazil
10132;16308;2011654;-9.842247962951367;-35.9002518653859;UNIDADE DE SAUDE DA FAMILIA;LOT OUTEIRO;S/N;CENTRO;;57180000.0;AL;Barra de São Miguel;2016;5;-9.839805199999999;-35.8901157;Av. Leonita Cavalcante, s/n - Centro, Barra de São Miguel - AL, 57180-000, Brazil
10133;16361;2373343;-3.98612002229387;-38.6182993120325;POSTO DE SAUDE DE ALTO FECHADO;ALTO FECHADO;S/N;ALTO FECHADO;3451291;61810220.0;CE;Pacatuba;2016;5;-3.9295278;-38.6057798;Sítio Alto Fechado - s/n Anexo Est Trat, CE, Brazil
10135;16062;2597888;-9.814889430999472;-40.601885318754896;USF GOIABEIRA JUNCO;DISTRITO DO JUNCO;S/N;JUAZEIRO;(74)611 2766;48903400.0;BA;Juazeiro;2016;5;-9.437165;-40.495882;Distrito De Junco, S/N - Centro, Juazeiro - BA, 48900-010, Brazil
10137;16265;2605317;-7.02388510178142;-37.284700870513895;UNIDADE DE SAUDE DA FAMILIA ADERBAN MARTINS DE MEDEIROS;RUA ENALDO TORRES FERNANDES;S/N;BELO HORIZONTE;(83) 3421-5851;58703070.0;PB;Patos;2016;5;-7.0252859;-37.2848165;R. Enaldo Tôrres Fernandes, Patos - PB, Brazil
10139;16225;2408759;-5.77370166778548;-35.1982426643361;USF ROCAS;RUA FRANCISCO BICALHO;S/N;ROCAS;32328541;59010350.0;RN;Natal;2016;5;-5.7740731;-35.1984539;R. Francisco Bicalho - Rocas, Natal - RN, Brazil
10140;16183;2450496;-2.8993234;-44.8761898;U B S OUTEIRO M JUSTINA PSFSB;POVOADO DE OUTEIRO;S/N;OUTEIRO;;65220000.0;MA;São Vicente Ferrer;2016;5;-2.8952626;-44.8805522;São Vicente Ferrer - State of Maranhão, 65220-000, Brazil
10143;16002;7628455;-6.93893;-38.96717;UNIDADE BASICA DE SAUDE 9 SAO BENEDITO;RUA CANDIDO RIBEIRO NETO;S/N;SAO BENEDITO;(88)35431490;63360000.0;CE;Aurora;2016;5;-6.949896;-38.9651866;R. Cândido Ribeiro Neto - São Benedito, Aurora - CE, 63360-000, Brazil
10147;16340;6078036;-13.7636268138882;-41.0462951660144;USF VALDIR NERYS DE OLIVEIRA;RUA 13 DE MAIO;0;CENTRO;;46620000.0;BA;Contendas do Sincorá;2016;5;-13.7541402;-41.0483285;Contendas do Sincorá, BA, 46620-000, Brazil
10148;16164;2509717;-12.407417354473901;-39.5006356828925;USF JUSTINIANO FRANCISCO DA SILVA;POVOADO DE SAO ROQUE DO PARATIGI;S/N;ZONA RURAL;;44520000.0;BA;Rafael Jambeiro;2016;5;-12.4097301;-39.4920559;Estr. p/ São Roque, Rafael Jambeiro - BA, 44520-000, Brazil
10150;16128;3010090;-13.2541143730901;-43.41714164213899;UNIDADE BASICA DE SAUDE PROJETO FORMOSO A;PROJETO FORMOSO A;S/N;ZONA RURAL;;47600000.0;BA;Bom Jesus da Lapa;2016;5;-13.252235;-43.400426;Rua Via Do Setor 33, 135 Zona Rural - Povoado, Bom Jesus da Lapa - BA, 47600-000, Brazil
10153;16371;2454661;-1.8723535537719198;-44.7039055824267;CENTRO DE SAUDE TAPERA DE BAIXO;POVTAPERA DE BAIXO;S/N;TAPERA DE BAIXO;;65268000.0;MA;Cururupu;2016;5;-1.871981;-44.704742;Unnamed Road, 65268-000, Cururupu - MA, Brazil
10157;16036;2698307;-14.810353517531901;-39.263720512389;USF DR CANDIDO PEREIRA;RUA SANTA MARIA;S/N;MARIA PINHEIRO;;45600200.0;BA;Itabuna;2016;5;-14.8100558;-39.2626982;R. Santa Luzia - Maria Pinheiro, Itabuna - BA, 45606-310, Brazil
10164;16069;3443167;-13.3735016385382;-39.5154478649189;UNIDADE DE SAUDE DA FAMILIA TEOBALDO PINHEIRO DOS SANTOS;POVOADO DAS DUAS BARRAS DO FOJO;S/N;ZONA RURAL;(75)36352134;45480000.0;BA;Mutuípe;2016;5;-22.0708122;-42.5117238;Duas Barras - State of Rio de Janeiro, Brazil
10165;16125;6743102;-7.49163800866138;-38.9855138673635;PSF CORACAO DE MARIA;VILA ESPERANCA;S/N;VILA ESPERANCA;88 35311830;63260000.0;CE;Brejo Santo;2016;5;-6.100104;-39.4670322;Vila Esperança, Acopiara - CE, 63560-000, Brazil
10166;16099;2638215;-8.12861;-35.29794000000001;U S F LADEIRA DE PEDRAS;LADEIRA DE PEDRAS;100;ZONA RURAL;(81)35234050;55602050.0;PE;Vitória de Santo Antão;2016;5;-8.140987299999999;-35.2706932;PE-045, 60 - Lídia Queiroz, Vitória de Santo Antão - PE, Brazil
10168;49829;7487347;-9.16853;-36.67463;USF DIONISIA CORREIA RAMOS SITIO ANGICO;SITIO ANGICO;S/N;ZONA RURAL;;55330000.0;PE;Bom Conselho;2016;5;-9.1699114;-36.6851191;Bom Conselho, State of Pernambuco, 55330-000, Brazil
10169;16281;3230198;-8.1286072;-35.29793820000001;U S F SERRA GRANDE;ENGENHO SERRA GRANDE;100;ZONA RURAL;(81)3523-1111;55602050.0;PE;Vitória de Santo Antão;2016;5;-8.2;-35.35;Serra Grande, Vitória de Santo Antão - PE, 55630-000, Brazil
10170;16304;6866271;-10.6652462482449;-39.4898843765247;UNIDADE DA SAUDE DA FAMILIA DA SEDE;AVENIDA LUIZ GOMES BURAQUEIRA;S/N;CENTRO;75-3274-1346;48840000.0;BA;Cansanção;2016;5;-10.6704643;-39.4996155;R. Luís São Gomes Buraqueira, Cansanção - BA, 48840-000, Brazil
10172;16291;2409038;-5.858903;-35.2526174;USF PLANALTO;RUA MIRAMANGUE;08;PLANALTO;32328400/8401;59073200.0;RN;Natal;2016;5;-5.8523713;-35.2524243;R. Mira Mangue, 8 - Planalto, Natal - RN, 59073-230, Brazil
10174;16335;2481618;-4.48506654454778;-38.59853798279021;UBASF ARISCO DOS MARIANOS;VILA ARISCO DOS MARIANOS;S/N;OCARA;3371169;62755000.0;CE;Ocara;2016;5;-4.5631849;-38.5001323;Arisco dos Marianos, Ocara - CE, 62755-000, Brazil
10175;16331;3000079;-5.8386862277982905;-43.8466930389392;UNIDADE DE SAUDE DA FAMILIA ACRISIO PINTO;AV COLINAS;S/N;MUTIRAO;;65685000.0;MA;Buriti Bravo;2016;5;-5.8327845;-43.8356777;Buriti Bravo, MA, 65685-000, Brazil
10176;16064;2799189;-12.83863;-38.34949;UNIDADE DE SAUDE DA FAMILIA ANTONIO CARLOS RODRIGUES;RUA 02 DE JULHO;S/N;AREIA BRANCA;71 3291-8839;42723070.0;BA;Lauro de Freitas;2016;5;-12.8422426;-38.3526646;Tv. Dois de Julho, 2 - S/N - Jardim Primavera, Lauro de Freitas - BA, 42700-000, Brazil
10177;16390;2602180;-12.649244070052701;-40.9306597709644;UNIDADE DE SAUDE DA FAMILIA;RUA PEDRO FILHO DE SOUZA;S/N;CENTRO;(75)33285023;46840000.0;BA;Ibiquera;2016;5;-12.6457272;-40.9333291;Ibiquera - State of Bahia, Brazil
10178;16328;4033698;-12.19740986824;-41.201412677763706;USF DR JONAS DIAS DE ARAUJO;DISTRITO DE CACHOEIRINHA;07;ZONA RURAL;75-33362482;46970000.0;BA;Wagner;2016;5;-12.1917386;-41.2069685;Cachoeirinha, Wagner - BA, 46970-000, Brazil
10179;16115;2425734;-7.58553646567842;-39.2841644573661;USF IV SANTA INEZ;VIL LAGOA DO ALTO;S/N;ZONA RURAL;5551112;63290000.0;CE;Jardim;2016;5;-7.6344011;-39.2629886;CE-060, 27, Jardim - CE, 63290-000, Brazil
10180;16256;132;-8.31216573715186;-35.0170111656179;USF ROSARIO;RUA 01;12;ROSARIO;(81)35249235;54505560.0;PE;Cabo de Santo Agostinho;2016;5;-8.340997699999999;-35.0159725;Rosário, Cabo de Santo Agostinho - PE, Brazil
10185;16279;2408066;-5.49714835330496;-36.85287460465421;UNIDADE BASICA DE SAUDE DE NOVA DESCOBERTA;SITIO TIRA FOGO;10;ZONA RURAL;8433353902;59508000.0;RN;Ipanguaçu;2016;5;-9.416667;-63.666667;Tira Fogo, Alto Paraíso - RO, 76862-000, Brazil
10187;16238;2349698;-8.0837686852499;-34.9823843383789;USF CURADO III I;RUA ANTONIO JACOME BEZERRA;S/N;CURADO III;81-3452-0476;54220240.0;PE;Jaboatão dos Guararapes;2016;5;-8.0744958;-35.0031148;Av. Antônio Jácome Bezerra, Jaboatão dos Guararapes - PE, Brazil
10191;16351;4011279;-4.455857276916371;-37.796230316161;PROGRAMA SAUDE DA FAMILIA SEDE;RUA IZIDIO MOURA;179;CENTRO;(88)34131019;62817000.0;CE;Fortim;2016;5;-4.4556512;-37.795303;R. Isídio Moura, 179, Fortim - CE, 62815-000, Brazil
10193;16116;4020154;-9.111752099999999;-37.603477399999996;CENTRO DE SAUDE DE CANAPI;EUPIDIO LOU;S/N;CENTRO;(82)36461244;57530000.0;AL;Canapi;2016;5;-9.1162866;-37.6054631;R. José Eupídio Lou, Canapi - AL, 57530-000, Brazil
10195;16378;6331807;-5.346925;-42.8140484695768;UNIDADE BASICA DE SAUDE BOM JARDIM;PI 130 ZONA RURAL;S/N;ZONA RURAL;;64415000.0;PI;Nazária;2016;5;-5.5916429;-43.0222605;PI-130, Piauí, Brazil
10196;16152;2552604;-4.31343168517721;-40.7187261447301;UNIDADE BASICA DE SAUDE DO CENTRO;RUA PADRE JOAO DE CASTRO;1192;CENTRO;8232154;62250000.0;CE;Ipu;2016;5;-4.3206115;-40.70855419999999;R. Padre João de Castro, 1192 - Centro, Ipu - CE, 62250-000, Brazil
10199;16267;2527499;-7.387397999999999;-38.772795438031004;ESF BELA VISTA;AV DR FERNANDES TELES CARTAXO;S/N;BELA VISTA;;63210000.0;CE;Mauriti;2016;5;-7.3748212;-38.7671547;Av. Dr. Fernandes Teles Cartaxo - Bela Vista II, Mauriti - CE, 63210-000, Brazil
10201;16077;3164241;-12.8054405058323;-42.1717071533203;PSF DE NOVO HORIZONTE;RUA 13 DE JUNHO;S/N;CENTRO;(77)36481060;46730000.0;BA;Novo Horizonte;2016;5;-12.9404492;-38.4341918;R. 13 de Junho - Sussuarana, Salvador - BA, 40301-110, Brazil
10203;16174;5044901;-16.580879688262502;-39.5478415489185;ESFSB DAPEZAO;RUA MARECHAL RONDON;325;DAPEZAO;;45848000.0;BA;Itabela;2016;5;-16.5807956;-39.5477797;R. Mal. Rondon, 325, Itabela - BA, 45848-000, Brazil
10204;16124;3124940;-14.2798447608944;-38.994834423064106;UBS DE ITACARE;RUA JOAO DE SOUZA;S/N;CENTRO;73 32513901;45530000.0;BA;Itacaré;2016;5;-14.279313;-38.9946839;R. João de Souza, Itacaré - BA, 45530-000, Brazil
10205;16162;3006751;-7.17070341110209;-34.912919998167894;USF INTEGRADA VIEIRA DINIZ;RUA MARIA JOSE MIRANDA DO AMARAL;S/N;JARDIM VENEZA;32121-5740;58084160.0;PB;João Pessoa;2016;5;-7.1698144;-34.9118451;R. Maria José Miranda do Amaral - Jardim Veneza, João Pessoa - PB, 58084-160, Brazil
10209;16389;2387085;-11.189897060394001;-40.2628540992725;POSTO DE SAUDE DA FAMILIA DE GONCALO;AV ITAPICURU GONCALO;S/N;ZONA RURAL;;44730000.0;BA;Caém;2016;5;-11.1869985;-40.2621209;Av. Itapicuru Mirim S/N - - Zona Rural - Distrito de Gonçalo, Caém - BA, Brazil
10210;16087;2493632;-12.5299707907046;-38.2972993248088;UNIDADE DE SAUDE DA FAMILIA ZILDA FEITOSA DIAS;RUA ALAMEDA DAS AMENDOEIRAS;S/N;IMBASSAI;(71)6351628;48280000.0;BA;Mata de São João;2016;5;-12.4909192;-37.9634159;Alameda das Amendoeiras, Mata de São João - BA, 48280-000, Brazil
10211;16170;2519690;-12.9761973;-39.2788801;USF ALTO SANTO ANTONIO;RUA 12;S/N;ALTO SANTO ANTONIO;(75)6315654;44572901.0;BA;Santo Antônio de Jesus;2016;5;-12.9726331;-39.2815374;R. São Jorge, 75 - Amparo, Santo Antônio de Jesus - BA, Brazil
10215;16283;2386682;-14.3385100364681;-40.6934022903431;USF CELIA MARIA MIRANDA;DISTRITO DO BOMFIM DO AMIANTO;S/N;ZONA RURAL;(77)34611012;45263000.0;BA;Bom Jesus da Serra;2016;5;-14.366767;-40.5129279;Bom Jesus da Serra, BA, 45263-000, Brazil
10216;16301;4032136;-13.4042182497929;-44.1968725574679;UNIDADE BASICA DE SAUDE DA FAMILIA I;RUA LESSA;S/N;CENTRO;77 3483 1551;47665000.0;BA;São Félix do Coribe;2016;5;-13.4052406;-44.1842765;Rua Nilo Lessa, São Félix do Coribe - BA, 47665-000, Brazil
10218;16399;2592282;-7.3768687248227796;-38.073828220366295;USF SERRA BRANCA;SITIO SERRA BRANCA;S/N;DISTRITO;83934851226;58795000.0;PB;Santana dos Garrotes;2016;5;-7.4828261;-36.6639815;Serra Branca, PB, 58580-000, Brazil
10219;16150;5794269;-14.2573509943559;-43.170512131516396;UNIDADE BASICA DE SAUDE ZILDA MARIA DA CRUZ MALHEIROS;RUA MANOEL NOVAIS;S/N;CENTRO;;46460000.0;BA;Palmas de Monte Alto;2016;5;-14.2590572;-43.1599763;Av. Manoel Novaes, Palmas de Monte Alto - BA, 46460-000, Brazil
10222;16387;4013921;-6.15866303443891;-35.687563419341004;UBS CACIMBA DE BAIXO;ZONA RURAL;S/N;SITIO;;59245000.0;RN;Serra Caiada;2016;5;-6.10474;-35.7113363;Serra Caiada - State of Rio Grande do Norte, Brazil
10228;16299;29041;-8.1117;-34.946529999999996;US 281 PSF VILA DOS MILAGRES;RUA DAS FLORES;60;IBURA;(81) 33556250;51270100.0;PE;Recife;2016;5;-8.1318419;-34.9349076;R. das Flôres, 60 - Santana, Recife - PE, 50010-110, Brazil
10230;16337;4804;-12.970999999999998;-38.510999999999996;UBS DR ORLANDO IMBASSAHY;RUA TANCREDO NEVES;S/N;BAIRRO DA PAZ;(71) 3611-7002;41515235.0;BA;Salvador;2016;5;-12.9341899;-38.38027050000001;R. Tancredo Neves - Bairro da Paz, Salvador - BA, 41301-110, Brazil
10231;16138;26387;-8.06276248305241;-34.8889419445777;US 270 PSF MONTE VERDE;AV CHAPADA DO ARARIPE;116;COHAB;(81) 33556158;51340255.0;PE;Recife;2016;5;-8.115131;-34.9597989;Av. Chapada do Araripe, 116 - COHAB, Recife - PE, 51340-255, Brazil
10239;16037;2698315;-14.820803403853901;-39.309103488921;USF DR ELSON DUARTE;RUA A;S/N;URBIS IV;(73)2141205;45600200.0;BA;Itabuna;2016;5;-14.8189767;-39.286915;R. A, Itabuna - BA, 45606-710, Brazil
10241;16149;2612410;-10.6118488311764;-37.260003089903705;POSTO DE SAUDE ZEFERINO FARO DE AZEVEDO;POVOADO LAGOA DO CARAO;S/N;CENTRO;(07)92731349;49640000.0;SE;Santa Rosa de Lima;2016;5;-10.60336;-37.27950999999999;Lagoa do Carvão, Santa Rosa de Lima - SE, 49640-000, Brazil
10242;16321;2801000;-5.494623184203942;-35.4625582694997;UBS SANTA AGUEDA;POVOADO DE SANTA AGUEDA;S/N;ZONA RURAL;;59570000.0;RN;Ceará-Mirim;2016;5;-5.6332258;-35.4253703;Praça Barão de Ceará Mirim, 236 - Santa Águeda, Ceará-Mirim - RN, 59570-000, Brazil
10243;16053;3019683;-12.929783078466;-38.6649725030527;USF MISERICORDIA;MISERICORDIA;999999;MISERICORDIA;(07)16311730;44460000.0;BA;Itaparica;2016;5;-12.9293285;-38.6609836;R. Nova Misericórdia, Itaparica - BA, 44460-000, Brazil
10247;16294;3569322;-8.09797;-34.91174;US 313 PSF TRES CARNEIROS DE BAIXO ZUMBI DO PACHECO;AV CAMPO VERDE;S/N;IBURA;(81) 33554712;51330430.0;PE;Recife;2016;5;-8.1267958;-34.9557805;Av. Campo Verde, Recife - PE, 54270-060, Brazil
10253;16229;4026667;-11.8288274008654;-42.610688853898104;UNIDADE DE SAUDE DA FAMILIA ARTHUR GOMES DA SILVA;RUA DR MANOEL NOVAIS;S/N;VILA DE IBIPETUM;;47590000.0;BA;Ipupiara;2016;5;-11.7991535;-42.6436714;R. Dr. Manoel Novaes, Ipupiara - BA, 47590-000, Brazil
10254;16195;2363372;-7.392642696958378;-36.802777819506396;UNIDADE MISTA DE SAUDE MARIA HELENA DE BRITO;RUA PROJETADA;S/N;CENTRO;8333091001;58570000.0;PB;São José dos Cordeiros;2016;5;-7.391137399999999;-36.8075673;São José dos Cordeiros, PB, 58570-000, Brazil
10256;16061;6858600;-11.6720187664029;-37.5994205474843;POSTO DE SAUDE SAMUEL NUNES;POVOADO MALHADINHA;52;POVOADO;;48310000.0;BA;Jandaíra;2016;5;-9.901776700000001;-42.3038999;Malhadinha, Remanso - BA, 47200-000, Brazil
10258;16004;2645718;-2.85151004791251;-44.1046786308276;UBS DE BURGOS;RUA PRINCIPAL;S/N;BURGOS;(98)361112;65148000.0;MA;Axixá;2016;5;-2.8592637;-44.1067253;Burgos, Axixá - MA, 65148-000, Brazil
10260;16070;2601311;-12.818867567511196;-41.0688595103445;USF MANOEL DE SA TELES;RUA NASCER DO SOL;S/N;CENTRO;;46835000.0;BA;Nova Redenção;2016;5;-12.8219987;-41.07434370000001;Avenida Nascer do Sol, s/n - Centro, Nova Redenção - BA, 46835-000, Brazil
10263;16105;2509164;-13.0643320083614;-40.2887105941761;P S DE SANTO ANDRE;DISTRITO DE SANTO ANDRE;S/N;ZONA RURAL;;45375000.0;BA;Planaltino;2016;5;-23.6742228;-46.5436003;Santo André, State of São Paulo, Brazil
10267;16131;2444097;-5.047595500945901;-42.8314447402942;UNIDADE BASICA DE SAUDE MARIA TERESA DE MELO COSTA MAFRENSE;RUA RUI BARBOSA;S/N;MAFRENSE;(86) 3215 9171;64002180.0;PI;Teresina;2016;5;-5.047409099999999;-42.8314829;R. Rui Barbosa - Mafrense, Teresina - PI, Brazil
10272;16142;2479095;-5.19262790679917;-39.8953056335438;PROG SAUDE DA FAM DE IPIRANGA;FAZENDA IPIRANGA;S/N;CENTRO;0000000;63870000.0;CE;Boa Viagem;2016;5;-5.12636;-39.73143;DISTR DE IBUACU SN - Ibuaçu, CE, 63890-974, Brazil
10277;16134;3447901;-14.38742;-41.879979999999996;UNIDADE DE SAUDE DA FAMILIA PADRE LADISLAU KLENER;RUA LEONIDIO MARTINS;S/N;CENTRO;(77)34492120;46110000.0;BA;Malhada de Pedras;2016;5;-14.3861829;-41.8804942;R. Leonidio Martin, Malhada de Pedras - BA, 46110-000, Brazil
10280;16241;5312639;-12.7092465330848;-39.703774606226396;UNIDADE DE SAUDE DA FAMILIA GEOVANIA NOGUEIRA NUNES;RUA JOAO ALMEIDA;S/N;URBIS;(75)3452-2256;46875000.0;BA;Itatim;2016;5;-12.7064081;-39.6973656;Itatim - State of Bahia, Brazil
10281;16009;2406985;-5.111056566238259;-42.7846240997302;UNIDADE BASICA DE SAUDE SERGIO L CHANTAL NUNES TRES ANDARES;RUA FR CASSIANE DE BRITO ESQ COM ORGMAR MONTEIRO;S/N;TRES ANDARES;(86) 32159193;64016620.0;PI;Teresina;2016;5;-5.1102425;-42.7831234;R. Est. Francisco Cassiano de Brito - Três Andares, Teresina - PI, Brazil
10282;16158;3505715;-17.2435958824224;-39.583674891948704;UBS 10 LIMEIRA VOLANTE;POVOADO DE GUARANI;S/N;POVOADO DE GUARANI;;45980000.0;BA;Prado;2016;5;-17.107097;-39.447489;Guarani, Prado - BA, 45980-000, Brazil
10284;16368;2564955;-5.69767713546736;-39.158062934874394;UNIDADE DE SAUDE DA FAMILIA DA BARRA;DISTRITO DA BARRA;S/N;ZONA RURAL;(88)352912-84;63635000.0;CE;Milhã;2016;5;-5.683678899999999;-39.1972263;Milhã - State of Ceará, 63635-000, Brazil
10285;16180;3997103;-12.229284252480001;-38.9600330963213;ESF DO PANORAMA I;RUA SILVINA MARQUES;631;PARQUE PANORAMA;7536161600;44091408.0;BA;Feira de Santana;2016;5;-12.2982631;-38.9515188;R. Silvina Marquês de Oliveira, 631 - Tomba, Feira de Santana - BA, 44091-408, Brazil
10286;16270;2479281;-4.82722520828233;-40.3187298774708;UNIDADE DE SAUDE DA FAMILIA SEDE I VILA SAO PEDRO;RUA GEMINIANO RODRIGUES DE FARIAS;S/N;VILA SAO PEDRO;;63750000.0;CE;Tamboril;2016;5;-4.8330598;-40.3212889;Tamboril - State of Ceará, Brazil
10290;16347;2634627;-8.05765;-39.11309;UNIDADE DE SAUDE DA FAMILIA DO IV DISTRITO;SITIO CAMPINHOS;01;CAMPINHOS;;56000000.0;PE;Salgueiro;2016;5;-8.116667000000001;-39.033333;Sítio, Salgueiro - PE, 56000-000, Brazil
10291;16113;2414007;-12.982033994503801;-40.9634187749058;UNIDADE DE SAUDE DA FAMILIA DE BANANEIRAS;POVOADO DE BANANEIRAS;S/N;CENTRO;(75)3202175;46790000.0;BA;Itaeté;2016;5;-6.6834044;-35.5876697;Bananeiras - State of Paraíba, Brazil
10298;16108;2552159;-5.15023902;-38.0990948704529;POSTO DE SAUDE MARIA DE LOURDES FREITAS COSTA;SITIO SAO RAIMUNDO;S/N;ZONA RURAL;(88) 3423.1590;62930000.0;CE;Limoeiro do Norte;2016;5;-5.1216795;-38.0909104;São Raimundo, Limoeiro do Norte - CE, 62930-000, Brazil
10303;16332;2646242;-5.76459525823725;-44.14237976074221;UNIDADE BASICA DE SAUDE MORADA NOVA;POVOADO MORADA NOVA;S/N;CENTRO;(99) 3574 1223;65695000.0;MA;Fortuna;2016;5;-3.816667;-45.65;Morada Nova, Santa Luzia - MA, 65390-000, Brazil
10305;16147;2562618;-3.75833272933949;-38.6174798011769;UAPS AMETISTA OLIVEIRA;RUA H;59;P GUADALAJARA;85-33428023;61648080.0;CE;Caucaia;2016;5;-3.758245;-38.617486;R. Pedestre H, 59 - Parque Guadalajara, Caucaia - CE, 61648-080, Brazil
10306;16039;2607905;-6.793830468600349;-35.288257598877;UBS PSF V PITOMBAS;SITIO PITOMBAS;S/N;ZONA RURAL;(83)2741048;58270000.0;PB;Araçagi;2016;5;-6.7869849;-35.3543756;Sítio Pitombas, Araçagi - PB, 58270-000, Brazil
10307;16264;6070426;-11.1850621601419;-40.5130176278701;PSF DA FELIX TOMAZ;RUA JOAO BATISTA;S/N;FELIX TOMAZ;74 3621-2809;44700000.0;BA;Jacobina;2016;5;-11.1726668;-40.5182977;R. João Batista Figueiredo - Félix Thomas, Jacobina - BA, 44700-000, Brazil
10308;16319;4022297;-11.998121738433499;-42.0573377609241;POSTO DE SAUDE DE OLHOS DAGUINHA;POV OLHOS DAGUINHA;S/N;CENTRO;(74)6541373;44990000.0;BA;Barra do Mendes;2016;5;-11.8079609;-42.05779099999999;Barra do Mendes, BA, 44990-000, Brazil
10311;16223;5193;-12.9905772;-38.5106125;USF URSULA CATHARINO GARCIA;RUA QUINTINO BOCAIUVA;08;GARCIA;(71) 3611-1317;40100240.0;BA;Salvador;2016;5;-12.990546;-38.508351;R. Quintino Bocayuva, 8 - Garcia, Salvador - BA, 40100-240, Brazil
10313;16295;2374927;-6.3051739212975075;-35.475136983998205;UBS DA FAMILIA DE REDENCAO;SITIO REDENCAO;S/N;ZONA RURAL;(84)3282-2427;59255000.0;RN;Santo Antônio;2016;5;-6.3113798;-35.4784912;Santo Antônio, State of Rio Grande do Norte, 59255-000, Brazil
10314;16245;2480328;-4.543785495;-40.715696510593794;POSTO DE SAUDE DE ENGEN JOAO TOME;DISTRITO ENGENHEIRO JOAO TOME;S/N;CENTRO;8251238;62230000.0;CE;Ipueiras;2016;5;-4.5999881;-40.63119469999999;Eng. João Tomé, Ipueiras - CE, 62230-000, Brazil
10317;16130;2476525;-6.27274274826032;-36.5290904045094;UNIDADE BASICA DE SAUDE DR SILVIO BEZERRA DE MELO;RUA PROF MANOEL TARGINO DE AGRIPINO;S/N;DR SILVIO BEZERRA;(84)3405 2702;59380000.0;RN;Currais Novos;2016;5;-6.272734499999999;-36.5291436;R. Prof. Manoel Targino de Agripino - Sílvio Bezerra, Currais Novos - RN, 59380-000, Brazil
10318;16330;2366789;-6.984289884567058;-43.9849019050585;UNIDADE BASICA DE SAUDE DA FAMILIA COCAL;LOCALIDADE COCAL;S/N;ZONA RURAL;;64845000.0;PI;Marcos Parente;2016;5;-3.473168;-41.5549927;Cocal, Piauí, Cocal - State of Piauí, 64235-000, Brazil
10320;16345;2653311;-11.4849354254302;-37.9335777751436;UNIDADE DE SAUDE DA FAMILIA DA MARE MANSA;MARE MANSA;10;MARE MANSA;(75) 3426 1748;48330000.0;BA;Rio Real;2016;5;-11.4818089;-37.9335881;Rio Real, State of Bahia, 48330-000, Brazil
10321;16325;2404508;-10.319616794585901;-44.1173386573779;USF DE SAO MIGUEL;POV SAO MIGUEL;S/N;CENTRO;;64963000.0;PI;Júlio Borges;2016;5;37.780411;-25.4970466;São Miguel Island, Portugal
10322;16234;3469182;-10.921686887740801;-37.076411247252295;US JOALDO BARBOSA;AV GUANABARA;S/N;AMERICA;(79)31793581;49080260.0;SE;Aracaju;2016;5;-10.9217019;-37.0768667;R. Guanabara - América, Aracaju - SE, Brazil
10323;16315;2653206;-11.622880697249999;-38.3701372146595;POSTO DE SAUDE DE LAGOA BRANCA;POVOADO DE LAGOA BRANCA;S/N;CENTRO;;48490000.0;BA;Inhambupe;2016;5;-11.8317895;-38.3889927;Lagoa branca, Inhambupe - BA, 48490-000, Brazil
10325;16080;2650134;-16.338096583817197;-39.0131825840709;UNIDADE DE SAUDE DA FAMILIA PSF 01;RUA PERO VAZ DE CAMINHA;01;CENTRO;(73) 32821256;45807000.0;BA;Santa Cruz Cabrália;2016;5;-16.2819464;-39.0223748;R. Peró Vaz de Caminha, 1, Santa Cruz Cabrália - BA, 45807-000, Brazil
10326;16251;2469839;-13.115063888382199;-38.891418627708795;UNIDADE DE SAUDE DA FAMILIA DE CACOES;RUA CAIO VASCONCELOS NETO;S/N;CACOES;(75) 3642-2156;44480000.0;BA;Jaguaripe;2016;5;-13.0102437;-38.8023156;R. Caio Vasconcelos Neto, Jaguaripe - BA, 44480-000, Brazil
10328;16219;2771675;-12.6057132519817;-38.9687185313515;UNIDADE DE SAUDE DA FAMILIA CURVA DO S;MARGEM DA BR 420 SAO FELIX X MARAGOGIPE;S/N;ZONA RURAL;7534384087;44360000.0;BA;São Félix;2016;5;-12.6057865;-38.9698532;BR-420, São Félix - BA, Brazil
10334;16013;2605457;-6.77119;-36.98957;UNIDADE BASICA DE SAUDE BALBINA M DA CONCEICAO;RUA IZABEL LEOPOLDINA;200;CENTRO;(83)34691060;58620000.0;PB;Várzea;2016;5;-6.7712739;-36.9908692;Várzea - State of Paraíba, Brazil
10336;16135;2406632;-5.13161301612839;-42.7855467796313;UNIDADE BASICA DE SAUDE SAO CAMILO LOURIVAL PARENTE;RUA EPITACIO PESSOA;2085;LOURIVAL PARENTE;(86) 32159160;64023400.0;PI;Teresina;2016;5;-5.131734;-42.7854819;R. Epitácio Pessoa, 2085 - Lourival Parente, Teresina - PI, 64023-400, Brazil
10337;16320;2653273;-11.4849354254302;-37.9335777751436;UNIDADE DE SAUDE DA FAMILIA DA SALGADEIRA;TV SAO ROQUE;S/N;SALGADEIRA;7534261748;48330000.0;BA;Rio Real;2016;5;-23.5298156;-47.13740019999999;São Roque, State of São Paulo, Brazil
10339;16367;2386291;-11.9695725020911;-41.2684027881505;UNIDADE DE SAUDE DA FAMILIA CABECEIRA DO BREJO;POVOADO DE CABECEIRA DO BREJO;S/N;ZONA RUAL;75 9 9916-4847;46820000.0;BA;Bonito;2016;5;-12.05;-41.95;Brejo, Souto Soares - BA, 46990-000, Brazil
10341;16161;2556979;-14.0537989139553;-42.48428106307861;UBS DR WOQUITON FERNANDES TEIXEIRA;AVENIDA OLIMAR OLIVEIRA;S/N;PEDRO CRUZ;34543898;46400000.0;BA;Caetité;2016;5;-14.0480852;-42.4851724;Av. Pref. Olimar Oliveira, Caetité - BA, 46400-000, Brazil
10346;16338;2380854;-6.26011221139078;-38.4402581627126;CENTRO DE SAUDE DE CEL JOAO PESSOA;RUA ALCIDES VIANA;405;CENTRO;(84)357 0052;59930000.0;RN;Coronel João Pessoa;2016;5;-6.2614094;-38.4438047;R. Alcides Viana, 405, Cel. João Pessoa - RN, 59930-000, Brazil
10347;16020;7192398;-5.80130394900475;-40.7720071077347;POSTO DE SAUDE DE SANTA RITA;SANTA RITA;S/N;SANTA RITA;0000;63650000.0;CE;Quiterianópolis;2016;5;-5.818814499999999;-40.7433201;Santa Rita, Quiterianópolis - CE, 63650-000, Brazil
10348;16123;4030265;-10.9763905291559;-39.62640682660071;USF DE RIACHO DA ONCA;POVOADO DE CEL JOAO BORGES;S/N;CENTRO;(75)36441915;48860000.0;BA;Queimadas;2016;5;-11.0364122;-39.7755571;Queimadas - State of Bahia, 48860-000, Brazil
10349;16201;5345219;-14.592035453515301;-39.283801878849296;USF DO INDEPENDENCIA;RUA ARMANDO DA S PEREIRA;100;PARQUE INDEPENDENCIA;(73)3239-2724;45680000.0;BA;Uruçuca;2016;5;-14.5967264;-39.2854465;Uruçuca, State of Bahia, 45680-000, Brazil
10361;16098;7836228;-2.5651474;-44.1019726;UBS TURIUBA;RUA ALBERTO MARQUIOLE;S/N;TURIUBA;;65110000.0;MA;São José de Ribamar;2016;5;-2.5651474;-44.1019726;Res. Turiúba, São José de Ribamar - MA, 65060-000, Brazil
10362;16212;2483459;-12.1413926805595;-40.3651796434378;UNIDADE DE SAUDE DA FAMILIA NOVA CRUZ;RUA SETE DE SETEMBRO;S/N;NOVA CRUZ;(74) 3259-5030;46805000.0;BA;Macajuba;2016;5;-12.1343005;-40.2465652;Nova Cruz, Macajuba - BA, 46805-000, Brazil
10365;16132;2601265;-15.59419;-39.87662;UNIDADE DE SAUDE DA FAMILIA SEDE;AV ITAPETINGA;91;CENTRO;(73) 2852170;45790000.0;BA;Potiraguá;2016;5;-15.250232;-40.2501054;R. Potiragua, Itapetinga - BA, 45700-000, Brazil
10367;16393;2478773;-4.69397306442247;-39.43909406661871;UNIDADE DE PSF I CACHOEIRA BR;CACHOEIRA BR;S/N;DISTRITO DE CACHOEIR;;62720000.0;CE;Itatira;2016;5;-4.5749656;-39.4745837;Bandeira, Itatira - CE, 62720-000, Brazil
10370;16121;2425920;-7.19114184379557;-39.3282866477955;UBS HORTO I MARIA FRANCISCA GERMANO;RUA DO HORTO;385;HORTO;88 35873386;63040000.0;CE;Juazeiro do Norte;2016;5;-7.1903363;-39.3282264;R. do Horto, 385 - Horto, Juazeiro do Norte - CE, Brazil
10371;16255;2636271;-7.77140021324135;-35.235493183135;POSTO DE LAGOA DO RAMO DE CIMA;PROPRIEDADE LAGOA DO RAMO DE CIMA;S/N;RURAL;;55800000.0;PE;Nazaré da Mata;2016;5;-7.795256600000001;-35.2690709;Nazre, Nazaré da Mata - PE, Brazil
10372;16198;2414015;-13.2067680358883;-41.064040660857;UNIDADE DE SAUDE DA FAMILIA DE RUMO;PRACA PAULO HORA DE ANDRADE;S/N;CENTRO;;46790000.0;BA;Itaeté;2016;5;-13.2138561;-41.0700741;R. Iramaia, Itaeté - BA, 46790-000, Brazil
10374;16342;2463393;-5.15969038009629;-45.0026392936693;U B SAUDE MONTE CASTELO PSFSB;MONTE CASTELO;S/N;POVOADO;(98)6371146;65753000.0;MA;São Raimundo do Doca Bezerra;2016;5;-5.106156899999999;-45.0779522;São Raimundo do Doca Bezerra, MA, 65753-000, Brazil
10377;16311;2490463;-7.085315004577169;-40.836913244799796;PS DE MANDACARU PSF;PCA MANDACARU;S/N;MANDACARU;;64670000.0;PI;São Julião;2016;5;-7.120508099999999;-40.82158949999999;Mandacaru, São Julião - PI, 64670-000, Brazil
10379;16104;6496458;-14.884682893752599;-41.7777872085559;UNIDADE DE SAUDE DA FAMILIA RIO GAVIAO;FAZ MORRINHOS;S/N;ZONA RURAL;(77)34402133;46270000.0;BA;Piripá;2016;5;-14.2265597;-42.6181887;Morrinhos, Guanambi - BA, 46400-000, Brazil
10383;16701;2481855;-3.97045901630544;-38.52640514949079;UNIDADE BASICA DE SAUDE DA OCUPACAO;RUA PROJETADA;S/N;OCUPACAO;3771219;61880000.0;CE;Itaitinga;2016;5;-3.9742962;-38.5412368;R. Projetada 24 - Pedras, Itaitinga - CE, 61880-000, Brazil
10386;16433;2529904;-4.191648960113399;-46.4828324317919;UBS DA VARIG;RUA PRINCIPAL;S/N;POV DA VARIG;98 3664 2130;65380000.0;MA;Bom Jardim;2016;5;-3.7876441;-46.3624686;Bom Jardim - State of Maranhão, Brazil
10387;16440;2772302;-14.789039548603;-39.2731089520081;USF DR AURIVALDO PEIXOTO SAMPAIO;RUA CLOVIS SANTOS;S/N;SAO LOURENCO;(73)214 5727;45600200.0;BA;Itabuna;2016;5;-14.7824925;-39.2862976;R. Clóvis Santos - Santo Antônio, Itabuna - BA, Brazil
10389;16444;2412535;-14.2767025345281;-42.25577435466521;UNIDADE DE SAUDE DA FAMILIA SEDE;RUA BAHIA;S/N;CENTRO;7734652305;46390000.0;BA;Ibiassucê;2016;5;-14.2701589;-42.2589981;S/N Centro - R. Bahia, Ibiassucê - BA, 46390-000, Brazil
10391;16546;2563282;-6.8942749500272695;-40.161080360411404;UBS CARMELOPOLES VIRGILIO GOMES DE OLIVEIRA;DISTRITO DE CARMELOPOLES;S/N;CARMELOPOLES;5331376;63150000.0;CE;Campos Sales;2016;5;-6.8758569;-40.1293667;Carmelópolis, Campos Sales - CE, 63150-000, Brazil
10392;16746;3465020;-10.079194307327;-38.350868225096505;UNIDADE DE SAUDE DA FAMILIA JOAO PAULO II;AV MONSENHOR JOSE MAGALHAES;10;CONJ JOAO PAULO II;(75)32032108;48540000.0;BA;Jeremoabo;2016;5;-9.461790599999999;-40.4900047;João Paulo II, Juazeiro - BA, Brazil
10393;16506;6874045;-14.5225203037258;-40.3613877296436;UNIDADE DE SAUDE DA FAMILIA JESULINO HIPOLITO DOS SANTOS;AV BOA NOVA;21;PRIMAVERA;999730610;45260000.0;BA;Poções;2016;5;-14.5223659;-40.3610962;Av. Boa Nova, 21, Poções - BA, 45260-000, Brazil
10394;16678;2478315;-3.23531270027151;-40.79292297363161;UNIDADE BASICA DE SAUDE HILDA FONSECA DIAS;AV ANICETO ROCHA;354;DISTRITO PARACUA;6241334;62460000.0;CE;Uruoca;2016;5;-3.2319362;-40.7943573;Av. Aniceto Rocha, 354, Uruoca - CE, 62460-000, Brazil
10396;16626;2372274;-3.87696445102036;-38.6244186465865;UBS PREFEITO ALMIR DUTRA;RUA 125;396;CONJUNTO TIMBO;(85)3392-8256;61936280.0;CE;Maracanaú;2016;5;-3.8776513;-38.6044681;Timbo, Maracanaú - CE, Brazil
10397;16650;2552299;-5.26908159255966;-38.268620967863896;CENTRO DE SAUDE DE SAO JOAO JAGUARIBE;RUA DANIEL RODRIGUES;S/N;CENTRO;0000000;62965000.0;CE;São João do Jaguaribe;2016;5;-5.269262;-38.2680261;R. Daniel Rodrigues - Centro, São João do Jaguaribe - CE, 62965-000, Brazil
10399;16449;2415100;-7.23175278993044;-39.4083902977886;CENTRO DE SAUDE DE PONTA DA SERRA;RUA JOAQUIM FERREIRA LEITE;S/N;DIST PONTA DA SERRA;(88)5233376;63100970.0;CE;Crato;2016;5;-7.1185959;-39.4260815;R. Joaquim Ferreira Leite, Crato - CE, Brazil
10401;16715;4029445;-10.967627763747899;-41.079533100127;UNIDADE DE SAUDE DA FAMILIA DA SEDE I;PRACA DO OURO;S/N;CENTRO;(74)6812128;44718000.0;BA;Ourolândia;2016;5;-10.7741302;-41.2004878;Ourolândia - State of Bahia, Brazil
10402;16524;2481219;-7.58097410202004;-38.89020681381111;PSF DO VIEIRA;SITIO VIEIRA;S/N;VIEIRA;(88)35311830;63260000.0;CE;Brejo Santo;2016;5;-7.488440600000001;-38.9877226;Brejo Santo, State of Ceará, 63260-000, Brazil
10403;16659;2424320;-3.68803768376442;-40.34866803365821;CSF VILA UNIAO;RUA FELICIDADE;S/N;VILA UNIAO;(88)3614 1716;62021120.0;CE;Sobral;2016;5;-3.6798457;-40.37262279999999;R. da Felicidade - Cidade Dr. Jose Euclides Ferreira Gomes Junior, Sobral - CE, Brazil
10406;16552;2415054;-7.21911191940287;-39.3650650978077;POSTO DE SAUDE DE MURITI;DISTRITO MURITI;S/N;MURITI;(88)5233376;63100970.0;CE;Crato;2016;5;-7.2296341;-39.3802652;Muriti, Crato - CE, Brazil
10407;16796;2800659;-13.118663138699699;-42.2878777528384;UNIDADE DE SAUDE DA FAMILIA DE VARZINHA;POVOADO DE VARZINHA;S/N;ZONA RURAL;(77)3693 2378;46550000.0;BA;Rio do Pires;2016;5;-13.1189742;-42.29055109999999;Rio do Pires, BA, 46550-000, Brazil
10409;16520;2527928;-2.9630148410796298;-40.1238083839405;UNIDADE SAUDE DA FAMILIA DE VILA PROGRESSO;POVOADO VILA PROGRESSO;S/N;CENTRO;6611718;62580000.0;CE;Acaraú;2016;5;-2.9621555;-40.1242393;BR-403, Acaraú - CE, 62580-000, Brazil
10411;16748;3009025;-4.5860181591400595;-42.8629297159505;UNIDADE DE SAUDE ANICETO SOUSA;POVOADO DIVINOPOLIS;S/N;RURAL;;64120000.0;PI;União;2016;5;-20.103444;-44.9716724;Divinópolis, State of Minas Gerais, Brazil
10412;16430;2777959;-3.2170200347899502;-41.976635456084;PS COROA DE SAO REMIGIO;VILA JOSE FRANCA DA ROCHA;S/N;ZONA RURAL;(86)3363-1468;64230000.0;PI;Buriti dos Lopes;2016;5;-3.1808582;-41.8678902;R. Jose Franca da Rocha, Buriti dos Lopes - PI, 64230-000, Brazil
10413;16438;2493438;-12.512724642984901;-38.495309845373995;USF RENERIO OLIVEIRA LIMA;RUA DO CRUZEIRO;S/N;MARACANGALHA;(71)36566004;43850000.0;BA;São Sebastião do Passé;2016;5;-12.6034723;-38.5773411;R. do Cruzeiro, São Sebastião do Passé - BA, 43850-000, Brazil
10414;16539;2424150;-3.5947823524474103;-40.2748918533313;CSF PATRIARCA;RUA DA MATRIZ;S/N;PATRIARCA;(88)3615 4134;62011120.0;CE;Sobral;2016;5;-3.5935151;-40.274351;R. da Matriz, Sobral - CE, Brazil
10417;16420;2464888;-2.17759966850275;-45.4772186279284;POSTO DE SAUDE BACABEIRA;BACABEIRA;S/N;CENTRO;(98)3821165;65276000.0;MA;Turilândia;2016;5;-2.1792418;-45.476167;Bacabeira, Turilândia - MA, 65276-000, Brazil
10419;16692;2509741;-13.5886077869907;-41.818790556361705;UNIDADE DE SAUDE DA FAMILIA DE ARAPIRANGA;DISTRITO DE ARAPIRANGA;S/N;RURAL;(77)34752243;46170000.0;BA;Rio de Contas;2016;5;-13.481351;-41.7678726;Arapiranga, Rio de Contas - BA, 46170-000, Brazil
10422;16753;2504626;-6.8904645;-38.5605303718409;UNIDADE SAUDE DA FAMILIA FRANCISCO ALVES MUTIRAO I;RUA JOSE NECO DE SOUSA;01;MUTIRAO;(83)05314399;58900000.0;PB;Cajazeiras;2016;5;-6.8759576;-38.5722542;R. José Neco de Souza, 1 - Lot. Zuza Garcia, Cajazeiras - PB, 58900-000, Brazil
10423;16624;2717611;-7.232233543443661;-39.319168478250496;UBS JOAO CABRAL II E IV;RUA SENHOR DO BONFIM;562;JOAO CABRAL;;63051200.0;CE;Juazeiro do Norte;2016;5;-7.232264499999999;-39.319377;R. Sr. do Bonfim, 562 - João Cabral, Juazeiro do Norte - CE, 63050-290, Brazil
10425;16768;2486520;-14.845619201659696;-40.8254313468921;PAB DO PANORAMA;AV ROSA CRUZ;S/N;ALTO MARON;7734248122;45000100.0;BA;Vitória da Conquista;2016;5;-14.8551351;-40.8257607;Av. Rosa Cruz - Alto Maron, Vitória da Conquista - BA, Brazil
10426;16800;3503453;-13.704199790954199;-41.43545150756721;USF DA OVELHA;POVOADO DA OVELHA;S/N;OVELHA;;46640000.0;BA;Ituaçu;2016;5;-13.8111012;-41.3006618;Ituaçu, State of Bahia, 46640-000, Brazil
10428;16601;2527995;-2.8996827088705497;-40.4387354018727;POSTO DE SAUDE DO CORREGO DA FORQUILHA;CORREGO DA FORQUILHA;S/N;CORREGO DA FORQUILHA;6691132;62598000.0;CE;Jijoca de Jericoacoara;2016;5;-2.8900667;-40.4877247;R. Corrego da Forquilha, Jijoca de Jericoacoara - CE, 62598-000, Brazil
10432;16545;7112440;-11.3850746279882;-41.828915459632896;UBSF IDA CARDOSO;RUA LUIZ BARBOSA DE SOUZA;155;IDA CARDOSO;74 3657 1012;44905000.0;BA;Lapão;2016;5;-11.3825602;-41.8292531;Lapão - State of Bahia, Brazil
10433;16679;2562855;-6.79184585564321;-39.2989329971137;UNID BAS DE SAUDE DO BAIRRO JUREMAL;RUA TENENTE ANTONIO GONCALVES;S/N;JUREMAL;;63540000.0;CE;Várzea Alegre;2016;5;-6.7901281;-39.305463;R. Ten. Antônio Gonçalves - Juremal, Várzea Alegre - CE, 63540-000, Brazil
10434;16561;5144868;-14.6041826955401;-41.4517593383789;UNIDADE DE SAUDE DA FAMILIA MANOEL MESSIAS DA SILVA;SENTIDO PRESIDENTE JANIO QUADROS;S/N;CENTRO;7734722247;46255000.0;BA;Maetinga;2016;5;-14.6882517;-41.6803247;Pres. Jânio Quadros, BA, 46250-000, Brazil
10435;16707;2719916;-9.65835193876391;-37.0035959132308;CENTRO DESAUDE JOSEFA BARBOSA CESAR;RUA PROF DERALDO CAMPOS;243;CENTRO;(82) 5331120;57425000.0;AL;Jaramataia;2016;5;-9.6591836;-37.0008953;R. Prof. Deraldo Campos, 243, Jaramataia - AL, 57425-000, Brazil
10437;16654;3651827;-2.92057156562797;-41.724314689635;UBS PLANALTO;CONJ RAUL BARCELAR;2135;PLANALTO;;64215220.0;PI;Parnaíba;2016;5;-2.9072196;-41.7817996;R. Vera Cruz, 744 - São José, Parnaíba - PI, 64218-100, Brazil
10438;16736;6689396;-12.0783722561969;-45.8004644064563;USF DR LUIS GUSTAVO ROSA FERREIRA;RUA MANOEL NOVAIS QD 19;562;MIMOSO II;36283391;47850000.0;BA;Luís Eduardo Magalhães;2016;5;-12.0767357;-45.8044286;R. Manoel Novais, Luís Eduardo Magalhães - BA, 47850-000, Brazil
10440;16780;3285464;-14.098731279372801;-45.6147193908678;POSTO DE ASSISTENCIA A SAUDE BALBINO ZUZA;POVOADO DO BREJAO;S/N;ZONA RURAL;(77) 6832152;47655000.0;BA;Jaborandi;2016;5;-9.0295682;-36.5663644;Brejão, State of Pernambuco, 55325-000, Brazil
10442;16763;2420554;-10.985051393508598;-37.5503468513478;U B S PADRE ALMEIDA;POVOADO COLONIA TREZE;989;ZONA RURAL;( 79)36421229;49400000.0;SE;Lagarto;2016;5;-10.9861797;-37.5507355;Rod. Antônio Martins de Menezes, 1087, Lagarto - SE, 49400-000, Brazil
10444;16406;6545122;-4.4110000000000005;-42.08600000000001;UBS ESTEVAN PEREIRA DE ALCANTARA;LAGOA SECA;S/N;ZONA RURAL;86 32411187;64108000.0;PI;Boa Hora;2016;5;-7.1549934;-35.8537249;Lagoa Seca, State of Paraíba, 58117-000, Brazil
10445;16766;6258794;-7.310427796781889;-38.9431567662076;POSTO DE SAUDE CENTRAL;AVENIDA SANTANA;S/N;MISSIONARIAS;(88)35531541;63250000.0;CE;Milagres;2016;5;-7.3151636;-38.9406994;Av. Santana - Das Missionárias, Milagres - CE, 63250-000, Brazil
10453;16767;2720302;-9.383;-35.842;POSTO DE SAUDE BITITINGA;FAZENDA BITITINGA;S/N;ZONA RURAL;;57990000.0;AL;Messias;2016;5;-9.3942686;-35.8395062;Messias, State of Alagoas, 57990-000, Brazil
10455;16530;6981372;-4.20980721168269;-45.0496101379395;UBS JOSE MEDEIROS SEDE;RUA MANOEL SEVERO;S/N;CENTRO;(99)36231125;65704000.0;MA;Bom Lugar;2016;5;-4.3716709;-45.03213419999999;R. Manoel Severo, Bom Lugar - MA, 65710-000, Brazil
10459;16553;2415070;-7.23175278993044;-39.4083902977886;CENTRO DE SAUDE VERONICA MARIA COUTO PINHEIRO;AV ARTHUR PINHEIRO;S/N;BELMONTE;(88)5233376;63100970.0;CE;Crato;2016;5;-7.2257808;-39.4552373;Av. Artur Pinheiro, Crato - CE, Brazil
10464;16598;2726238;-4.83955516829761;-37.7823914809586;UBASF TOMAZ BARBOSA DE OLIVEIRA;RUA JOSE DE ALMEIDA;S/N;CARDEAIS;;62823000.0;CE;Jaguaruana;2016;5;-4.851522999999999;-37.8060742;Avenida José de Almeida, Jaguaruana - CE, 62823-000, Brazil
10465;16429;2357690;-6.783695141518559;-38.0833382545418;PSF II DE APARECIDA;ASSENTAMENTO ACAUA;S/N;ZONA RURAL;;58823000.0;PB;Aparecida;2016;5;-7.630901;-37.0622026;Acauã, Prata - PB, 58550-000, Brazil
10466;16714;2429055;-7.40926386;-35.110627357431696;UNIDADE DE SAUDE DA FAMILIA DA SALGADEIRA;R JOSE URSULINO;S/N;CENTRO;;55920000.0;PE;Itambé;2016;5;0.0;0.0;Não encontrado
10468;16473;7053320;-8.179547570028431;-34.9507713317871;USF COMPORTAS II;RUA FERNANDO DE NORONHA;S/N;COMPORTAS;081-33773223;54345550.0;PE;Jaboatão dos Guararapes;2016;5;-8.1647307;-34.9654192;Rua Fernando de Noronha - Muribeca, Jaboatão dos Guararapes - PE, Brazil
10470;16641;3029514;-3.97654652595508;-38.592460155485895;UBASF DE SAO LUIS;RUA ANTONIO FERRER;S/N;SAO LUIS;( );61803160.0;CE;Pacatuba;2016;5;-3.972158899999999;-38.58775110000001;R. Antonio Ferrer de Lima & R. Vilanir Férrer, Pacatuba - CE, 61800-000, Brazil
10471;16794;2007525;-9.53368865946464;-36.62815971645;UNIDADE DE SAUDE DA FAMILIA LAGOA DO FELIX;POVOADO LAGOA DO FELIX;S/N;ZONA RURAL;;57620000.0;AL;Igaci;2016;5;-8.216667;-36.6;Lagoa do Félix, Belo Jardim - PE, 55180-000, Brazil
10473;16700;2480549;-5.721666812896558;-40.7451796531665;POSTO DE SAUDE DE SAO FRANCISCO;SAO FRANCISCO;S/N;DISTRITO DE SAO FRAN;8151134;63650000.0;CE;Quiterianópolis;2016;5;-5.845551599999999;-40.703691;Vila São Francisco - s/n, CE, 63652-000, Brazil
10474;16640;2414295;-13.034451362197;-39.5981225034895;UNIDADE DE SAUDE DA FAMILIA SANTA RITA;RUA MANOEL GUIMARAES PASSOS;50;SANTA RITA;(75)36343918;45300000.0;BA;Amargosa;2016;5;41.44253;-8.2917857;Guimaraes, Portugal
10476;16402;2417375;-11.3110893034711;-38.21978288890129;CENTRO DE SAUDE E ATENDIMENTO ESPECIALIZADO DE ITAPICURU;PRACA DA BANDEIRA;S/N;CENTRO;(75)430 2285;48475000.0;BA;Itapicuru;2016;5;-11.311265;-38.2198292;Praça da Bandeira, Itapicuru - BA, 48475-000, Brazil
10478;16600;5982839;-2.95229673385612;-40.4775166511524;UBASF DE BAIXIO;BAIXIO;01;BAIXIO;;62598000.0;CE;Jijoca de Jericoacoara;2016;5;-2.7956223;-40.5142274;Jericoacoara, Jijoca de Jericoacoara - State of Ceará, Brazil
10480;16751;2499215;-6.6049605;-39.0597431480294;UBSF ESFSB FERROVIARIOS;RUA VEREADOR FRANCISCO CHAGAS DE AQUINO;S/N;ACUDE NOVO;883564 0546;63400000.0;CE;Cedro;2016;5;-6.607610999999999;-39.0568688;R. Ver. Francisco Chagas de Aquino, Cedro - CE, 63400-000, Brazil
10485;16453;2608200;-6.6634869575498605;-35.499293804167706;UNIDADE DE SAUDE DA FAMILIA PSF VI LIMEIRA;SITIO LIMEIRAS;S/N;ZONA RURAL;(83)2611510;58255000.0;PB;Belém;2016;5;-6.6906402;-35.5000999;Belém - State of Paraíba, Brazil
10488;16535;7712502;-6.56480086747859;-47.4206963181496;UNIDADE BASICA DE SAUDE LUIZ HELIO MACEDO;BREJO DO PINTO;5425;BREJO DO PINTO;;65975000.0;MA;Estreito;2016;5;-6.562251100000001;-47.4309485;R. Santa Isabel Brejo do Pinto, Estreito - MA, 65975-000, Brazil
10489;16773;5031850;-5.571945999246662;-36.917923219958894;UBS MARIA DA PENHA;RUA BERNARDO VIEIRA;S/N;SAO JOAO;;59650000.0;RN;Açu;2016;5;-5.582674099999999;-36.9052487;R. Bernardo Viêira, Açu - RN, 59650-000, Brazil
10493;16523;2333694;-4.3312051564085605;-38.8800213756291;POSTO DE SAUDE DE JUCA DO ZE VILAR;JUCA DE ZE VILAR;S/N;ZONA RURAL;3470026;62760000.0;CE;Baturité;2016;5;-4.332599699999999;-38.8773164;Baturité, State of Ceará, 62760-000, Brazil
10495;16512;2715562;-8.08491826057411;-40.4158258438099;USF DE VARZINHA;POVOADO DE VARZINHA;S/N;00;(87)99953468;56215000.0;PE;Santa Cruz;2016;5;-8.0850524;-40.4163983;R. Olimpio Ribeiro de Souza, Santa Cruz - PE, 56215-000, Brazil
10496;16779;2561743;-3.76884698867787;-38.6588501930226;U A P S ROCILDA OLIVEIRA PONTES;RUA 252 CONTORNO OESTE;S/N;N METROPOLE;996336511;61658480.0;CE;Caucaia;2016;5;-3.7681836;-38.6589524;Av. de Contôrno Oeste & R. Duzentos e Cinquenta e Dois - Nova Metrópole, Caucaia - CE, 61658-480, Brazil
10498;16501;6795048;-11.259;-40.942;UNIDADE BASICA DE SAUDE DE SALINAS;POVOADO DE SALINAS;S/N;CENTRO;;44690000.0;BA;Várzea Nova;2016;5;-11.2549855;-40.9448518;Praça José Araújo Silva, s/n - Centro, Várzea Nova - BA, 44690-000, Brazil
10499;16489;2425556;-7.24323151378515;-39.14519770786529;POSTO DE SAUDE MISSAO NOVA;DISTRITO MISSAO VELHA;S/N;ZONA RURAL;;63200000.0;CE;Missão Velha;2016;5;-7.2488936;-39.14165250000001;Rua Padre Cícero - s/n, Missão Velha - CE, 63200-000, Brazil
10500;16568;2415151;-7.24894881248453;-39.4017791748035;POSTO DE SAUDE VILA LOBO;ANTONIO ANTUERPIO GONZAGA DE MELO;S/N;VILA LOBO;(88)5233376;63102090.0;CE;Crato;2016;5;-7.248110800000001;-39.4012888;R. Antônio Antuérpio Gonzaga Melo - Vila Lobo, Crato - CE, 63102-090, Brazil
10502;16450;7215797;-6.280037718545071;-35.0379887223244;UBS SIBAUMA;RUA PROJETADA;S/N;ZONA RURAL;;59178000.0;RN;Tibau do Sul;2016;5;-6.1868146;-35.0918639;Tibau do Sul, State of Rio Grande do Norte, Brazil
10504;16427;2428857;-7.5592318548671615;-34.9983762971528;PSF NOVA GOIANA;LOT NOVA GOIANA TRAVESSA SESSENTA E NOVE;31;NOVA GOIANA;(81)36260263;55900000.0;PE;Goiana;2016;5;-7.5700103;-35.018963;Unnamed Road, Goiana - PE, 55900-000, Brazil
10505;16452;2324881;-6.443728208541678;-42.6920342445361;PS NOVO ESTADO;POVOADO NOVO ESTADO;S/N;POVOADO NOVO ESTADO;;64400000.0;PI;Amarante;2016;5;-6.246897799999999;-42.84048689999999;Amarante - State of Piauí, 64400-000, Brazil
10506;16638;2436086;-8.205999499999999;-35.571492393837296;PSF MARIA AUXILIADORA ALDEIR MENEZES CAVALC;RUA MANOEL RIBEIRO DE CARVALHO 140;140;MARIA AUXILIADORA;(81)35639024;55641408.0;PE;Gravatá;2016;5;-8.2016055;-35.575652;R. Manoel Ribeiro de Andrade - Centro, Gravatá - PE, 55641-755, Brazil
10510;16500;2658410;-10.46733;-36.48048;CLINICA DE SAUDE DA FAMILIA MARECHAL DEODORO DA FONSECA;PRACA MARECHAL DEODORO;116;CENTRO;(79)33661250;49995000.0;SE;Brejo Grande;2016;5;-10.4251946;-36.4630206;Brejo Grande, SE, 49995-000, Brazil
10513;16517;2525666;-17.223934059379694;-40.0844849278142;PSF II IDALINA DA ROCHA NONATO;RUA PROFESSOR TERTULIANO PEREIRA DE QUEIROZ;S/N;SAO PEDRO;(73)36612111;45955000.0;BA;Vereda;2016;5;-17.2255081;-40.0864143;R. Prof. Tertuliano Pereira de Queiróz, Vereda - BA, 45955-000, Brazil
10514;16554;7501226;-3.7234029719357995;-40.99475731086729;UNIDADE BASICA DE SAUDE DO CSU MARIA COSTA DO NASCIMENTO;RUA VEREADOR RAIMUNDO LIMA;115;CSU;;62320000.0;CE;Tianguá;2016;5;-3.7238856;-40.9906272;R. Ver. Raimundo Lima - Centro, Tianguá - CE, 62320-000, Brazil
10517;16689;2507609;-10.342018230888;-38.4155813480126;USF DR OTTO ALENCAR;AV LUIS EDUARDO MAGALHAES;S/N;CENTRO;(75)32921020;48455000.0;BA;Novo Triunfo;2016;5;-10.3256679;-38.4114095;Av. Luís Eduardo Magalhães, Novo Triunfo - BA, 48455-000, Brazil
10519;16686;22306;-8.06276248305241;-34.8889419445777;US 225 PSF SKYLAB II;RUA ITAPIRANGA;791;IPUTINGA;(81) 32324791;50680210.0;PE;Recife;2016;5;-8.0380179;-34.9310434;R. Itapiranga, 791 - Iputinga, Recife - PE, 50680-210, Brazil
10521;16688;2406845;-5.05392551422104;-42.8301787376391;UNIDADE BASICA DE SAUDE DR EVALDO CARVALHO NOVA BRASILIA;RUA ANISIO PIRES;S/N;NOVA BRASILIA;(86) 3215 9146;64004550.0;PI;Teresina;2016;5;-5.0516467;-42.8278401;R. Anísio Píres - Nova Brasília, Teresina - PI, 64004-550, Brazil
10525;16573;6142648;-5.646339654922321;-44.324533939360286;UNIDADE BASICA DE SAUDE DO PAUL;POVOADO PAUL;S/N;POVOADO;;65790000.0;MA;São Domingos do Maranhão;2016;5;-5.5820742;-44.3825277;São Domingos do Maranhão - State of Maranhão, 65790-000, Brazil
10527;16471;2008548;-9.32662010192844;-37.7255916595448;UBS GRAVATA;POVOADO GRAVATA;S/N;ZONA RURAL;(82) 6451237;57545000.0;AL;Inhapi;2016;5;-9.222779599999999;-37.7479373;Inhapi, State of Alagoas, 57545-000, Brazil
10528;16597;2499207;-6.270650625228701;-38.747341632841895;ESF CRUZEIRINHO;SITIO CRUZEIRINHO;S/N;CRUZEIRINHO;7114041;63430000.0;CE;Icó;2016;5;0.0;0.0;Não encontrado
10532;16576;2726157;-4.044170379638549;-38.62934589385871;UBASF ADELINA CABRAL TORRES;RUA SINVAL LEITAO;S/N;17 DE MARCO;08533761009;61890000.0;CE;Guaiúba;2016;5;-4.0408646;-38.6328993;R. Sinval Leitão, 17 - Centro, Guaiúba - CE, 61890-000, Brazil
10533;16460;2436337;-8.35189461708045;-36.4179396629323;UBS FREI DAMIAO PEDRO BARBOSA;RUA 005;164;LOT FREI DAMIAO;(81)3411 1600;55150001.0;PE;Belo Jardim;2016;5;-8.3496197;-36.41817169999999;Frei Damiao, Belo Jardim - PE, Brazil
10535;16784;2461382;-5.17742104721158;-47.784232775671605;POSTO DE SAUDE DE SAO JOAO DO ANDIROBAL;POVOADO SAO JOAO DO ANDIROBAL;S/N;POV S ANDIROBAL;;65921000.0;MA;Cidelândia;2016;5;-5.074860500000001;-47.772605;São João do Andirobal, Cidelândia - MA, 65907-230, Brazil
10536;16728;2010232;-9.77993457613103;-36.0942642743776;UNIDADE BASICA DE SAUDE BELA VISTA;RUA DOUTOR RODRIGO CORREIA DE ARAUJO;66;CENTRO;(82)32712002;57245079.0;AL;São Miguel dos Campos;2016;5;-9.7841016;-36.0923814;R. Dr. Rodrigo C Araújo - Lot. Humberto Alves, São Miguel dos Campos - AL, 57240-000, Brazil
10539;16596;2372010;-4.7155494878312805;-37.3535630985971;UBS MARIA ANTONIETA BRASIL OLIVEIRA;VILA DE PEIXE GORDO;S/N;PEIXE GORDO;(88)4321429;62810000.0;CE;Icapuí;2016;5;-4.7874208;-37.2815771;CE-261, 70, Icapuí - CE, 62810-000, Brazil
