index;gid;co_cnes;lat;long;no_fantasia;no_logradouro;nu_endereco;no_bairro;nu_telefone;co_cep;uf;cidade;ano_ubs_det;mes_ubs_det
7;15;2751216;-21.4876699447626;-51.6999650001511;UBS MARCIA CRISTIANE DA SILVA DE OURO VERDE;RUA PERNAMBUCO;648;CENTRO;(18)38721186;17920000.0;SP;Ouro Verde;2016;5
29;96;2028379;-21.407879590987502;-50.083279609678705;MACRO I MUTIRAO;AVENIDA EUCLYDES GARCIA DO NASCIMENTO;546;JARDIM ELDORADO;(18) 3652-7106;16308106.0;SP;Penápolis;2016;5
60;79;2091186;-20.9976625442499;-48.3273983001695;ESTRATEGIA SAUDE DA FAMILIA IBITIUVA PITANGUEIRAS;RUA TRES;326;IBITIUVA;(16)39572200;14760000.0;SP;Pitangueiras;2016;5
81;122;5159768;-24.7069541964258;-47.5531374088175;UNIDADE DE ESF IV BAIRRO DO ICAPARA;AV HERMANO GOUTHARD;1091;ICAPARA;13 38481593;11920000.0;SP;Iguape;2016;5
82;66;2034263;-22.90994;-47.06263;CENTRO DE SAUDE SAO CRISTOVAO;AV MARTINHO LUTERO;121;JAD ADEMAR DE BARROS;(19)32256228;13056230.0;SP;Campinas;2016;5
92;305;2065002;-22.0591843128198;-46.9767236709581;CENTRO DE SAUDE III EUFROZINA MARIA DE JESUS AGUAI;PC GOVERNADOR CARVALHO PINTO;519;CENTRO;(19)3653-7140/7145;13860000.0;SP;Aguaí;2016;5
112;118;2040832;-23.6914372444146;-45.4439163207995;UBS PORTO NOVO CARAGUATATUBA;AVENIDA JOSE HERCULANO;6560;BARRANCO ALTO;12 38883001;11670400.0;SP;Caraguatatuba;2016;5
132;169;2089858;-20.7649540901178;-49.7033286094651;ESF ORLANDO POLOTTO MONTE APRAZIVEL;RUA CAMILO SOUBHIA;91;JORGE CARNEIRO DE CA;(17)32759790;15150000.0;SP;Monte Aprazível;2016;5
162;667;2750333;-21.388975381850603;-51.56967401504371;CS II DR KANJI KAWAMURA;RUA ALMIRANTE BARROSO;1115;CENTRO;18 38511993;17930000.0;SP;Tupi Paulista;2016;5
172;622;2092468;-22.6842248439782;-50.711324214933796;ESF EDILENE APARECIDA CUSTODIO DA SILVA;RUA QUERINO LEME SILVA;226;SANCRUZ DA B VISTA;(18)33711558;19840000.0;SP;Maracaí;2016;5
174;661;2038730;-21.731954813002897;-48.687887191771004;CENTRO DE SAUDE III TABATINGA;RUA EPISCOPAL;1070;CENTRO;(16)33851145;14910000.0;SP;Tabatinga;2016;5
180;625;2790270;-21.7380595207208;-49.357666969297895;CENTRO DE SAUDE III DE PONGAI;AVN JOAO FRANCISCO ALVES;277;CENTRO;(14)35811130;16660000.0;SP;Pongaí;2016;5
195;571;2092891;-21.92103747;-50.7348708618954;UNIDADE DE SAUDE DA FAMILIA JOSE DE CASTRO;RUA ALMIRANTE BARROSO;75;JARDIM IPANEMA;(14)34782135;17690000.0;SP;Bastos;2016;5
196;547;3053660;-20.8972835540765;-47.601120471953;UBS DE VILA CRUZEIRO DR JOSE VINICIUS DE FIGUEIREDO MOURA;RUA FRANCA;S/N;VILA CRUZEIRO;(16)37610965;14300000.0;SP;Batatais;2016;5
206;562;2029529;-20.9944760799402;-47.660858631132605;CENTRO DE SAUDE III DE BRODOWSKI;RUA FLORIANO PEIXOTO;468;CENTRO;(16)36644777;14340000.0;SP;Brodowski;2016;5
218;427;2057964;-23.158214092254;-47.040131092070204;UBS DO BAIRRO PORTAL SANTA FE;RUA FRANCISCO CARDOSO SILVA;32;SANTA FE;(11)45912127;13295000.0;SP;Itupeva;2016;5
226;451;2039931;-21.4791405200952;-49.21688318252421;UBS JARDIM SANTA CLARA NOVO HORIZONTE;RUA URUPES;612;SANTA CLARA;1735424562;14960000.0;SP;Novo Horizonte;2016;5
239;616;2041987;-24.739239940397802;-47.5543169659299;UNIDADE DE PSF I SUL ILHA COMPRIDA;AVENIDA DA PRAIA;S/N;PEDRINHAS;13-38424368;11925000.0;SP;Ilha Comprida;2016;5
249;574;2049317;-23.3949351310723;-47.334315776823594;UBS 12 DR EMILIO CHIERIGHINI ITU;AV SOL;S/N;NOVO MUNDO;(11) 40191438;13308430.0;SP;Itu;2016;5
252;578;2096129;-23.5043907165521;-46.811757087706205;UBS AMARO JOSE DE SOUZA;RUA PETROLINA;178;JARDIM MUTINGA;(11) 4199-3170;6463200.0;SP;Barueri;2016;5
254;698;2088460;-20.2476466672453;-50.1123902828971;UBS DE PEDRANOPOLIS;RUA ANTONIO MILHORINI;368;CENTRO;(17)38381159;15630000.0;SP;Pedranópolis;2016;5
257;551;2791277;-22.515717744826603;-48.55184555053571;PAS LUIZ ANTONIO IZEPPE IGARACU DO TIETE;RUA LUIZ A AULLO;S/N;CECAP;14 36442055;17350000.0;SP;Igaraçu do Tietê;2016;5
262;525;2746336;-21.312478780745803;-47.567131519316206;UNIDADE MISTA LEONCIO DO NASCIMENTO DE SERRA AZUL;RUA PEDRO SIRIANI;451;CENTRO;(16)39829120;14230000.0;SP;Serra Azul;2016;5
266;559;2093634;-23.1753874993167;-48.126767435800105;UNIDADE DE SAUDE DA FAMILIA 01 PORANGABA;AV LINEU DE CAMPOS E SILVA;135;SAO F DE ASSIS;(15)32571731;18260000.0;SP;Porangaba;2016;5
269;434;2801213;-23.689295;-46.623381393203005;UBS VILA NOVA CONQUISTA SAUDE DA FAMILIA;AVN PRESIDENTE JUSCELINO;759;PIRAPORINHA;40719595;9950810.0;SP;Diadema;2016;5
278;598;2773783;-23.5579705238335;-46.367948055266;UBS VILA SAO PAULO;RUA VINICIUS DE MORAES;386;VIL SAO PAULO;(11)46795347;8530000.0;SP;Ferraz de Vasconcelos;2016;5
280;489;8346;-23.5313522815698;-46.809632778166396;UBS FRANCISCO DIAS DA SILVA;RUA MAL EDGAR DE OLIVEIRA;800;VIL QUITAUNA;(11)36073688;6186010.0;SP;Osasco;2016;5
288;565;2067692;-23.6220065;-45.41081838224979;UBS MASSAGUACU CARAGUATATUBA;RUA ITALIA BAFFI MAGNI;S/N;MASSAGUACU;12 38841999;11677457.0;SP;Caraguatatuba;2016;5
295;674;2059150;-23.5553848743432;-47.8232502937303;PAS DO CERRADO;RUA SABIA;S/N;ATERRADINHO;(15)97868197;18220000.0;SP;Alambari;2016;5
302;735;2034220;-20.1041007041925;-50.5853247642502;CS DE PARANAPUA;RUA DR JULIO AMARAL;2528;CENTRO;(17)36489020;15745000.0;SP;Paranapuã;2016;5
308;483;2750309;-21.3357067108148;-51.6448616981491;CENTRO DE SAUDE DE NOVA GUATAPORANGA;RUA BRASIL;315;CENTRO;(18) 38561249;17950000.0;SP;Nova Guataporanga;2016;5
319;401;7263996;-22.5611188932516;-52.686200108528205;ESF IV DO BAIRRO SANTA RITA DO PONTAL;BAIRRO SANTA RITA DO PONTAL;S/N;ZONA RURAL;18 32831277;19275000.0;SP;Euclides da Cunha Paulista;2016;5
328;1046;2047330;-20.478258132934002;-49.776005744932604;CS DE COSMORAMA;PRACA ANTONIO CANDIDO BORGES;733;CENTRO;(17)3836-9210;15530000.0;SP;Cosmorama;2016;5
331;1112;2053632;-23.6693345;-46.4582620121646;UBS CARLINA;RUA CANDIDO GONCALO MENDES;84;VILA CARLINA;(11)4544-1654;9370810.0;SP;Mauá;2016;5
335;1121;6858538;-20.737283985;-48.9134917257694;ESF VALTER STUK;RUA PROJETADA I;362;CDHU III;(17)32819021;15400000.0;SP;Olímpia;2016;5
354;1018;2025450;-21.262696981429396;-48.3320975303636;UNIDADE BASICA DE SAUDE GINO BASSI;RUA JORNALISTA CLAUDIO LUIS BERCHIELLI;S/N;SANTA MONICA;(16)32036172;14871570.0;SP;Jaboticabal;2016;5
356;1103;2036053;-21.1737334728235;-48.9260244369493;PAS DO JAD PALMEIRAS PINDORAMA;RUA JOSE CASTANHO DA SILVA;S/N;JARDIM DAS PALMEIRAS;(17)35721201;15830000.0;SP;Pindorama;2016;5
376;1194;2041391;-24.008613824843696;-47.16437101364;UBS ENGANO MIRACATU;BR 116KM80;S/N;ENGANO;(13)68471729;11850000.0;SP;Miracatu;2016;5
394;816;6754589;-21.151331416521803;-50.3551730232239;UBS FARMACEUTICO ANTONIO SARAIVA JARDIM IPORA;RUA JEAN PIERRE BRULHART;295;JARDIM IPORA;(18) 3631-2388;16021420.0;SP;Araçatuba;2016;5
400;1024;3540049;-22.34979;-47.401;ESF JERONYMO OMETTO ARARAS;RUA CIRO LAGAZZI;285;JARDIM CANDIDA;(19)35421083;13603027.0;SP;Araras;2016;5
401;1039;2069261;-23.194018356050602;-49.39862966537479;ESF TETO DR FARID ABRAHAO JOSE PEDRO PIRAJU;RUA PROFESSOR CAMILO GOLFIERI;280;CONJUNTO RESIDENCIAS;(14)33517886;18800000.0;SP;Piraju;2016;5
422;1630;2059525;-23.6491322249999;-47.5746801202081;PSF PAULISTANO;RUA LUIZ CARLOS DE ABREU;200;JD PAULISTANO;(15)32923875;18160000.0;SP;Salto de Pirapora;2016;5
425;1652;2745739;-20.4077482223505;-47.419395446776;CLINICA DE ESPECIALIDADES MEDICAS;RUA AGNELO DELFINO BARBOSA;465;CENTRO;(16)31331275;14460000.0;SP;Cristais Paulista;2016;5
444;1698;2071487;-21.4838075637811;-51.5296983718857;CS I DR TAKASHI ENOKIBARA;RUA ESPIRITO SANTO;135;METROPOLE;(18)38223151;17900000.0;SP;Dracena;2016;5
450;2396;2058219;-24.1097223758691;-48.806354999540794;UNIDADE PSF ALTO DA BRANCAL ITAPEVA;BAIRRO ALTO DA BRANCAL;S/N;ALTO DA BRANCAL;(15)35267299;18406380.0;SP;Itapeva;2016;5
459;2030;6281419;-23.8518548011773;-46.9443869590746;USF CENTRO;RUA IVONE PIRES GUIMARAES;160;CENTRO;(11)46861397;6890000.0;SP;São Lourenço da Serra;2016;5
468;2395;2033062;-22.222579999999997;-49.663070000000005;USF MARIA LUCIA FERREIRA CAVALLINI;RUA GUARANTA;105;JD EUCALIPTOS;(14)34062000;17400000.0;SP;Garça;2016;5
470;2351;3846660;-23.5329079627984;-47.4448871612535;UNIDADE BASICA DE SAUDE JARDIM ARCHILA;RUA LAZARO BUENO DE ARRUDA;68;ANGELO VIAL;(15) 32473012;18111660.0;SP;Votorantim;2016;5
481;2238;2791102;-22.5101280212396;-48.550515174864294;PAS ADMA ARIK RAYES IGARACU TIETE;RUA HERCULES PERACOLI;63;VILA MANOEL RAYAS;14 36441000;17350000.0;SP;Igaraçu do Tietê;2016;5
501;2282;6230474;-21.024582644572803;-47.3732802928901;ESF SANTA CRUZ;FIORAVANTE MALAGUTTI;100;FIGUEIREDO WALTER;(16) 3665-9568;14350000.0;SP;Altinópolis;2016;5
505;2043;6317685;-24.457733631133298;-47.8163623809801;USF ARAPONGAL OESTE REGISTRO;RUA PROJETADA A;180;ARAPONGAL;(13)3822-2390;11900000.0;SP;Registro;2016;5
510;2365;2088479;-23.0545198917382;-49.62987899780129;CENTRO DE SAUDE DE IPAUCU;RUA 7 DE SETEMBRO;651;CENTRO;(14)3441026;18950000.0;SP;Ipaussu;2016;5
514;2353;2035812;-23.2773041725152;-47.3052835464464;UBS 07 SANTA TEREZINHA ITU;RUA ANTONIO FAUSTINO FILHO;82;CRUZ DAS ALMAS;(11) 40132749;13310400.0;SP;Itu;2016;5
516;2314;2022907;-22.8717970848077;-47.0283079147325;CENTRO DE SAUDE VILA 31 DE MARCO;RUA ANTONIO PAVIN;1065;JARDIM CONCEICAO;(19)32070074;13091010.0;SP;Campinas;2016;5
526;2409;2716577;-20.2977132797235;-49.733519554136706;CS DE AMERICO DE CAMPOS;RUA SAO JOAO;617;CENTRO;(17)34451206;15550000.0;SP;Américo de Campos;2016;5
529;2455;6403719;-20.4092931747431;-47.4163699150072;EQUIPE DE SAUDE DA FAMILIA CRISTAIS PAULISTA;RUA SEBASTIAO RODRIGUES DE SOUZA;155;CENTRO;(16) 3133-1275;14460000.0;SP;Cristais Paulista;2016;5
542;2412;2048833;-24.0180221483629;-48.6856194863319;UNIDADE DE SAUDE PACOVA;RUA 1 ACESSO RODOVIA ESPIRIDIAO LUCIO MARTINS;S/N;PACOVA;(15)35222996;18400970.0;SP;Itapeva;2016;5
550;2436;3737659;-23.034797499319897;-49.1653301708879;ESF NOVE DE JULHO;RUA BRASILINO DE FREITAS NEGRAO;S/N;PARQUE NOVE DE JULHO;14-37141516;18760000.0;SP;Cerqueira César;2016;5
575;2444;2041405;-24.245914220809198;-47.3271274566637;UNIDADE DE ESF V MUSACEA P BARROS;RUA MARIA JOSE NOGUEIRA BRUNETTO;S/N;MUSACEA;1338477010;11850000.0;SP;Miracatu;2016;5
576;2481;2040956;-21.620537600000002;-49.0745678;CENTRO DE SAUDE III BORBOREMA;RUA DA BANDEIRA;348;CENTRO;(16)32661211;14955000.0;SP;Borborema;2016;5
579;2443;9172;-23.230032920836702;-45.8842706680284;UBS JARDIM SATELITE;AVENIDA ANDROMEDA;1960;JARDIM SATELITE;012 39316530;12230000.0;SP;São José dos Campos;2016;5
596;2716;6769500;-22.22845101;-50.890211685938;ESF PADRE MAX;RUA GUIDO VISNADI;S/N;CONJUNTO PLANALTO;(18) 3265-7769;19600000.0;SP;Rancharia;2016;5
606;2508;2052148;-23.592;-48.053000000000004;USF DR WALDOMIRO DE CARVALHO CHAPADINHA;RUA MOISES NALESSO;927;CHAPADINHA;(15)32728623;18206800.0;SP;Itapetininga;2016;5
616;2569;2097834;-22.9992771148675;-47.0480489730821;UBS SAUDE MACUCO;RUA VALDEMAR LAZARETTI;01;MACUCO;(19)38812336;13279407.0;SP;Valinhos;2016;5
621;2470;2067439;-22.9621446132653;-49.8824357986436;UBS VILA SAO LUIZ;RUA CELESTINO LOPES BAHIA;523;VILA SAO LUIZ;14 33026100;19911205.0;SP;Ourinhos;2016;5
623;2649;7418108;-21.7365875281558;-48.1563018569946;USF JARDIM ADALBERTO ROXO;AVENIDA PABLO PICASSO;1420;JARDIM ADALBERTO ROX;;14806810.0;SP;Araraquara;2016;5
624;2708;2064146;-20.536097;-47.4023316256775;UBS ESF JD LUIZA;AV NELSON JAPAULO;1731;JD LUIZA;(16)37040071;14407495.0;SP;Franca;2016;5
651;2496;2032112;-23.67565;-46.4172;UBS JARDIM SANTISTA;RUA JANUARIO BOCCIA;120;JARDIM SANTISTA;(11)4576-2210;9341030.0;SP;Mauá;2016;5
661;2570;9237;-23.137668371199897;-45.9102129936205;UBS VILA PAIVA;RUA JOAO PEDRO DA ROCHA;181;VILA PAIVA;(12) 39213466;12213510.0;SP;São José dos Campos;2016;5
672;2607;2022419;-20.96043;-48.48977;E S F DR MAURO BURJAILI;RUA JOSE FAVERO;1100;DISTRITO DE BOTAFOGO;33457106;14718042.0;SP;Bebedouro;2016;5
676;2529;2036231;-23.2164394855493;-47.9077506065355;UBS I BAIRRO DOS TORNINOS CESARIO LANGE;RODOVIA OTAVIO PILON;S/N;TORNINOS;(15) 3246-8040;18285000.0;SP;Cesário Lange;2016;5
707;2447;2050188;-20.3021911754183;-50.012617830836895;USF AMADEU GARCIA DE SOUZA PARISI;RUA AURELIO PARISI;292;CENTRO;(17)38391138;15525000.0;SP;Parisi;2016;5
725;2511;2036835;-23.8060426712029;-48.6092877387986;UNIDADE DO PSF I CONJUNTO HABITACIONAL SAO JOAO BURI SP;RUA TUCANO;S/N;CONJUNTO SAO JOAO;;18290000.0;SP;Buri;2016;5
726;2622;2049082;-20.5199074745172;-47.40976095199449;UBS GUANABARA;RUA JAMIL ABDALA;351;JAD GUANABARA;(16)37246126;14405442.0;SP;Franca;2016;5
727;2677;6793827;-20.901463515;-51.3788477947637;UAS NORTE ANDRADINA;RUA ITAR TAKATSU;115;JARDIM DAS TULIPAS;18 37226771;16901601.0;SP;Andradina;2016;5
728;2578;3200388;-21.7789228838555;-48.5621404276762;ESF JARDIM SAO PAULO NOVA EUROPA;RUA DOS ANTURIOS;584;JARDIM SAO PAULO;(16)33871711;14920000.0;SP;Nova Europa;2016;5
743;2425;2083442;-21.0217916965479;-48.0314755439744;UBS DR CALIL DAMIAO FILHO PONTAL;RUA HENRIQUE LOURENCO MARANHAO;70;NOVA PONTAL;(16) 39532600;14180000.0;SP;Pontal;2016;5
748;2675;2074613;-22.715381383895195;-49.5723938941941;USF CAPORANGA SCRPARDO;RUA SEBASTIAO M SANTOS;S/N;DISTRITO CAPORANGA;(14)33741200;18900000.0;SP;Santa Cruz do Rio Pardo;2016;5
762;2414;6799663;-21.0892009735101;-47.151045799254;UNIDADE BASICA DE SAUDE DE SANTO ANTONIO DA ALEGRIA;RUA MARECHAL DEODORO;0;CENTRO;16-36681166;14390000.0;SP;Santo Antônio da Alegria;2016;5
771;2402;2025302;-21.357996;-48.234056727223205;UNIDADE DO PROGRAMA DE SAUDE DA FAMILIA PSF I DE GUARIBA;AVENIDA ERNESTO DE ANGELIS;925;JARDIM PAULISTANO;(16)32515137;14840000.0;SP;Guariba;2016;5
822;2848;3850315;-22.472115755080498;-48.9622879028306;UNIDADE SAUDE DA FAMILIA DIRCE PORTO BICALHO AYUB AGUDOS;RUA PROF LUIZ PEDRO DA CUNHA;545;JARDIM EUROPA;32610351;17120000.0;SP;Agudos;2016;5
826;2812;6003583;-22.5902724266046;-47.5212764739976;USF ANGELINA PLATINETTI MASSARI DE IRACEMAPOLIS;RUA PADRE ELIAS FADUL;233;JARDIM HERMINIO DEMA;(19) 3456-3930;13495000.0;SP;Iracemápolis;2016;5
828;2954;2801116;-23.66949;-46.611779999999996;UBS VILA SAO JOSE SAUDE DA FAMILIA;RUA BARAO DE IGUAPE;98;VIL SAO JOSE;(11)40711179;9950430.0;SP;Diadema;2016;5
835;3045;2750392;-21.851329999999997;-51.39216;UNIDADE BASICA DE SAUDE EULINA RAMOS PASSOS SANTO EXPEDITO;RUA DR ARMANDO NOVAIS JUNIOR;208;CENTRO;(18)32671249;19190000.0;SP;Santo Expedito;2016;5
851;2835;8133;-23.4974263318463;-46.7719156188965;UBS VILA MENCK;R RIBEIRAO PIRES;S/N;VIL MENCK;11 36597278;6270250.0;SP;Osasco;2016;5
853;2853;3020908;-23.0688056;-48.9335725;ESF II DR FERNANDO HIRATA AVARE;MAZZONI NEGRAO;190;DUILIO GAMBINI;14 37312121;18706707.0;SP;Avaré;2016;5
858;3001;2048779;-22.2368280459132;-49.9182391366959;USF JOQUEY CLUBE;RUA JAPAO;380;JOQUEY CLUBE;14-34174034;17521440.0;SP;Marília;2016;5
866;2903;2047292;-20.8999228477472;-47.578074932096996;UBS DE VIL LIDIA UBS DR SHIRLEY AGDA GARCIA BARROS;PRCA SEBASTIAO V NOGUEIRA;S/N;VILA LIDIA;(16)37615993;14300000.0;SP;Batatais;2016;5
873;2965;5177510;-21.8420863151544;-47.466323375700505;UBS ARLINDO DE VICENTE PORTO FERREIRA;RUA VANDERLEI BUENO MESQUITA;40;JARDIM PASCHOAL SALZ;;13660000.0;SP;Porto Ferreira;2016;5
918;2883;2750775;-22.171955108641896;-52.13160753249971;POSTO DE SAUDE ASSENTAMENTO AREIA BRANCA;ASSENTAMENTO AREIA BRANCA;S/N;ZONA RURAL;18 39961125;19430000.0;SP;Marabá Paulista;2016;5
948;2861;2022443;-20.9623217582697;-48.471271991728294;E S F DR RAMIRO DE SOUZA LIMA;RUA IRMA CRUCIFIXO;875;RES FURQUIM;(17)3342-8014;14702100.0;SP;Bebedouro;2016;5
970;2963;2090422;-23.6307865;-49.3151823;UNIDADE MISTA DE SAUDE DE CORONEL MACEDO;AVENIDA PRESIDENTE CASTELO BRANCO;240;CENTRO;(14)37677101;18745000.0;SP;Coronel Macedo;2016;5
975;3000;2069695;-22.7750122547143;-45.69709539413321;UBS RIO PRETO DO MEIO;ESTRADA ESTADUAL SP 46 OSWALDO BARBOSA GUISARD;S/N;RIO PRETO DO MEIO;;12450000.0;SP;Santo Antônio do Pinhal;2016;5
979;3113;2032791;-22.722795009612398;-45.1056361198412;UBS VILA NUNES;RUA JOAO C GUEDES;150;VILA NUNES;(12)3153-1277;12603200.0;SP;Lorena;2016;5
983;3057;2791412;-22.5196981430047;-48.7179279327378;UNIDADE DE SAUDE DA FAMILIA SANTA RITA;RUA PARAGUAI;331;SANTA RITA;(14)32981026;17290000.0;SP;Macatuba;2016;5
988;3128;2765764;-23.7524414062493;-45.818095207213;USF BORACEIA;ALAMEDA PENAPOLIS;S/N;BORACEIA;(12)38676109;11626312.0;SP;São Sebastião;2016;5
991;3027;5710367;-20.636668999377;-51.1066610199469;UBS VALTER GATTI;RUA CEL BASILEU ESTRELA;S/N;LOTEAMENTO NOVA VENE;18-3746-1246;15370000.0;SP;Pereira Barreto;2016;5
998;2941;2052709;-22.2997784614557;-49.0763139724717;UNIDADE BASICA DE SAUDE JARDIM GODOY;ALAMEDA FLOR DO AMOR;10;JARDIM GODOY;(14)3237-5065;17021270.0;SP;Bauru;2016;5
1008;2810;2077086;-20.4275570617021;-47.8245929501746;PSF VILA MATARAZZO;RUA CONDE FRANCISCO MATARAZZO;2635;VILA MATARAZZO;(16)38311388;14580000.0;SP;Guará;2016;5
1009;2866;2063689;-22.1937775611871;-46.742234230040104;UBS DR VALTER FAUSTINO PEREIRA V PALMEIRAS E S PINHAL SP;RUA SEIS DE MARCO;S/N;VILA PALMEIRAS;(19)6513580;13990000.0;SP;Espírito Santo do Pinhal;2016;5
1013;3137;2091860;-20.8112265;-48.8058357;UBS RAPHAEL CAZARINI;R DR SALOMAO GALIB TANNURI;197;CENTRO;17 38171470;14735000.0;SP;Severínia;2016;5
1021;2860;8419;-23.5802865028374;-46.8033456802355;UBS LIA BUARQUE DE MACEDO GASPARINI;AVENIDA CLOVIS ASSAF;460;VILA DA CONQUISTA;(11)36057445;6145080.0;SP;Osasco;2016;5
1030;2944;6032478;-22.9073425;-47.060156272973096;CENTRO DE SAUDE SATELITE IRIS I;RUA REVERENDO JOSE COELHO FERRAZ;21;CIDADE SATELITE IRIS;19-32273525;13059662.0;SP;Campinas;2016;5
1072;3135;2086700;-22.930902242659897;-46.272375583647296;UBS II DE JOANOPOLIS;RUA FRANCISCO WOLHERS;113;CENTRO;(11)4888-9208;12980000.0;SP;Joanópolis;2016;5
1083;3018;2051915;-20.211693165;-50.9267774238433;ESF BELA VISTA SANTA FE DO SUL;RUA TRINTA TRES;635;JARDIM PRATA;(17)36311319;15775000.0;SP;Santa Fé do Sul;2016;5
1086;3079;6240763;-22.658239603041896;-45.0060939788805;ESF VILA CACARRO;PRACA PLACIDO GUEDES MAGALHAES;S/N;VILA CACARRO;;12630000.0;SP;Cachoeira Paulista;2016;5
1099;2864;2751089;-22.6097667217248;-51.722474098204096;UBS I THEODORA CORDEIRO DE ANDRADE COM SERVICO DE ESF;RUA PARANAPANEMA;535;DISTRITO DE ITORORO;(18) 3269-7117;19208000.0;SP;Pirapozinho;2016;5
1105;2807;7202121;-21.694457429411603;-51.08800426125529;UBS PARQUE CECAP;R PROF NOEMIA BUENO DO VALE;145;PARQUE CECAP;;17800000.0;SP;Adamantina;2016;5
1138;3396;2052318;-23.428237438201197;-46.5220570564257;UBS MORROS;RUA DELMIRO;299;JD DOS AFONSOS;1124045444;7131430.0;SP;Guarulhos;2016;5
1139;3209;2094177;-21.017156839370102;-47.757654190062105;USF V JOAO AUGUSTO DOS REIS;RUA AMADOR BUENO;S/N;VILA PAULISTA;(16)36902955;14680000.0;SP;Jardinópolis;2016;5
1159;3440;2062143;-22.354992497248602;-49.0566292405128;UNIDADE BASICA DE SAUDE JARDIM EUROPA;RUA HERMES CAMARGO BATISTA;164;PARQUE JARDIM EUROPA;(14)3227-7322;17017492.0;SP;Bauru;2016;5
1162;3497;2057204;-23.1408977508538;-47.084956169127;UBS DO BAIRRO MONTE SERRAT;RUA DUILIO CHINARELI;120;MONTE SERRAT;(11)45910330;13295000.0;SP;Itupeva;2016;5
1164;3459;2790297;-22.5124239921563;-48.560192584990006;CENTRO DE SAUDE III DE IGARACU DO TIETE;RUA FERNANDO JATOBA;352;CENTRO;14 36441282;17350000.0;SP;Igaraçu do Tietê;2016;5
1165;3422;2750937;-21.50925;-51.43403;ESTRATEGIA DE SAUDE DA FAMILIA VII;RUA SAO SALVADOR;2182;JARDIM DOS PASSAROS;(18) 3841-3452;17890000.0;SP;Junqueirópolis;2016;5
1168;3458;2042762;-21.875939505;-51.8402588050568;ESF VILA LUIZA;RUA CANDIDO DE ALMEIDA;205;VILA LUIZA;(18)32717999;19400000.0;SP;Presidente Venceslau;2016;5
1173;3215;7462328;-21.612369231984896;-51.1661572208404;UNIDADE DE SAUDE DA FAMILIA DE FLORIDA PAULISTA II;RUA CEARA;99;VILA MONTEIRO;;17830000.0;SP;Flórida Paulista;2016;5
1180;3528;2049104;-20.592133998870302;-47.37197399139271;UBS AEROPORTO III;RUA DENIZART TREVISANI;1971;JAD AEROPORTO III;(16)37017177;14404225.0;SP;Franca;2016;5
1188;3472;2092387;-22.041277885436397;-48.33870649337629;UNIDADE BASICA DE SAUDE MANOEL MORALES TRABIJU;AVENIDA 27 DE DEZEMBRO;300;CENTRO;(16) 33491124;14935000.0;SP;Trabiju;2016;5
1202;3530;2035944;-22.738823890685396;-47.4025940895067;UNIDADE BASICA DE SAUDE 31 DE MARCO;RUA 23 DE MAIO;S/N;31 DE MARCO;(19)34546515;13453153.0;SP;Santa Bárbara d'Oeste;2016;5
1208;3469;2787628;-23.7714529037469;-46.696679592131204;AMA UBS INTEGRADA JARDIM MIRNA;RUA DR JUVENAL HUDSON FERREIRA;13;JARDIM MIRNA;(11)55265175;4856140.0;SP;São Paulo;2016;5
1223;3360;2716437;-20.953346399265698;-49.1776695349784;ESF DR EDUARDO LAINETTI;RUA FRANCISCO ABDALLA;220;SAO MIIGUEL;(17)31010220;15890000.0;SP;Uchoa;2016;5
1224;3370;7248172;-21.28766;-47.428509999999996;ESTRATEGIA SAUDE DA FAMILIA SANTA CRUZ DA ESPERANCA;RUA GILBERTO RODRIGUES XAVIER;70;VILA SAO PAULO;16366611179;14250000.0;SP;Santa Cruz da Esperança;2016;5
1225;3449;3935574;-22.3570865196587;-47.3858295274694;ESF DR BENTO FERES ARARAS;RUA JULIA LUIZ RUETTE;245;JARDIM OURO VERDE II;19-35425453;13607507.0;SP;Araras;2016;5
1227;3450;2022788;-22.9073425;-47.060156272973096;CENTRO DE SAUDE PERSEU LEITE DE BARROS;AV PAULO PROVENZA SOBRINHO;1580;V PERSEU LEITE DE BA;(19)32273200;13060356.0;SP;Campinas;2016;5
1236;3338;2070499;-23.301574999313804;-48.0526853360855;UBS ORLANDO DE OLIVEIRA;RUA JOAQUIM PAIFER SOBRINHO;256;JARDIM SANTO ANTONIO;(15)32539030;18255000.0;SP;Quadra;2016;5
1240;3592;2059681;-23.8064825534814;-46.0521984100329;UNIDADE BASICA DE SAUDE JARDIM INDAIA;RUA SAO FRANCISCO DO SUL;84;JARDIM INDAIA;(13)33131971;11250000.0;SP;Bertioga;2016;5
1241;3452;2044242;-22.3299586772912;-49.0794682502732;UNIDADE BASICA DE SAUDE CENTRO;RUA QUINTINO BOCAIUVA;545;CENTRO;(14)32348795;17015100.0;SP;Bauru;2016;5
1247;3400;2773031;-23.16859;-47.754;UBS DA FAMILIA NOVA CERQUILHO CERQUILHO;RUA SAO JOSE;1080;NOVA CERQUILHO;(15)32841155;18520000.0;SP;Cerquilho;2016;5
1271;3534;2072327;-23.463;-46.533;UBS TRANQUILIDADE;AVENIDA EMILIO RIBAS;1897;JD TRANQUILIDADE;1124252799;7051000.0;SP;Guarulhos;2016;5
1274;3265;2076284;-22.614337399999997;-46.9663192;UNIDADE DE SAUDE DA FAMILIA DR JOSE PAULO MARUM;PRACA CAPITAO PEDRO ANTONIO DE MORAES;175;RESSACA;1938961151;13830000.0;SP;Santo Antônio de Posse;2016;5
1281;3547;2773422;-23.555191755294103;-46.3794493675218;UBS CDHU;RUA AMERICO TUFELLI;261;PRQ S FRANCISCO;(11)46795315;8527150.0;SP;Ferraz de Vasconcelos;2016;5
1290;3502;2022613;-22.943819761275602;-47.097680568693704;CENTRO DE SAUDE CAMPOS ELISEOS TANCREDO NEVES;AV TANCREDO NEVES;5101;CAMPOS ELISEOS;(19)32273811;13050214.0;SP;Campinas;2016;5
1295;3559;2022354;-20.94325;-48.508790000000005;E S F DR ULISSES DE CARVALHO;RUA AUGUSTO DE CARVALHO;260;JARDIM ALVORADA;(17)3342-4267;14706242.0;SP;Bebedouro;2016;5
1298;3483;2085003;-23.304880499313697;-45.96959320440929;UBS SANTO ANTONIO DA BOA VISTA;RUA DOS JACINTOS;470;STO ANTONIO B VISTA;(12)39535262;12315620.0;SP;Jacareí;2016;5
1314;3585;6520650;-23.533798456191303;-46.3626909255968;UBS MARIO SQUIZATO;RUA RAIMUNDO MAGRINI;240;VILA DAS NACOES;1146785816;8544300.0;SP;Ferraz de Vasconcelos;2016;5
1316;3509;2040387;-21.7457950115198;-48.1194949150071;UBS DR CASSIO MORAES ALVES AMERICO BRASILIENSE;AV CATANDUVA;340;JD VISTA ALEGRE;(16)33921121;14820000.0;SP;Américo Brasiliense;2016;5
1331;3517;2024446;-22.94841;-45.50148;UNIDADE DE SAUDE DA FAMILIA ARARETAMA PINDAMONHANGABA;GENERAL RUY DE ANDRADE COSTA;130;ARARETAMA;12 36481559;12423470.0;SP;Pindamonhangaba;2016;5
1332;3574;2030799;-21.338379999999997;-47.74666;UNIDADE MISTA DE SAUDE JOSE STELLA;AV PEDRO AMOROSO;1295;JOAO BERBEL II;(16)6511246;14140000.0;SP;Cravinhos;2016;5
1339;3429;2084953;-23.298053741454396;-46.0362339019762;UMSF IGARAPES;RUA ENGENHEIRO FLAVIO DA SILVA FREITAS;860;IGARAPES;(12)39563571;12330170.0;SP;Jacareí;2016;5
1346;3524;2046342;-20.9901403801924;-47.6563979568538;UBS DR JOSE DE CASTRO MENDONCA FURTADO PSF;RUA ARMINIO MONTEVERDE;75;JOAO LUIZ DE VICENTE;36645678;14340000.0;SP;Brodowski;2016;5
1353;3490;2027895;-22.828817367553;-47.16660261154039;USF SANTA CLARA;RUA BENEDITO TEODORO MENDES;26;JARDIM SANTA CLARA;(19)38643732;13179216.0;SP;Sumaré;2016;5
1354;3555;3810984;-23.7115323543542;-46.41127109527449;UNIDADE BASICA DE SAUDE RIBEIRAO PIRES;RUA VIRGILIO GOLA;24;VILA ALBERTINA;011 4828-1458;9400500.0;SP;Ribeirão Pires;2016;5
1368;3289;2698404;-22.008990778755802;-51.557570191824;ESF JOSE REMONDINI;RUA SAO MARCOS;421;SANTA ELIZABETE;(18)32627272;19300000.0;SP;Presidente Bernardes;2016;5
1381;3499;2051427;-23.8318291037712;-46.8171088725496;PSF SAPATEIRO EMBU GUACU;EST MUNICIPAL BRASILIO VIEIRA;180;SAPATEIRO;(11)46614535;6900000.0;SP;Embu-Guaçu;2016;5
1384;3441;2745879;-20.1850002235085;-48.0368962883949;P A S II JOSE ANTONIO DA SILVA MIGUELOPOLIS;RUA ABILIO DUARTE;S/N;TETUO INON;(16)38358234;14530000.0;SP;Miguelópolis;2016;5
1388;3453;2716887;-22.214933;-49.9516456431033;USF FIGUERINHA;AVENIDA JOSE JORENTE;291;FIGUEIRINHA;14-34253484;17512890.0;SP;Marília;2016;5
1399;3894;7298609;-23.539874960682003;-46.94452230596539;USF JD SAO CARLOS;RUA DOURADO;374;JARDIM SAO CARLOS;11 41436203;6694410.0;SP;Itapevi;2016;5
1400;3824;2088428;-23.5053133964532;-47.618329524992504;UNIDADE MISTA ARACOIABA DA SERRA;RUA ANTONIO ANTERO DE OLIVEIRA;19;CENTRO;(15)32817160;18190000.0;SP;Araçoiaba da Serra;2016;5
1401;3966;2750767;-21.382173299788803;-51.58048868179171;ESTRATEGIA SAUDE FAMILIA II DR JOSE ESTEVES MARTINS ANDRADE;AVENIDA BENEDITA CAMARGO;1492;JARDIM PETROPOLIS;(18)3851 1480;17930000.0;SP;Tupi Paulista;2016;5
1404;3753;7070489;-23.9395347235086;-46.287746625900205;USAFA JARDIM PROGRESSO GUARUJA;RUA JOSEFA HERMENIA DE CALDAS;S/N;JARDIM PROGRESSO;(13) 33417232;11440000.0;SP;Guarujá;2016;5
1421;3953;8003025;-20.4263844266911;-51.336897164583206;ESF 04 ESTRATEGIA SAUDE DA FAMILIA;RUA PALMARES;56;ZONA NORTE;(18)37436068;15385000.0;SP;Ilha Solteira;2016;5
1429;3928;2751194;-22.2426715;-50.86785510000001;ESF JARDIM PRIMAVERA DR JOAO B DOS STOS ARAUJO;RUA PRUDENTE DE MORAES;315;JD PRIMAVERA;(18) 3265-5287;19600000.0;SP;Rancharia;2016;5
1435;3741;2065312;-23.2378435134881;-45.397417545317296;NUCLEO DE ESF DO BAIRRO SAO SEBASTIAO;ESTRADA VICENTE RODRIGUES SALES;S/N;SAO SEBASTIAO;;12140000.0;SP;São Luís do Paraitinga;2016;5
1436;3667;2750376;-21.360597610473;-51.85675621032561;CENTRO DE SAUDE III DE PANORAMA;RUA EMILIO CONDE;1210;CENTRO;(18) 38719097;17980000.0;SP;Panorama;2016;5
1438;3889;2787679;-23.5742709;-46.68860720000001;AMA UBS INTEGRADA JARDIM PAULISTANO;RUA ENCRUZILHADA DO SUL;496;JAD PAULISTANO;(11)39715342;2816010.0;SP;São Paulo;2016;5
1444;3865;2027054;-23.5626161098473;-46.492574214933995;UBS J MARILIA;RUA ELZA DOS ANJOS NEVES;22;JD MARILIA;(11)27439526;3585100.0;SP;São Paulo;2016;5
1449;3649;4049373;-24.022883176802896;-46.4967799186693;USAFA MIRIM II;RUA NOSSA SENHORA DA CONCEICAO;S/N;MIRIM;(13) 34965212;11717100.0;SP;Praia Grande;2016;5
1455;3885;2028514;-22.00321;-47.85817;USF JARDIM MUNIQUE;AVENIDA DR AURELIO CATTANI;445;RESIDENCIAL ASTOLPHO;(16)33763112;13568820.0;SP;São Carlos;2016;5
1456;3747;5653223;-22.964022159575702;-47.3145961761461;USF GENIL LISBOA DE ALMEIDA JD PROGRESSO;ESTRADA MUNICIPAL;367;JD PROGRESSO;3879-1563;13190000.0;SP;Monte Mor;2016;5
1468;3647;2053144;-23.527693748473396;-47.881593704222205;PAS DO CERCADINHO;RUA LAUDELINO AYRES DOS SANTOS;2065;CERCADINHO;(15)02741239;18220000.0;SP;Alambari;2016;5
1470;3856;7418094;-21.7813875664845;-48.1243942985535;USF ALTOS DO PINHEIROS;AVENIDA CARLOS BERSANETTI FILHO;86;ALTOS DO PINHEIROS;1633312567;14811630.0;SP;Araraquara;2016;5
1473;3623;2793512;-21.2414538860315;-47.979462146757605;UNIDADE MISTA DE SAUDE DE DUMONT;RUA SAO PEDRO;276;JDTANGARA;(16) 39449200;14120000.0;SP;Dumont;2016;5
1476;3968;2052016;-23.4959685802453;-48.4097099304185;CENTRO DE SAUDE II DR RENATO DE CARVALHO RIBEIRO ANGATUBA;RUA JOSE FRANCO DE ARAUJO;530;VILA SAO CRISTOVAO;(15) 3255-9510;18240000.0;SP;Angatuba;2016;5
1485;3707;2057395;-21.8027222156518;-48.1295800209031;USF HORTENCIA DR JOSE NIGRO NETO;AVN REMO FRONTAROLI;450;PRQ DAS HORTENCIAS;(16)33335900;14808518.0;SP;Araraquara;2016;5
1487;3626;2043742;-22.214933;-49.9516456431033;USF ANIZ BADRA;RUA URIAS AVELINO DE MORAES;S/N;ANIZ BAPRA;(14)34152425;17511830.0;SP;Marília;2016;5
1489;3891;2788047;-23.494329999999998;-46.62027;AMA UBS INTEGRADA LAUZANE PAULISTA;RUA VALORBE;80;LAUZANE PAULISTA;11 22318619/22585818;2442140.0;SP;São Paulo;2016;5
1502;3706;2028778;-23.115202188491203;-48.9287924766526;UBS BRABANCIA AVARE;PRACA ARMANDO PAULA ASSIS;S/N;BRABANCIA;( 14) 3733-2977;18703000.0;SP;Avaré;2016;5
1508;3866;2752166;-23.5539364814751;-46.58010005950789;AMA UBS INTEGRADA AGUA RASA;RUA SERRA DE JAIRE;1480;AGUA RASA;(11)66052156;3175001.0;SP;São Paulo;2016;5
1512;3998;2792583;-22.73821234703;-45.59345483779779;CENTRO DE SAUDE II CAMPOS DO JORDAO;AV ADHEMAR DE BARROS;115;VILA ABERNESSIA;(12)2621600;12460000.0;SP;Campos do Jordão;2016;5
1519;3950;8567;-23.678197860717102;-46.5525913238512;US JARDIM BOM PASTOR;RUA JOSE D ANGELO;35;BOM PASTOR;(11)42261343;9051300.0;SP;Santo André;2016;5
1522;3750;2047446;-23.709858655928898;-48.8531756401048;UNIDADE PSF GUARIZINHO JAO;RUA HONORATO GONCALVES DE ALMEIDA;1500;GUARIZINHO;(15)35231157;18400970.0;SP;Itapeva;2016;5
1525;3961;2787709;-23.714734947993602;-46.687110811471904;UBS J REPUBLICA;AVN GONCALO DE PAIVA GOMES;285;JARDIM REPUBLICA;(11)56635000;4812090.0;SP;São Paulo;2016;5
1533;3890;2787474;-23.743911981582;-46.705369949339506;AMA UBS INTEGRADA JARDIM ICARAI QUINTANA;RUA SAO ROQUE DO PARAGUACU;190;VILA QUINTANA;(11)59280872;4837150.0;SP;São Paulo;2016;5
1538;3703;2028247;-22.3153460025781;-52.2459340095505;ESF 3 PLANALTO DO SUL;RUA JOAQUIM ALVES FERREIRA;407;PLANALTO DO SUL;(18) 3282-6180;19280000.0;SP;Teodoro Sampaio;2016;5
1547;3898;2042398;-24.292005633897;-47.1757260565554;UNIDADE DE ESF I VILA BOA ESPERANCA;ESTRADA JOAO ALBINO PINHEIRO;S/N;VILA ESPERANCA;;11760000.0;SP;Itariri;2016;5
1556;4000;8613;-23.6517405509942;-46.560959815977704;US VILA PALMARES USF VILA PALMARES;PRC AUREA;234;VIL PALMARES;(11)44216829;9061405.0;SP;Santo André;2016;5
1562;3712;3138038;-21.6578936576837;-49.751951694487104;UBS DR NILTON NICOLAU NAUFAL REBOUCAS;RUA ROSA MARIA ANGELICA;55;PARQUE DOS TRABALHAD;(014) 3523-2572;16400840.0;SP;Lins;2016;5
1573;3727;2041502;-22.610318799999998;-50.6672119;CENTRO DE SAUDE DE MARACAI;RUA MARECHAL DEODORO DA FONSECA;736;CENTRO;(18)33719300;19840000.0;SP;Maracaí;2016;5
1574;3800;7501560;-20.8100390031425;-48.8112258911133;UBS ERMINIA GALLINA CUSSOLIM;RUA JULIA SGORLON;S/N;CIDADE DE DEUS;;14735000.0;SP;Severínia;2016;5
1580;3768;2022362;-20.948;-48.46714;E S F DR PEDRO MARINHO DE MELLO JUNIOR;RUA OSWALDO GARRIDO;S/N;RES CENTENARIO;(17)3345-3679;14711542.0;SP;Bebedouro;2016;5
1616;3979;2055406;-23.013653755187303;-45.5850863456713;UBS MAIS AEROPORTO;RUA DINORAH PEREIRA RAMOS;363;PARQUE AEROPORTO;(12) 3631-0433;12051230.0;SP;Taubaté;2016;5
1622;3679;2791463;-22.365106344222397;-48.7705206871019;UNIDADE BASICA DE SAUDE OSVALDO BUENO DE CAMARGO;AVN JOAO MEIADO;303;VIL PAULISTA;(14)32853529;17280000.0;SP;Pederneiras;2016;5
1630;3887;2787636;-23.64241;-46.76743;UBS JARDIM MITSUTANI;RUA FREI XISTO TEUBER;50;JARDIM MITSUTANI;(11) 58429292;5791080.0;SP;São Paulo;2016;5
1635;3859;2033860;-22.446409463881803;-46.805255413054105;POSTO DE SAUDE DA FAMILIA PRADOS;RUA SINPHRNIO EDNANDO E SILVA;40;PRADOS;(19)38133632;13973255.0;SP;Itapira;2016;5
1637;3868;2788756;-23.538439999999998;-46.70368;AMA UBS INTEGRADA VILA BARBOSA;AVENIDA MANDAQUI;197;LIMAO;39661302 / 39516457;2550000.0;SP;São Paulo;2016;5
1657;3875;7100256;-20.1973799275209;-50.92956161495751;ESF DR CELSO XAVIER;AVENIDA MANGARA;300;JARDIM GUANABARA;17 - 3641-2209;15775000.0;SP;Santa Fé do Sul;2016;5
1659;3999;2042959;-23.5967230796807;-46.5924167633043;UBS JOAQUIM ROSSINI;RUA ALVARO FRAGOSO;480;VILA CARIOCA;(11)22734602;4223000.0;SP;São Paulo;2016;5
1670;4290;2746638;-23.5478317737572;-46.8992400169359;UBS SANTA TEREZA;RUA SAO BERNARDO DO CAMPO;236;PQ SANTA TEREZA;(11) 4206.2258;6622200.0;SP;Jandira;2016;5
1680;4317;7722842;-22.1473437644929;-51.17362976074221;UBS II ANTENOR BIAZINI;RUA ZENITO MUZY;40;CONJ HABIT HIDEO NAG;;19500000.0;SP;Martinópolis;2016;5
1711;4286;2747642;-21.5593063831323;-48.2251739501939;ESTRATEGIA SAUDE DA FAMILIA;FAZENDA MONTE ALEGRE ASSENTAMENTO 1;S/N;RURAL;(16)33489400;14835000.0;SP;Motuca;2016;5
1714;4109;2698668;-23.3727478981011;-46.70515537261829;UBS JD MORRO GRANDE MARIA PEREIRA DE SOUZA;R MARCIANO DARTORA;78;PQ SAO RAFAEL;(11)44425522;7726555.0;SP;Caieiras;2016;5
1722;4225;2059487;-23.466646671294498;-47.503337860106;UNIDADE DE SAUDE DA FAMILIA LOPES DE OLIVEIRA SOROCABA;RUA RIUSAKU KANIZAWA;795;LOPES DE OLIVEIRA;(15)3223-3256;18071286.0;SP;Sorocaba;2016;5
1727;4253;2070189;-21.2691080212023;-50.811852214805604;UBS DR JOSE ROSSETO;RUA JOSE ROSSETO;58;CENTRO;(18)36011321;16790000.0;SP;Bento de Abreu;2016;5
1733;4048;2061708;-22.3781633377069;-47.1646070480333;POSTO ASSIST MED TUJUGUABA DURVAL GUIDINI CONCHAL SP;RUA STO ANTONIO;48;TUJUGUABA;(19)38662312;13835000.0;SP;Conchal;2016;5
1735;4264;2044358;-22.21070949;-49.656529935058;USF DR DECIO NOBRE MOREIRA;RUA SAO FRANCISCO DE ASSIS;120;ARACELI;(14)34063177;17400000.0;SP;Garça;2016;5
1746;4148;6076688;-23.064755201339104;-46.4521694183336;UNIDADE DE SAUDE DA FAMILIA DO CACHOEIRA ATIBAIA;ESTR DA CACHOEIRA;S/N;CACHOEIRA;;12954160.0;SP;Atibaia;2016;5
1760;4112;2051249;-21.875939505;-51.8402588050568;CENTRO DE SAUDE I TACITO LEITE DE CARVALHO E SILVA;RUA COMANDANTE ANTENOR PEREIRA;10;CENTRO;(18)32719030;19400000.0;SP;Presidente Venceslau;2016;5
1761;4316;7077572;-23.011683234366103;-46.821686340808895;PSF 18 GALETO;RUA FABIO ZUIANI;S/N;JARDIM GALETO;(11) 4487-7294;13253150.0;SP;Itatiba;2016;5
1778;4127;3089622;-21.76759;-48.135740000000006;USF JARDIM PINHEIROS;AV NOSSA SENHORA APARECIDA;222;JARDIM PINHEIROS;(16)33374517;14811400.0;SP;Araraquara;2016;5
1785;4346;6532233;-22.1227435;-51.3867655819125;ESF JARDIM CAMBUCI DR CARLOS LEON SAMICO GUILLIOD;RUA BENEDITA SIMIONI;560;JARDIM CAMBUCI;(18)3221-0056;19045050.0;SP;Presidente Prudente;2016;5
1806;4197;6854893;-21.511275749681;-51.434011950549;ESTRATEGIA DE SAUDE DA FAMILIA IV;RUA RIO DE JANEIRO;155;CRISTO REDENTOR;18-38419300;17890000.0;SP;Junqueirópolis;2016;5
1813;4025;2071835;-22.815;-50.794;CIAS DR JORGE BELOTTI PEDRINHAS PTA;RUA DA CIENCIA;388;CENTRO;1832491000;19865000.0;SP;Pedrinhas Paulista;2016;5
1821;4276;2750686;-22.554996920208396;-52.590898380276606;PAS AGROVILA ROSANELA DA PREFEUCLIDES DA CUNHA PAULISTA;AGROVILA ROSANELA;S/N;ZONA RURAL;(18) 32831277;19275000.0;SP;Euclides da Cunha Paulista;2016;5
1827;4031;2023962;-23.541254997252697;-46.866967678068704;UBS MARIA FRANCISCA DE MELO;ESTRADA DOS PINHEIROS;523;PARQUE VIANA;(11) 4199-3179;6449120.0;SP;Barueri;2016;5
1843;4018;3314529;-21.12943;-48.974909999999994;USF NOSSO TETO DR MICHEL CURI;AVN PALMARES;1980;NOSSO TETO;17-35233924;15804115.0;SP;Catanduva;2016;5
1865;4038;2070561;-23.4718823432916;-47.6997184753404;UBS IPERO;ESTRADA BRAZ JOAO VIEIRA;114;IPERO;015 32676212;18195000.0;SP;Capela do Alto;2016;5
1884;4300;3408035;-21.8097;-49.59703;UNIDADE DO PSF NUCLEO VILA BELEM CAFELANDIA;RUA IRACEMA BARBOSA DIAS;S/N;VILA BELEM;(14)35544199;16500000.0;SP;Cafelândia;2016;5
1928;4223;2083361;-20.8970367908472;-47.9854488372789;UBS DR RUY NOGUEIRA COSTA PONTAL;RUA CARAMURU;285;CANDIA;(16)39561408;14185000.0;SP;Pontal;2016;5
1936;4077;2096358;-22.1970535;-46.745514289869604;UBS PASCOALINA MANGILI TOMAZETTI V SAO PEDRO E S PINHAL SP;RUA VEREADOR ESTEVO DE FELIPE;S/N;VILA SAO PEDRO;(19)6513778;13990000.0;SP;Espírito Santo do Pinhal;2016;5
1938;4329;2023776;-20.3387659;-47.7795809;PSF JOSE TEIXEIRA SOBRINHO SAO BENEDITO CACH DEZ 1999;BRIGADEIRO JOSE VICENTE DE FARIA LIMA;S/N;DISTRITO;(16)38389002;14505000.0;SP;Ituverava;2016;5
1950;4387;3184765;-23.5021591186517;-46.8068218231188;UBS EMILIA COSME CERQUEIRA;RUA AILTON DE OLIVEIRA;171;MUNHOZ JUNIOR;(11)35994614;6246060.0;SP;Osasco;2016;5
1963;4011;2042185;-24.494251427999895;-47.841054751674996;USF SERROTE REGISTRO;RUA YOSHIGA SAMITSU;40;SERROTE;(13)3829-6009;11900000.0;SP;Registro;2016;5
1965;4095;2085445;-23.388401269912;-47.3476195335374;UBS 02 JOSE MARIA VICENTE ITU;RUA FIOVO DE BERNARDIN;S/N;JARDIM UNIAO;(11) 40190550;13308183.0;SP;Itu;2016;5
1975;4142;5447100;-24.513316;-48.848659904639796;ESF ENCAPOEIRADO APIAI;RUA ANTONIO CAMARGO;542;ENCAPOEIRADO;;18320000.0;SP;Apiaí;2016;5
1985;4645;2023636;-22.6359021663659;-47.1934676170335;UBS JARDIM FAVERI;AVN ESTER;1433;JAD DE FAVERI;(19)38721994;13157070.0;SP;Cosmópolis;2016;5
1992;4702;2028905;-23.928694725035896;-46.408953666685704;CENTRO DE SAUDE COMUNITARIO DO JARDIM CASQUEIRO;RUA ESPANHA;37;JD CASQUEIRO;( )3364.1447;11534000.0;SP;Cubatão;2016;5
1993;4454;2041367;-24.523780345916;-48.1073284149156;UBS II DE ELDORADO S P;RUA DR NUNO SILVA;525;CENTRO;(13)3871-1297;11960000.0;SP;Eldorado;2016;5
2005;4750;7159447;-22.0664712249013;-50.3107550740242;USF III DE QUINTANA;AVENIDA SANTO ANTONIO;S/N;SALAO BRANCO;14-34881161;17670000.0;SP;Quintana;2016;5
2017;4785;2086123;-22.1093738079065;-50.177199840544205;USF LUIZ PADILHA DE OLIVEIRA;RUA DR JOSE DE MOURA RESENDE;470;CENTRO;(14)34051547;17580000.0;SP;Pompéia;2016;5
2029;4590;3853357;-22.477941513060898;-46.6361045837389;PSF III DR JOSE EGIDIO DE ALVARENGA AGUAS DE LINDOIA;AVENIDA DAS NACOES UNIDAS;1100;CENTRO;(19) 3824 5971;13940000.0;SP;Águas de Lindóia;2016;5
2035;4707;2023180;-22.921999999999997;-47.02892;CENTRO DE SAUDE ERNESTO SIERRA HUNOVITCH OROZIMBO MAIA;R DOUTOR LAERTE DE MORAES;S/N;VL OROZIMBO MAIA;(19)32528178;13100640.0;SP;Campinas;2016;5
2039;4759;2092883;-22.0719198264169;-50.3115952429299;USF I DE QUINTANA;AVENIDA MARILIA;490;VILA CAMPANTE;(14)34881191;17670000.0;SP;Quintana;2016;5
2040;4681;8168;-23.538916110991803;-46.79414033889629;UBS MARIA GATTI GIGLIO;AV DAS FLORES;849;JD DAS FLORES;(11)36543109;6110100.0;SP;Osasco;2016;5
2054;4459;2072742;-22.9989123344415;-46.849157810209796;UBS CRUZEIRO;RUA EUGENIO JOLY;21;CRUZEIRO;(11) 4594-1824;13257001.0;SP;Itatiba;2016;5
2059;4683;2022931;-22.9073425;-47.060156272973096;CENTRO DE SAUDE PEDRO DE AQUINO NETO;AV PAULO PROVENZA SOBRINHO;35;JD CAMPOS ELISEOS;(19)32299865;13060864.0;SP;Campinas;2016;5
2067;4700;2058383;-21.0157929993515;-48.7725289127498;UBS DE PARAISO;RUA SAO PEDRO;705;CENTRO;(17)35679040;15825000.0;SP;Paraíso;2016;5
2068;4668;2784580;-20.5504524707788;-48.5854482650743;UNIDADE BASICA DE SAUDE DR SERGIO PIMENTA;AVENIDA 53;0353;MARILIA;(17)33221327;14780480.0;SP;Barretos;2016;5
2078;4638;2025426;-21.2524294853204;-48.335123062132396;ESTRATEGIA DE SAUDE DA FAMILIA AURELIO NIERO;AVENIDA AURELIO MIGLIORI;S/N;JD PAULISTA;(16)32036714;14875340.0;SP;Jaboticabal;2016;5
2088;4568;3051900;-22.584307193755397;-48.8147449493394;ESF WINTER MALATRAZI;RUA MANOEL DUARTE MOREIRA;160;JULIO FERRARI;(14)32645040;18682000.0;SP;Lençóis Paulista;2016;5
2102;4571;2032880;-23.8825070857995;-46.455001831053295;CENTRO DE SAUDE COMUNITARIO DO PINHAL DO MIRANDA;RUA SEIS;409;PINHAL DO MIRANDA;(13)3377.1727;11539000.0;SP;Cubatão;2016;5
2103;4591;2067587;-22.3592162132257;-47.329466342924604;ESF VITAL PACIFICO HOMEM ARARAS;RUA IRINEU CARROCI;1469;JOSE OMETTO IV;(19)35445411;13601111.0;SP;Araras;2016;5
2115;4745;2049260;-23.1076598167413;-47.712700366972506;CENTRO DE SAUDE II TIETE DR RUI SILVEIRA MELO;AV XI DE AGOSTO;75;CENTRO;(15) 3285-9450;18530000.0;SP;Tietê;2016;5
2129;4679;6472141;-20.843916155827397;-49.630474851340196;ESF II DE NEVES PAULISTA;RUA INDEPENDENCIA;349;CENTRO;(17)32710570;15120000.0;SP;Neves Paulista;2016;5
2146;4566;5048427;-23.953660726546502;-46.4157772064195;UNIDADE BASICA DE SAUDE NAUTICA III SAO VICENTE;RUA NICOLAU PATRICIO MOREIRA;S/N;ESPLANADA DOS BARREI;34638266;11340380.0;SP;São Vicente;2016;5
2151;4625;2030071;-23.6491322249999;-47.5746801202081;PSF PRIMAVERA;AV VICENTE LEME DOS SANTOS;20;JD PRIMAVERA;(15)34911055;18160000.0;SP;Salto de Pirapora;2016;5
2153;4711;2801205;-23.6988615989678;-46.610054969786205;UBS SERRARIA;AV LICO MAIA;803;SERRARIA;(11)40553216;9981420.0;SP;Diadema;2016;5
2164;4583;2034654;-23.64655;-46.43758;UBS JARDIM ZAIRA II;AVENIDA PRESIDENTE CASTELO BRANCO;1975;JARDIM ZAIRA;(11)4543-1692;9321375.0;SP;Mauá;2016;5
2168;4677;2062348;-23.9517509937279;-46.3803505897508;UNIDADE BASICA DE SAUDE JARDIM GUASSU SAO VICENTE;RUA LAGARTO;101;JARDIM GUASSU;(13)35612004;11370550.0;SP;São Vicente;2016;5
2171;4692;8672;-23.646655082701997;-46.5092682838426;US PARQUE JOAO RAMALHO;RUA MARAGOGIPE;100;PARQUE JOAO RAMALHO;(11)44725957;9290030.0;SP;Santo André;2016;5
2173;4609;2088444;-21.4635300636285;-48.39108467101911;CENTRO DE SAUDE III SANTA ERNESTINA;RUA JOAO BATISTA CAPORICCI;264;CENTRO;(16)32569999;15970000.0;SP;Santa Ernestina;2016;5
2174;4623;2072289;-23.5473704338067;-45.9625053405748;CS II NOSSA SENHORA DO REMEDIO;RUA CATARINA KASPER;99;REMEDIO;(11)46965145;8970000.0;SP;Salesópolis;2016;5
2175;4494;2045125;-22.29427;-51.90798;ESF SANTA TEREZINHA;RUA PAPA JOAO XXIII;1900;CENTRO;(18)3991 2384;19260000.0;SP;Mirante do Paranapanema;2016;5
2184;4664;3322041;-23.66949;-46.611779999999996;UBS JARDIM DAS NACOES SAUDE DA FAMILIA;RUA ITALIA;290;JARDIM DAS NACOES;11-40761758;9941030.0;SP;Diadema;2016;5
2192;4429;2046334;-22.740873098372802;-45.106365680693294;UBS BAIRRO DA CRUZ;RUA JOSE ANTONIO DE ALMEIDA GONZAGA;S/N;BAIRRO DA CRUZ;(12)31535174;12605040.0;SP;Lorena;2016;5
2215;4443;6463134;-22.2745399069633;-51.499262005090706;PSF V VILA SANTA ROSA;RUA JOAO MARTINS FILHO;139;VILA SANTA ROSA;(18) 3269-4149;19200000.0;SP;Pirapozinho;2016;5
2219;4796;6218199;-21.7234156460379;-51.01834914224089;UNIDADE DE SAUDE FAMILIA DR DOMINGOS;RUA LUIS DE PAULA BRAGA;S/N;PARQUE DAS PALMEIRAS;18-3551-4403;17780000.0;SP;Lucélia;2016;5
2235;4799;3021661;-24.025779999999997;-46.478609999999996;USAFA TUPIRY II;RUA IDELFONSO GALEANO;368;TUPIRY;(13)34965209;11701000.0;SP;Praia Grande;2016;5
2244;4548;2051192;-22.785592;-50.2187909877223;PROGRAMA DE SAUDE DA FAMILIA SAO JOSE I;RUA BAHIA;22;JD PAULISTA;(18)33512156;19970000.0;SP;Palmital;2016;5
2251;4694;2083779;-23.2758255;-46.73252670470529;USF DR WALFRIDO TIBURCIO;AV OURO PRETO;1536;JARDIM ALEGRIA;(11)44882900;7985300.0;SP;Francisco Morato;2016;5
2253;4615;2747359;-21.763111352919896;-48.8373827934251;UBS ALIDA JACQUELINE ZAGATTO GERETTO JACK;RUA JOSE MARTINELI CORREA;188;VILA IZOLINA;(16)33418452;14940000.0;SP;Ibitinga;2016;5
2255;4709;2787555;-23.4605956077569;-46.673505306242504;AMA UBS INTEGRADA JARDIM LADEIRA ROSA;RUA JOSE DA COSTA GAVIAO;150;BRASILANDIA;(11)39826380;2872000.0;SP;São Paulo;2016;5
2256;4678;2033127;-20.89246;-51.36957;CAMO MINEIRA DR NELSON RODRIGUES MARTINHO ANDRADINA;RUA IGUASSU;1195;STELLA MARIS;(18)37226813;16901103.0;SP;Andradina;2016;5
2268;5008;3204405;-23.6473125;-46.8508599936736;UBS JARDIM SAO LUIZ;AVENIDA JOAO PAULO I;3376;JARDIM SAO LUIZ;4783-2595/4778-5063;6816550.0;SP;Embu das Artes;2016;5
2271;4847;2041804;-24.320703078972603;-47.6353419676622;UNIDADE DE ESF IPORANGA JUQUIA JUQUIA;BAIRRO IPORANGA;S/N;IPORANGA;(13)3844-1298;11800000.0;SP;Juquiá;2016;5
2274;5178;2075660;-23.526728153228103;-47.15415716171129;POSTO DE SAUDE DA VILA NOVA SAO ROQUE;RUA JABOTICABAL;604;VILA NOVA SAO ROQUE;(11)47841429;18131225.0;SP;São Roque;2016;5
2289;5093;2705117;-23.1820213794702;-46.810212135313606;UNIDADE BASICA DE SAUDE IVOTURUCAIA PACS;RUA PROFA VALDEREZ A C CASTRO LOPES;210;ESTANCIA SUICA;(11)45840125;13218810.0;SP;Jundiaí;2016;5
2300;5198;2033836;-22.1137404441827;-46.68592929839949;UNIDADE BASICA DE SAUDE FARMACEUTICO RAUL COSTA CAMARA;RUA JOSE JUSTINO DE OLIVEIRA;105;JARDIM SANTA RITA;19 3654-1364;13995000.0;SP;Santo Antônio do Jardim;2016;5
2317;5112;6007503;-22.626546621321996;-47.1877169609056;POSTO DE SAUDE COSMOPOLIS I;ROTATORIA B;39;COSMOPOLIS I;;13155444.0;SP;Cosmópolis;2016;5
2329;5184;2074699;-23.5386908054345;-46.844480037687795;UBS VILA MENCK;EST DAS ACACIAS;202;VIL MENCK;(11)42079127;6385023.0;SP;Carapicuíba;2016;5
2350;5175;2790165;-22.491631507872896;-48.5537123680101;CENTRO DE SAUDE II BARRA BONITA;RUA ANTONIO FRANCO POMPEU;302;VILA OPERARIA;(14)36410388;17340000.0;SP;Barra Bonita;2016;5
2402;4853;2063387;-22.743771;-46.897802090290696;USF SAO RAFAEL ARCANJO PEDREIRA;RUA MARIA BORDIGNHON;70;MARAJOARA;(19)38524173;13920000.0;SP;Pedreira;2016;5
2403;4934;6179045;-21.708420791919604;-46.82412762579129;ESF CENTRAL SSGRAMA;RUA NOVE DE JULHO;S/N;CENTRO;19-3646.3030;13790000.0;SP;São Sebastião da Grama;2016;5
2431;5157;2089033;-22.737042903899496;-46.89097881317;CENTRAL MUNICIP DE SAUDE DR EUCLIDES NERY JUNIOR PEDREIRA;RUA MIGUEL SARKIS;50;PARQUE INDUSTRIAL;(19)38932573;13920000.0;SP;Pedreira;2016;5
2442;5172;2088452;-20.0324535369867;-49.400882720945795;CS DE PAULO DE FARIA;RUA QUINZE DE NOVEMBRO;758;CENTRO;(17)38029209;15490000.0;SP;Paulo de Faria;2016;5
2463;5285;2088096;-22.444456815719;-46.9505667686449;UBS ATERRADO MOGI MIRIM;RUA DOMINGOS DOS SANTOS;105;ATERRADO;(19)38043268;13801370.0;SP;Mogi Mirim;2016;5
2481;5327;2061031;-23.456100225447898;-47.491257190703;CENTRO DE SAUDE MARIA EUGENIA SOROCABA;RUA MARIA ROMANO;264;JAD M EUGENIA;(15) 3226-1370;18074530.0;SP;Sorocaba;2016;5
2496;5505;5890977;-20.6251121361351;-49.6488201993718;ESF MANUEL DE SOUZA ALVES;RUA ANTONIO RODRIGUES DOS SANTOS;50;NOVA TANABI;(17)3272-4456;15170000.0;SP;Tanabi;2016;5
2501;5478;4049322;-24.0262413024895;-46.5118432044969;USAFA RIBEIROPOLIS;RUA ESMERALDO TARQUINIO;471;RIBEIROPOLIS;(13) 3496-5265;11714140.0;SP;Praia Grande;2016;5
2507;5237;2051230;-21.6767339356143;-51.3823008410719;UBS III DE FLORA RICA;AV PREFEITO OCTACIANO PEREIRA DE ANDRADE;66;CENTRO;18 3866-1120;17870000.0;SP;Flora Rica;2016;5
2512;5307;6506658;-20.7110095024103;-47.87024259567121;UBS VI APARECIDA HELENA DENIPOTI ORLANDIA;AVENIDA K;1340;JD DAS FLORES;(16) 3826-3814;14620000.0;SP;Orlândia;2016;5
2517;5356;3174697;-23.085279464720998;-46.70498371124129;UNIDADE BASICA DE SAUDE TRIESTE;RUA TURIM;385;NOVA TRIESTE;(11)40161211;13240000.0;SP;Jarinu;2016;5
2518;5295;2718782;-23.4659814834588;-46.325268745421;UBS JARDIM ODETE;RUA VISCONDE DE TAUNAY;270;JARDIM ALTOS DE ITAQ;(11)4642-9478;8598400.0;SP;Itaquaquecetuba;2016;5
2523;5420;6518664;-22.743771;-46.897802090290696;USF MIRIAN LEONARDI RACHED PEDREIRA;AVENIDA JOAQUIM CARLOS;S/N;VILA SAO JOSE;38524176;13920000.0;SP;Pedreira;2016;5
2526;5273;2025329;-23.6530494689935;-46.5433859825121;US VILA GUIOMAR USF VILA GUIOMAR;RUA DAS SILVEIRAS;73;VILA GUIOMAR;(11)49940835;9071100.0;SP;Santo André;2016;5
2529;5268;2028085;-22.4727272987359;-46.61325216293199;U B S JOSE ALVES DE ANDRADE;RUA FRANCISCO PEREIRA MOURAO;S/N;BELA VISTA;(19)3824 5099;13940000.0;SP;Águas de Lindóia;2016;5
2532;5371;2073986;-20.4233702918776;-50.085868281705295;ESF DE VALENTIM GENTIL;RUA JOSE VICENTE;001;CHOAB;(17)34851108;15520000.0;SP;Valentim Gentil;2016;5
2533;5239;6411037;-21.2255752828595;-50.86930811903979;UBS SEBASTIAO MARINHO DE SOUZA;RUA TENENTE LANDIM;332;PEDRO SAMUEL DA SILV;(18) 3401-1550;16880000.0;SP;Valparaíso;2016;5
2536;5219;2040522;-22.70424;-46.81031;USF JARDIM DAS AVES MOREIRINHA;R FRANCISCO LUIS DA SILVA;S/N;RIBEIRAO;(19)38074655;13904055.0;SP;Amparo;2016;5
2548;5245;2055597;-20.9141492843622;-49.7795462608323;CS DE NIPOA;RUA RIO DE JANEIRO;595;CENTRO;(17)2771243;15240000.0;SP;Nipoã;2016;5
2559;5491;2083396;-21.02571;-48.037837302541895;UBS MANOEL JOSE BIDOIA PONTAL;RUA ALFREDO TOMAZINI;406;JARDIM PRINCESA;(16) 39532526;14180000.0;SP;Pontal;2016;5
2579;5456;2074923;-22.7034401893609;-47.2890400886522;PSF ANTONIO ZANAGA II;RUA ADELMAR TAVARES;185;VIL ANTONIO ZANAGA;(19)3405-9380;13474422.0;SP;Americana;2016;5
2585;5343;2091984;-23.343061208724297;-49.3767642974839;UBS DE TEJUPA;PRACA DOMINGOS SARTORI;34;CENTRO;(14)33851252;18830000.0;SP;Tejupá;2016;5
2588;5424;3486877;-24.1048085689538;-49.3222832679734;UNIDADE PSF JD ALVORADA ITARARE SP;RUA DARCI ALVES;35;JARDIM ALVORADA;(15)35324446;18460000.0;SP;Itararé;2016;5
2589;5508;2036665;-20.843916155827397;-49.630474851340196;ESF DE NEVES PAULISTA;RUA ROSA ZALDINI;S/N;COHAB II;(17)32710946;15120000.0;SP;Neves Paulista;2016;5
2604;5309;2788535;-23.5997700691216;-46.4823603630052;UBS SAO MATEUS I;RUA ANGELO DE CANDIA;1058;SAO MATEUS;(11)20172706;3958000.0;SP;São Paulo;2016;5
2605;5528;5890160;-22.784625291823698;-46.5908074378954;UBS MARIA APARECIDA CRISPIM;RUA LUIS TORICELLI;200;JARDIM LIMAO;(11)40184275;12995000.0;SP;Pinhalzinho;2016;5
2607;5459;2083353;-21.0284650325769;-48.0369043350206;UPAM UNIDADE DE PRONTO ATENDIMENTO MUNICIPAL;RUA GUILHERME SILVA;801;CENTRO;(16) 39531906;14180000.0;SP;Pontal;2016;5
2611;5393;2750171;-22.5210499763482;-46.647005081175394;CENTRO DE SAUDE III DE LINDOIA;PRACA DR GETULIO VARGAS;143;CENTRO;(19)38983553;13950000.0;SP;Lindóia;2016;5
2614;5270;2075121;-22.7544450759881;-47.3621034622179;UNIDADE BASICA DE SAUDE MOLLON;RUA DO COBRE;S/N;MOLLON;(19)34575021;13456433.0;SP;Santa Bárbara d'Oeste;2016;5
2624;5372;5119774;-20.3107380866999;-48.320102691649;UNIDADE DE SAUDE DA FAMILIA JOSE ADALBERTO LELLIS GARCIA;RUA 10 B;455;ANTONIO GARCIA;17.331.5416;14790000.0;SP;Guaíra;2016;5
2629;5431;2022524;-21.27659;-47.31342;ESF JARDIM MARIA TEREZA CAJURU;RUA JUNDIAI;281;JD MARIA TEREZA;(16)36679937;14240000.0;SP;Cajuru;2016;5
2631;5227;2749254;-23.6491322249999;-47.5746801202081;PSF SILVA BARROS;R JOSE LEME DOS SANTOS SOBRINHO;128;JARDIM SILVA BARROS;(15)32921949;18160000.0;SP;Salto de Pirapora;2016;5
2645;5254;2041693;-22.2232711315149;-49.821989536284;CENTRO DE SAUDE II ANTONIO ALBERTO MACUCO JANINI;RUA TIRADENTES;100;CENTRO;(14)3492-1122;17560000.0;SP;Vera Cruz;2016;5
2677;5447;2083663;-21.692161560057997;-51.070976257322705;CENTRO DE SAUDE DE ADAMANTINA;AV VITORIO ROMANINI;16;VILA CICMA;(18)35023130;17800000.0;SP;Adamantina;2016;5
2682;5339;2023806;-20.3223252296442;-48.0024862289415;AP SALTO CAPIVARI PSF MARCOS ANTONIO BARBOSA SANDOVAL;ARMANDO GABRIEL SILVA;08;RURAL;(16)38382155;14500000.0;SP;Ituverava;2016;5
2704;5421;2042134;-24.698150280957798;-48.0047045115401;ESF FLOR DA VILA JACUPIRANGA;RUA MANGUEIRA;30;FLOR DA VILA;(13)686413097;11940000.0;SP;Jacupiranga;2016;5
2711;5269;2028999;-20.89319;-47.685829999999996;UBS CECAP II DR LUIS CANDIDO ALVES DE BATATAIS;PRACA ARISTIDES NOGUEIRA BRAGA;S/N;ALTINO ARANTES;(16)36621422;14300000.0;SP;Batatais;2016;5
2712;5288;2032163;-23.979817628859802;-46.4527273178087;UNIDADE BASICA DE SAUDE PONTE NOVA SAO VICENTE;RUA SALVADOR;S/N;PONTE NOVA;(13)35661155;11340000.0;SP;São Vicente;2016;5
2716;5281;2773473;-23.529131412505397;-46.3249254226671;UBS JARDIM MONTE CRISTO;AV CACHOEIRINHA;S/N;JD MONTE CRISTO;(11)47411605;8670080.0;SP;Suzano;2016;5
2718;5249;26131;-23.5499767405254;-46.788566772461;UBS JOSE GUIMARAES DE ABREU;RUA ARTELINDA RUGGERI DADDATO;468;JAD CIPAVA;(11)36929069 3592181;6075200.0;SP;Osasco;2016;5
2721;5520;2749130;-21.77715;-47.07074;PSF JOAO DE OLIVEIRA CASA BRANCA;RUA MARIA JOSE C ALMEIDA;S/N;ANDORINHAS;(19)36740003;13700000.0;SP;Casa Branca;2016;5
2723;5203;2034301;-23.989355564116696;-48.8920569419847;UBS JARDIM MARINGA ITAPEVA;RUA EUCLIDES DE CAMPOS;215;JD MARINGA;(15)35216371;18407070.0;SP;Itapeva;2016;5
2738;5927;2095971;-20.711653232573898;-48.532619476316995;UBS III SAO SEBASTIAO TEREZA BERNARDES TEIXERA;RUI BARBOSA;S/N;VILA SAO SEBASTIAO;(17)33410307;14770000.0;SP;Colina;2016;5
2752;5858;2773740;-23.5814988613122;-46.179206371306;UBS VILA MORAES;ESTRADA MOGIBERTIOGA;540;VILA MORAES;(11)47967018;8765340.0;SP;Mogi das Cruzes;2016;5
2768;5891;2023091;-22.86359;-47.15336;CENTRO DE SAUDE VILA PADRE ANCHIETA;AV PAPA JOAO PAULO II;640;VILA PADRE ANCHIETA;(19)32813009;13068219.0;SP;Campinas;2016;5
2782;5979;6008658;-21.4937961101526;-51.543195247648605;UBS EDUARDS LIGERIS;RUA ANTONIO RODRIGUES DE BARROS;1026;JARDIM SANTA CLARA;18-38226284;17900000.0;SP;Dracena;2016;5
2791;5789;2072904;-20.561041831969604;-47.3969936370836;UBS PROGRESSO FRANCA SP;RUA HERCILIO BATISTA DE AVELAR;1211;PRQ PROGRESSO;(16)37025275;14403096.0;SP;Franca;2016;5
2797;5899;8583;-23.627246618270195;-46.515963077543795;US VILA LUCINDA;RUA CACONDE;11;VILA CLARICE;(11)44791221;9250740.0;SP;Santo André;2016;5
2811;5936;2063077;-23.9846777915948;-46.395006179808206;ESF JAPUI SAO VICENTE;AVN TUPINIQUINS;S/N;JAPUI;(13)35671344;11325000.0;SP;São Vicente;2016;5
2821;5633;7039972;-24.006663001395;-46.2755452570915;USAFA JARDIM LAS PALMAS JANDUI DE SOUZA MOREIRA GUARUJA;RUA JOSE ALVES DE OLIVEIRA;S/N;JARDIM LAS PALMAS;(13) 33547101;11432000.0;SP;Guarujá;2016;5
2828;5915;2066998;-22.3556005954736;-47.3407316207872;ESF DR SEBASTIAO JAIR MOURAO ARARAS;RUA DO ESTUDANTE;120;JOSE OMETTO I;35447754;13606314.0;SP;Araras;2016;5
2837;5782;2747251;-21.858458518981298;-47.4845623970018;CENTRO DE SAUDE II PORTO FERREIRA;RUA NELSON P LOPES;521;CENTRO;(19)35813922;13660000.0;SP;Porto Ferreira;2016;5
2845;5976;2044102;-23.5736346244805;-48.0241155624376;UBS DR TUYOSHI HONMA JARDIM MESQUITA;RUA ESAU ISAAC;350;JAD MESQUITA;(15)32734674;18213560.0;SP;Itapetininga;2016;5
2878;5865;2792710;-22.742179999999998;-45.5941;POSTO VILA SODIPE;RUA SEBASTIAO APARECIDO CESAR;S/N;VILA SODIPE;(12)36645064;12460000.0;SP;Campos do Jordão;2016;5
2895;5832;8354;-23.5779905319207;-46.800663471220595;UBS IRMA AGUEDA MARIA JAIME;RUA ALAGOANA;100;JAD CONCEICAO;(11)35914411;6140200.0;SP;Osasco;2016;5
2896;5946;2051613;-22.903000000000002;-50.738;CENTRO DE SAUDE DE FLORINEA;RUA VITALINA MARIA DE JESUS;728;CENTRO;(18)33771119;19870000.0;SP;Florínia;2016;5
2903;5797;2091976;-23.531427383422198;-49.24067974090429;ESF NOVO CENTRO TAQUARITUBA;AVENIDA MARIO COVAS;125;NOVO CENTRO;1437622740;18740000.0;SP;Taquarituba;2016;5
2929;5851;2056364;-23.623416423796897;-46.786866188048;UBS JARDIM SANTA CECILIA;RUA HENRIQUE DE MORAES CAMARGO;143;JARDIM SANTA CECILIA;(011) 4138-4292;6767320.0;SP;Taboão da Serra;2016;5
2938;5914;2751348;-22.14951;-51.1721;USF DR JOSENALDO JOSE MEDEIROS;RUA BENVINDO ESPOSITO;180;DR ARTHUR G MELLO;(18)3275-2330;19500000.0;SP;Martinópolis;2016;5
2943;5854;2751224;-22.1772122383111;-51.261177062986796;ESTRATEGIA DE SAUDE DA FAMILIA II ROBERTO CETARA DOS SANTOS;RUA TIRADENTES;1228;VILA GARCES;(18)2560236;19560000.0;SP;Indiana;2016;5
2955;5816;2748487;-22.533098459243103;-47.71435260772571;P DE SAUDE PARAISO PASCHOAL DE JORGE CHARQUEADA;PRC AGOSTINHO JORGE DE MORAES;S/N;PARAISOLANDIA;(19)31869018;13515000.0;SP;Charqueada;2016;5
2981;6037;5888859;-23.5300648212426;-46.9692349433885;UNIDADE DE SAUDE DA FAMILIA AMBUITA;RUA EMILIO LEHMANN;71;ESTANCIA SAO FRANCIS;11 41448295;6695480.0;SP;Itapevi;2016;5
2997;6232;2044714;-21.4928734302515;-47.0077943801866;PSF SR ANTONIO CARLOS MASSARO MOCOCA;RUA JOSE RIBEIRO;86;FRANCISCO GAROFALO;(19)36657868;13737313.0;SP;Mococa;2016;5
3000;6118;2075164;-22.783391475676797;-46.581537723539896;CSIII DR HUGO ROCHA;VARIANTE AMERICO PEDRO BENETTI;S/N;CENTRO;(11)40184129;12995000.0;SP;Pinhalzinho;2016;5
3055;6317;5049032;-20.238833427428602;-47.4762582778917;PSF MUNICIPAL SANTA LUZIA;R JOAO ALVES TOLEDO;S/N;SANTA LUZIA;16-31712610;14470000.0;SP;Pedregulho;2016;5
3065;6068;2055422;-23.825279474257698;-47.454221248625295;UBS BAIRRO MIGUEL RUSSO DE PIEDADE;ZONA RURAL;S/N;MIGUEL RUSSO;( );18170000.0;SP;Piedade;2016;5
3074;6301;2750295;-22.621;-51.236999999999995;UNIDADE BASICA DE ESTRATEGIA DE SAUDE DA FAMILIA;RUA MESSIAS NANTES;215;CENTRO;(18)32686162;19645000.0;SP;Nantes;2016;5
3085;6089;2702568;-23.4286665916436;-45.1098418235766;PAS DO IPIRANGUINHA UBATUBA;RUA DA ASSEMBLEIA;114;IPIRANGUINHA;(12)38325110;11680000.0;SP;Ubatuba;2016;5
3092;6390;2045311;-23.710304500000003;-46.550257247678296;UBS CAMINHO DO MAR;RUA AURA;79;JD MUSSOLINI;4362-2739;9618050.0;SP;São Bernardo do Campo;2016;5
3093;6026;2096366;-22.1928226947778;-46.7426633834825;CENTRO DE SAUDE II DR JOSE DE FELIPE E S PINHAL SP;RUA CEL AMANDO VERGUEIRO;25;CENTRO;(19)36513999;13990000.0;SP;Espírito Santo do Pinhal;2016;5
3113;6140;7420404;-23.9638117959556;-46.2459336695671;USAFA JARDIM BRASIL GUSTAVO COELHO DE ALMEIDA GUARUJA;RUA POETA ALBERTO DE OLIVEIRA;S/N;JARDIM BRASIL II;(13) 33594685;11497500.0;SP;Guarujá;2016;5
3119;6386;2706059;-23.322;-46.727;UBS DR LEOPOLDINO JOSE DOS PASSOS;RUA LUIZ COUTINHO DE ABREU;551;PQ VITORIA;(11)48007597;7855160.0;SP;Franco da Rocha;2016;5
3133;6091;2036770;-23.748729228972696;-47.0586705207811;POSTO DE SAUDE CARMO MESSIAS;ZONA RURAL;S/N;CARMO MESSIAS;;18150000.0;SP;Ibiúna;2016;5
3137;6016;2044226;-23.5438728332513;-46.3676905632006;CENTRO DE SAUDE II UBS MARIO M SILVA F VASCONCELOS;RUA JAPAO;120;CENTRO;(11)46755636;8500120.0;SP;Ferraz de Vasconcelos;2016;5
3144;6382;2067560;-22.381875514983502;-47.3888826370225;POSTO DE ATENDIMENTO MEDICO EVA ALMEIDA COSTA CRUZ ARARAS;AVENIDA PRESIDENTE CAFE FILHO;209;NARCISO GOMES;35417898;13601430.0;SP;Araras;2016;5
3155;6125;7729766;-21.17328;-47.80627;USF CESAR AUGUSTO ARITA JD PAULO GOMES ROMEO;RUA VICTOR JOAO CASTANIA;960;JD DOUTOR PAULO GOME;(16)39191919;14056732.0;SP;Ribeirão Preto;2016;5
3159;6165;2088177;-22.4722552299493;-46.9614458084093;UBS JARDIM PLANALTO MOGI MIRIM;RUA SEBASTIAO MILANO SOBRINHO;1455;JD PLANALTO;(19)38043259;13801650.0;SP;Mogi Mirim;2016;5
3162;6171;2704846;-23.1789207458489;-46.867997646330394;UNIDADE BASICA DE SAUDE SAO CAMILO;RUA PEDRO RAVANHANI;298;JD SAO CAMILO;(11) 4587-9494;13216430.0;SP;Jundiaí;2016;5
3169;6378;2745674;-20.427170533193102;-47.82034683132171;CS II DR JAHYR DE PAULA RIBEIRO GUARA;AVN ANTONIO RIBEIRO DOS SANTOS;555;VILA VITORIA;(16)38313323;14580000.0;SP;Guará;2016;5
3174;6213;2688425;-22.94444;-46.56118;ESF SAO MIGUEL;RUA MAXIMO BERTOLINI;75;JARDIM SAO MIGUEL;(11) 4034-5026;12903550.0;SP;Bragança Paulista;2016;5
3176;6072;3021394;-23.963;-46.391999999999996;UNIDADE BASICA DE SAUDE SAMBAIATUBA SAO VICENTE;PRACA DOM BOSCO;S/N;JOCKEY CLUB;(13)34638727;11350010.0;SP;São Vicente;2016;5
3201;6092;2716011;-24.0176153182976;-46.4696574211107;USAFA MIRIM I;AVENIDA DOS SINDICATOS;635;MIRIM;13)3496-5203;11704650.0;SP;Praia Grande;2016;5
3205;6316;2044617;-22.979;-49.871;CS I DE OURINHOS;RUA WENCESLAU BRAZ;39;VILA MANO;14 33026100;19912060.0;SP;Ourinhos;2016;5
3212;6698;2032406;-21.799675226210898;-48.1497073173509;CMSC YOLANDA OPICE DR FRANCISCO OSWALDO CASTELUCI;AVENIDA DOMINGOS DE NOBILE;S/N;JAD ITALIA;(16)33335052;14807300.0;SP;Araraquara;2016;5
3225;6713;7127731;-21.153611844032397;-48.9403849840164;USF PACHA DR SERGIO BANHOS;AVENIDA CRUZEIRO DO SUL;305;CONJUNTO RESIDENCIAL;17 3521-7374;15808459.0;SP;Catanduva;2016;5
3231;6482;8001456;-22.8174250893317;-45.191600128420106;UASF VISTA ALEGRE GUARATINGUETA;PCA NACIONAL;90;VISTA ALEGRE;(12)31336778;12523530.0;SP;Guaratinguetá;2016;5
3242;6490;2065118;-22.29427;-51.90798;UBS II DR EXPEDITO SHIZUO KUROCE;RUA DR NOBORU KASAE;854;CENTRO;(18 ) 3991 1820;19260000.0;SP;Mirante do Paranapanema;2016;5
3245;6541;3503208;-24.18122;-46.783229999999996;UNIDADE DE SAUDE DA FAMILIA SAVOY;RUA JAIME LINO DOS SANTOS;290;SAVOY;(33)4261798;11740000.0;SP;Itanhaém;2016;5
3253;6494;6676235;-24.2931425571435;-47.2361040115343;ESF IV COM SAUDE BUCAL;ESTRADA MUNICIPAL VILA BATISTA;S/N;VILA BATISTA;;11790000.0;SP;Pedro de Toledo;2016;5
3259;6512;2055902;-22.4125115;-47.5635332384344;UBS PSF CELIA AP CECCATO DA SILVA;RUA SEIS;680;NOVO JARDIM WENZEL;(19) 3534-0509;13503664.0;SP;Rio Claro;2016;5
3269;6455;7621426;-22.87514;-49.23672;ESF UNIDADE PARQUE DOS LAGOS;AVENIDA PARQUE DOS LAGOS;100;PARQUE DOS LAGOS;;18770000.0;SP;Águas de Santa Bárbara;2016;5
3270;6651;2051893;-20.845109224318897;-49.63069438934179;CS DE NEVES PAULISTA;RUA BENJAMIN CONSTANT;580;CENTRO;(17) 32711217;15120000.0;SP;Neves Paulista;2016;5
3281;6454;2028727;-23.103904724120397;-48.2602787017808;UNIDADE BASICA DE SAUDE BRUNO NOVAES BOFETE;ERNESTO EBURNEO;155;CENTRO;(14)38831514;18590000.0;SP;Bofete;2016;5
3284;6660;2087243;-23.2186925411218;-46.72036886215071;UBS PAU ARCADO;RUA JOSE OLIO;27;PAU ARCADO;11 4812-3941;13234602.0;SP;Campo Limpo Paulista;2016;5
3306;6553;2023822;-20.331970000000002;-47.77943;PSF FARMACEUTICO JOSE DE LIMA GUANABARA EQUIPE 01;RUA CHAFIA ABDALLA SAAD;127;GUANABARA I;(16)38396224;14500000.0;SP;Ituverava;2016;5
3316;6711;7428324;-22.7051466059831;-46.8084821105003;USF SANTA MARIA DO AMPARO;AVENIDA JOSE DE GIUSEPPE;36;LOT RES STA MARIA DO;19 38176151;13905775.0;SP;Amparo;2016;5
3336;6633;2041847;-24.320703078972603;-47.6353419676622;UNIDADE DE ESF VILA SANCHES JUQUIA JUQUIA;RUA SERGIPE;80;PARQUE NACIONAL;(13)3844-3681;11800000.0;SP;Juquiá;2016;5
3340;6527;2051109;-21.708420791919604;-46.82412762579129;ESF JOAO ARCHANJO SSGRAMA;FAZENDA SERTAOZINHO;S/N;NC;(19);13790000.0;SP;São Sebastião da Grama;2016;5
3345;6593;2056771;-22.290558594472298;-51.905794305935004;ESF PE DE GALINHA;ASSENTAMENTO FAZENDA HAROLDINA;S/N;ENG VERAS;(18) 3991 1820;19260000.0;SP;Mirante do Paranapanema;2016;5
3354;6580;2038838;-22.22246;-49.66324;USF DR ADAUTO GONCALVES COLLETES;RUA CARLOS FERRARI;1415;REBELO;(14)34062135;17400000.0;SP;Garça;2016;5
3387;6514;2751100;-22.23067;-50.89537;ESF VILA TEREZA JOSE VERISSIMO DE SOUZA NETO;RUA SEVERINO RAIMUNDO DOS SANTOS;45;VL TEREZA;(18) 3265-4263;19600000.0;SP;Rancharia;2016;5
3391;6493;5085462;-23.657510000000002;-46.5308742576295;USF JARDIM SANTO ANDRE;RUA SETE;1;JDIM SANTO ANDRE;44333058;9015030.0;SP;Santo André;2016;5
3408;6453;2088134;-22.409620285033498;-46.96462154388289;UBS SANTA CLARA MOGI MIRIM;RUA ESTANISLAU KROLL;45;JARDIM BI CENTENARIO;(19)38043901;13807498.0;SP;Mogi Mirim;2016;5
3411;6655;2066254;-20.9469902515405;-48.466980457304494;E S F DR TASSO PARAISO CAVALCANTI DE ALBUQUERQUE;AVENIDA JOSE AUGUSTO DE CARVALHO;S/N;RESIDENCIAL ANTONIA;(17)3342-8016;14711340.0;SP;Bebedouro;2016;5
3412;6664;2022427;-20.93073;-48.49572;E S F DR JOAO CAMBAUVA;RUA ANTONIO PAGANELLI;129;JD AEROPORTO;(17)3343-7714;14708008.0;SP;Bebedouro;2016;5
3414;6577;5438705;-22.9266687258988;-45.4620488462304;UNIDADE DE SAUDE DA FAMILIA JARDIM BELA VISTA PINDAMONHANGA;AV PROF FELIX ADIB MIGUEL;181;BELA VISTA;(12) 36452606;12412700.0;SP;Pindamonhangaba;2016;5
3415;6458;2092735;-21.783732175826398;-50.7944726943955;CS GILBERTO MIRANDA CABRAL DE PARAPUA;RUA NATAL;928;CENTRO;(18)3582 1358;17730000.0;SP;Parapuã;2016;5
3417;6696;2028107;-23.280823230742698;-47.0588850975023;POLICLINICA MILENA CIOLA BONFIM DE CABREUVA;AVN PASCHOAL SANTI;S/N;BONFIM;(11)45297824;13319000.0;SP;Cabreúva;2016;5
3430;6586;2058138;-22.290558594472298;-51.905794305935004;ESF CUIABA PAULISTA;RUA SETE;S/N;CUIABA PAULISTA;(18) 3993 6138;19260000.0;SP;Mirante do Paranapanema;2016;5
3432;6491;6628842;-23.385497835240102;-46.3320365846266;PAM POSTO DE ATENDIMENTO MEDICO BARRETO;RUA ROGERIO DE ANDRADE SANTOS;200;PIRITUBA;4653-2707;7417195.0;SP;Arujá;2016;5
3435;29297;3092747;-21.55837;-51.27088;PSF DO BAIRRO GUARANIUVA E NOVA PACAEMBU;AVENIDA PEDRO BASSAN;2141;GUARANIUVA;(018)38622590;17860000.0;SP;Pacaembu;2016;5
3438;6595;2059029;-23.1031935;-48.9232631943566;ESF I DR CECILIO JORGE NETO AVARE;RUA BENEDITO AILTON CAMILO DE SOUZA;212;BRABANCIA;(14) 37332929;18703590.0;SP;Avaré;2016;5
3439;6662;2746131;-20.715826749801;-47.85919189452989;UBS III WALDEMAR GRANER ORLANDIA;AVENIDA W;783;JD SANTA RITA;(16) 3826-8385;14620000.0;SP;Orlândia;2016;5
3444;6489;3458067;-22.751998901366502;-45.1319861412035;UBS CECAP;RUA PAULO MARCONDES DE ALMEIDA;41;CECAP;(12)31521226;12610200.0;SP;Lorena;2016;5
3450;6787;2716232;-20.033408403396002;-50.726194381712396;CS DE SANTA ALBERTINA;RUA PEDRO PRUDENTE DE MORAIS;850;CENTRO;(17)36331272;15750000.0;SP;Santa Albertina;2016;5
3451;6557;3316920;-22.3647844791406;-48.395762443541095;USF JARDIM ARCO IRIS DOIS CORREGOS;AVENIDA JOSE IRALDI VIOLLI;345;PQ RESID ZANGALETT;(14) 3652-5956;17300000.0;SP;Dois Córregos;2016;5
3452;6511;2054396;-22.785592;-50.2187909877223;PROGRAMA DE SAUDE DA FAMILIA BAIRRO PARANA;RUA LUIS PIVA;83;PARANA;(18)33513902;19970000.0;SP;Palmital;2016;5
3453;6403;2059185;-21.9494926929468;-47.11881637573111;NUCLEO DE ASSISTENCIA INTEGRADO DE VENDA BRANCA CASA BRANCA;RUA FAMILIA LAVOURA;120;DIST DE VENDA BRANCA;(19)36701166;13700000.0;SP;Casa Branca;2016;5
3460;6625;5731968;-20.327990055083603;-48.3079576492296;UNIDADE DE SAUDE DA FAMILIA JOAO BOSCO LELLIS;RUA 02 A;1344;RESIDENCIAL NADIA I;;14790000.0;SP;Guaíra;2016;5
3473;6474;2790327;-21.890280246734;-49.219801425932395;CENTRO DE SAUDE III REGINOPOLIS;AVENIDA PADRE ANCHIETA;441;CENTRO;(14)3589 9100;17190000.0;SP;Reginópolis;2016;5
3483;6667;2092778;-22.4395108222955;-49.9223041534409;CENTRO DE SAUDE DE OCAUCU;AV CELESTE CASAGRANDE;204;CENTRO;1434751205;17540000.0;SP;Ocauçu;2016;5
3485;6855;2059487;-23.466646671294498;-47.503337860106;UNIDADE DE SAUDE DA FAMILIA LOPES DE OLIVEIRA SOROCABA;RUA RIUSAKU KANIZAWA;795;LOPES DE OLIVEIRA;(15)3223-3256;18071286.0;SP;Sorocaba;2016;5
3491;7060;8265;-23.493876457213698;-46.798775196074104;UBS FRANCISCA LIMA DE LIRA;RUA JUSCELINO KUBITSCHEK DE OLIVEIRA;300;PORTAL DOESTE;(11)3656-3227;6263270.0;SP;Osasco;2016;5
3492;7033;2071703;-22.7451646327966;-45.1273298263537;UBS CIDADE INDUSTRIAL;RUA SAO JUDAS TADEU;S/N;CIDADE INDUSTRIAL;(12)31532812;12609370.0;SP;Lorena;2016;5
3506;7121;2090341;-23.0374395847314;-49.1541194915757;ESF DR OSVALDO CAMPOS;AVENIDA SAO PAULO;S/N;JD SAO LUCAS;(14)37143505;18760000.0;SP;Cerqueira César;2016;5
3516;7134;6539459;-20.416217324696397;-50.7659878049467;ESF VIVER BEM;AVENIDA JOSE MANOEL MOLINA;4941;MUTIRAO;17-9624360;15720000.0;SP;Palmeira d'Oeste;2016;5
3528;6971;2787334;-23.512909412383397;-46.462318897246;UBS J DAS CAMELIAS;RUA TREVO DE SANTA MARIA;79;SAO MIGUEL PAULISTA;(11)2051-8788;8050570.0;SP;São Paulo;2016;5
3531;7103;2784599;-20.550330300000002;-48.596297799999995;UNIDADE BASICA DE SAUDE FRANCOLINO GALVAO DE SOUZA;RUA SF 6;1156;S FRANCISCO;(17)33225145;14786025.0;SP;Barretos;2016;5
3532;7144;2066416;-23.6382865905755;-47.7787899970994;PAS BAIRRO RODEIO SARAPUI;BAIRRO RODEIO;S/N;RODEIO;(15)3276-1171;18225000.0;SP;Sarapuí;2016;5
3545;7126;2057158;-22.6113867759698;-46.7032456397997;UNIDADE DE SAUDE DA FAMILIA DO CENTRO;R DR FIRMINO CAVENAGHI;S/N;CENTRO;(19)38922206;13930000.0;SP;Serra Negra;2016;5
3546;6861;5305918;-20.41947;-49.9746720152067;CONSULTORIO MUNICIPAL II DR GUMERCINDO HERNANDES MORALES;RUA LUIS LAMANA;3087;SAO JOAO;(17)34215466;15501194.0;SP;Votuporanga;2016;5
3555;6943;2096137;-23.511;-46.876000000000005;UBS MARIA MAGDALENA MACEDO;RUA VICENTE NUNES RIBEIRO;294;JARDIM SANTA CECILIA;(11) 4199-3126;6465030.0;SP;Barueri;2016;5
3575;7111;2081849;-24.2923271656029;-47.17602252960071;UBS DR TAMINATO TION;RUA GUENSHO OSHIRO;88;CENTRO;(13)34181890;11760000.0;SP;Itariri;2016;5
3577;7015;2789221;-23.530170000000002;-46.502179999999996;UBS VILA RENATO;RUA BERNARDINO FERRAZ;54;VILA RENATO;(11) 2703-0947;3978210.0;SP;São Paulo;2016;5
3585;6948;2789086;-23.633512258529;-46.6123080253588;AMA UBS INTEGRADA V MORAES JOAO PAULO BOTELHO VIEIRA;RUA GIOVANNI DI BALDUCCIO;250;VILA MORAES;(11)50580891;4170000.0;SP;São Paulo;2016;5
3587;7183;2747340;-21.740945577620803;-48.824937343596;UBS DR ALBINO QUARESMA FILHO IBITINGA;RUA PEDRO ZEPONI;90;VILA DOS BANCARIOS;(16)33418109;14940000.0;SP;Ibitinga;2016;5
3589;7068;2022672;-22.90103;-47.08967;CENTRO DE SAUDE JARDIM AURELIA;R LICINIA TEIXEIRA DE SOUZA;331;VILA PROOST DE SOUZA;(19)32137822;13032390.0;SP;Campinas;2016;5
3592;6985;2046059;-21.7249596118921;-51.013383865354996;CENTRO DE SAUDE DE LUCELIA;RUA RICIERI PERNOMIAM;601;CENTRO;(18)3551-9030;17780000.0;SP;Lucélia;2016;5
3595;7009;2030136;-20.35884;-50.69643;UNIDADE BASICA DE SAUDE E S F DE SAO FRANCISCO;RUA SAO PAULO;1374;CENTRO;(17)36931124;15710000.0;SP;São Francisco;2016;5
3608;6920;2792680;-22.742031812667197;-45.5859017372118;POSTO VILA BRITANIA;AVENIDA ESCOCIA;380;VILA BRITANIA;(12)36643143;12460000.0;SP;Campos do Jordão;2016;5
3619;6992;7260431;-21.9978085511446;-49.464054107665994;UNIDADE DE SAUDE DA FAMILIA DORIEL GONCALVES;AVENIDA BRASIL;650;JARDIM AMERICA;14-35723134;16600000.0;SP;Pirajuí;2016;5
3625;7149;3018334;-23.08745;-45.19239;NUCLEO DO PSF DO CENTRO LAGOINHA;RUA PADRE JOAO PAULO;369;CENTRO;(12)36471616;12130000.0;SP;Lagoinha;2016;5
3630;7018;2716186;-20.616509914397604;-49.4658780097947;CS DE MIRASSOLANDIA;RUA EUGENIO PONCHIO;477;CENTRO;(17)32632318;15145000.0;SP;Mirassolândia;2016;5
3632;7107;2076438;-20.271170139312197;-50.2761840820298;UBS CARLOS GANDOLFI IPANEMA FERNANDOPOLIS;RUA AIRTON MARQUES DE SOUZA;269;JARDIM IPANEMA;1734422962;15600000.0;SP;Fernandópolis;2016;5
3633;6849;2034719;-21.0346662998193;-49.9279904365525;CS DE PLANALTO;RUA LUIZ AMERICO DE FREITAS;846;CENTRO;18-36951190;15260000.0;SP;Planalto;2016;5
3637;6859;2070669;-23.499323;-47.457853253204;UNIDADE DE SAUDE DA FAMILIA VITORIA REGIA SOROCABA;RUA FRANCISCO DA SILVA MARTINS;35;VITORIA REGIA;1532261001;18078340.0;SP;Sorocaba;2016;5
3642;7054;3047598;-21.7499391;-48.8245117;PSF SALUSTIANO PINHEIRO IBITINGA;RUA SEBASTIAO FLAVIO PINHEIRO;587;MARIA LUIZA II;(16)33412120;14940000.0;SP;Ibitinga;2016;5
3648;7116;2032708;-21.9145059585565;-48.192944526671;QUALIS USF ASSENTAMENTO BELA VISTA;RUA 3;04;ASSENT BELA VISTA;(16)33117121;14801970.0;SP;Araraquara;2016;5
3674;7136;2030098;-21.3175802204213;-49.053914169311504;CS DE ITAJOBI;RUA RIO BRANCO;62;CENTRO;(17)35469021;15840000.0;SP;Itajobi;2016;5
3700;7104;2698420;-22.217649221419602;-51.6413426399216;ESF ANTONIO MOLINA CORTEZ;RUA 7 DE SETEMBRO;S/N;NOVA PATRIA;;19300000.0;SP;Presidente Bernardes;2016;5
3724;6981;2049279;-24.513316;-48.848659904639796;UNIDADE PSF PINHEIROS APIAI;RUA PERNAMBUCO;85;PINHEIROS;;18320000.0;SP;Apiaí;2016;5
3729;7168;2800764;-22.34272;-47.37409;ESF MADRE CARLA RABOLIN ARARAS;RUA SEBASTIAO DUARTE JUNIOR;25;JARDIM ALVORADA;(19)35513563;13604305.0;SP;Araras;2016;5
3732;7082;2097109;-20.7519721984857;-49.40611839294289;UBSF CIDADANIA;RUA JOAO GAGLIARDO;105;PQ DA CIDADANIA;(17) 32368106;15047234.0;SP;São José do Rio Preto;2016;5
3735;7150;2056062;-20.5430495738977;-48.56283187866071;UNIDADE BASICA ARCHIMEDES MACHADO DE BARRETOS;RUA JOAQUIM INACIO PIMENTA;1010;PIMENTA;(17)33245133;14781364.0;SP;Barretos;2016;5
3741;7005;2047721;-21.6872262954706;-49.741501808165104;UBS DR ADALBERTO ARIANO CRESPO;RUA JOAO BATISTA ARRUDA;650;JUNQUEIRA;(014) 3523-8385;16403140.0;SP;Lins;2016;5
3767;7140;2698412;-22.008990778755802;-51.557570191824;ESF FRANCISCO ARAUJO SANTOS;LARGO DA MATRIZ;S/N;ARAXANS;(18)26214444;19300000.0;SP;Presidente Bernardes;2016;5
3768;7028;2053411;-24.110645055770195;-49.31631803512429;UNIDADE PSF VILA TONICO ADOLFO ITARARE SP;RUA SAO PEDRO;3151;TONICO ADOLFO;(15)35324492;18460000.0;SP;Itararé;2016;5
3775;7040;6016081;-23.414075374602604;-46.039195060728595;CENTRO DE ESPECIALIDADES DE SAUDE E APOIO A POPULACAO;RUA SAO VICENTE DE PAULA;110;CENTRO;1146938571;8900000.0;SP;Guararema;2016;5
3792;6960;5654637;-21.418383015;-50.0730362750292;UBS SILVIA COVAS;RUA DAS ORQUIDEAS;410;CONJUNTO HABITACIONA;(18) 3652-6154;16309432.0;SP;Penápolis;2016;5
3793;6996;2062372;-21.2004188127347;-49.290729849446706;ESF DE URUPES;NILO PECANHA;320;BOA VISTA;(17)35522344;15850000.0;SP;Urupês;2016;5
3797;7229;6395139;-20.636668999377;-51.1066610199469;UBS ANTONIO DOMICIANO BARBOZA;RUA CYRO MAIA;S/N;LAPINHA;18-3704-1668;15370000.0;SP;Pereira Barreto;2016;5
3804;7548;2096668;-23.6746788024895;-46.3458251953112;UNIDADE DE SAUDE DA FAMILIA OURO FINO PAULISTA;RODOVIA INDIO TIBIRICA;2745;OURO FINO PAULISTA;(11)48270476;9442700.0;SP;Ribeirão Pires;2016;5
3812;7295;2067293;-23.5917770862572;-48.05306196212629;UBS DR GENEFREDO MONTEIRO;PRC 9 DE JULHO;518;CENTRO;(15)32725115;18200015.0;SP;Itapetininga;2016;5
3819;7600;3956296;-22.9073425;-47.060156272973096;CENTRO DE SAUDE SANTO ANTONIO;AV PASTOR JOAO PRATA VIEIRA;S/N;PARQUE VISTA ALEGRE;19-32663134;13054370.0;SP;Campinas;2016;5
3823;7279;2063549;-22.571343010476603;-47.164301150267704;USF BLUMENAU ARTUR NOGUEIRA;RUA SAO PAULO;400;BLUMENAU;38271220;13160000.0;SP;Artur Nogueira;2016;5
3827;7557;2025442;-21.128876209258397;-48.2776594161973;ESTRATEGIA DE SAUDE DA FAMILIA JOSE FRANCISCO NUNO;R ANGELO ULIAN FILHO;230;LUZITANIA;;14898035.0;SP;Jaboticabal;2016;5
3839;7203;2043971;-23.9307332038872;-46.344258785246495;UNIDADE DE SAUDE DA FAMILIA DO VALONGO;RUA PROFESSORA MARIA NEUSA CUNHA;S/N;VALONGO;(13)32193110;11085010.0;SP;Santos;2016;5
3845;7480;7312903;-24.517764184583395;-48.8434982299805;ESF BAIRRO PALMITAL;ESTRADA APIAI IPORANGA;709;PALMITAL;;18320000.0;SP;Apiaí;2016;5
3851;7547;2790157;-22.076050043105397;-48.7360811233506;CENTRO DE SAUDE II DE BARIRI;AVN DR ANTONIO GALIZIA;107;CENTRO;(14)36621948;17250000.0;SP;Bariri;2016;5
3861;7242;3706370;-23.2328975200646;-46.841390132902696;UNIDADE BASICA DE SAUDE JARDIM BERTIOGA;RUA DAS ACACIAS MIMOSAS;495;JARDIM BERTIOGA;(11)45955462;13225280.0;SP;Várzea Paulista;2016;5
3870;7578;3190188;-22.95808;-47.191140000000004;CENTRO DE SAUDE PARQUE ITAJAI;RUA PAULO GLIWKOFF;160;PARQUE ITAJAI II;(19)32211400;13058023.0;SP;Campinas;2016;5
3876;7590;2087553;-23.5595262050622;-47.4546718597398;UNIDADE BASICA DE SAUDE JARDIM SERRANO;RUA FRANCISCO LOPES DE ALMEIDA;76;JARDIM SERRANO;(15) 3242-1390;18115550.0;SP;Votorantim;2016;5
3885;7448;7284195;-23.008824365333098;-46.85116113567351;PSF 19 IPE JOSE MATTIUZZO;RUA DR LUIZ JULIANI VIDAL;10;JD IPE;(11) 4538-0556;13256530.0;SP;Itatiba;2016;5
3908;7598;2751267;-22.27391;-51.50309;UNIDADE BASICA DE SAUDE II DR PLINIO ARANTES BARRETO;RUA OSCAR TOLEDO CESAR;336;CENTRO;(18) 3269-1080;19200000.0;SP;Pirapozinho;2016;5
3909;7311;2035464;-21.2923922882494;-50.339328516986896;UBS 03 DR ODILON DA SILVA NUNES ISABEL MARIN BIRIGUI;RUA JOSE PARPINELLI;1191;VILA ISABEL MARIN;(18)36446955;16204026.0;SP;Birigui;2016;5
3912;7539;2092433;-23.039;-49.708999999999996;PAS DE IRAPE CHAVANTES;RUA DO COMERCIO;286;IRAPE;14 3342-2436;18970000.0;SP;Chavantes;2016;5
3921;7489;2077256;-23.446294069289497;-48.8852334022508;UNIDADE BASICA DE SAUDE ONOFRE LEME DE ALMEIDA;AV DAS POSSES;01;HOLAMBRA II;(14)37671465;18725000.0;SP;Paranapanema;2016;5
3924;7312;2054043;-23.434309959410896;-47.5083589553819;UNIDADE DE SAUDE DA FAMILIA PARQUE SAO BENTO SOROCABA;RUA BENEDITO DE OLIVEIRA LOUZADA;196;PRQ SAO BENTO;(15)32232359;18072060.0;SP;Sorocaba;2016;5
3927;7520;6082467;-23.6473125;-46.8508599936736;UBS JARDIM NOSSA SENHORA DE FATIMA;RUA SAO LOURENCO;246;JD NAYARA;4244-4927/4778-3296;6816600.0;SP;Embu das Artes;2016;5
3941;7458;2688077;-22.9412770271295;-46.552913188933;ESF PEDRO MEGALE;RUA SENADOR ROBERTO SIMONSEN;71;PARQUE BRASIL;(11) 4034-5033;12906330.0;SP;Bragança Paulista;2016;5
3942;7469;2066890;-23.5028669;-47.5189325;UNIDADE DE SAUDE DA FAMILIA VILA SABIA SOROCABA;RUA DIONISIO BUENO SAMPAIO;91;VILA SABIA;(15)2330974;18022160.0;SP;Sorocaba;2016;5
3955;7529;2052296;-23.4343743324273;-46.51504039764271;UBS CIDADE MARTINS;RUA JAU;190;JD BELA VISTA;1124021767;7132460.0;SP;Guarulhos;2016;5
3962;7459;2034522;-21.344257593154303;-49.4975280761704;CS DE SALES;TRAVESSA DUQUE DE CAXIAS;34;CENTRO;(17)35571281;14980000.0;SP;Sales;2016;5
3976;7382;2085666;-23.107960224150897;-47.181901931761296;UBS V ITAICI;RUA JOAQUIM PEDROSO DE ALVARENGA;11;ITAICI;(19)38947600;13340550.0;SP;Indaiatuba;2016;5
3979;7468;2087251;-23.2350540161126;-46.7658376693712;USF BOTUJURU;RUA CASA BRANCA;S/N;VILA CONSTANCA BOTUJ;11 4812-4775;13238450.0;SP;Campo Limpo Paulista;2016;5
3994;7428;2061457;-22.7469255;-50.388393171768506;ESF NOVA ALEXANDRIA;RUA MAL DEODORO;480;NOVA ALEXANDRIA;;19880000.0;SP;Cândido Mota;2016;5
3995;7260;3460983;-22.21070949;-49.656529935058;USF DR JOSE MARTINHO PALERMO;RUA MINAS GERAIS;850;VL REBELO;(14)34062639;17400000.0;SP;Garça;2016;5
4006;7478;2750805;-22.660999999999998;-51.076;ESTRATEGIA SAUDE DA FAMILIA EDMUNDO DE OLIVEIRA;RUA MINAS GERAIS;1221;CENTRO;(18)32641112;19640000.0;SP;Iepê;2016;5
4014;7591;2791528;-22.449059486388503;-48.778889179228294;UNIDADE BASICA DE SAUDE SILVIA ADRIANA REGINATO PEREIRA;RUA PEDRO DIAS BARBOSA;S/N;DISTRITO VANGLORIA;(14)2523788;17280000.0;SP;Pederneiras;2016;5
4021;7586;2065126;-23.7392234802239;-46.49613618850571;USF PARQUE MIAMI US PQUE MIAMI;ESTRADA DO PEDROSO;5151;PRQ MIAMI;(11)44537548;9133000.0;SP;Santo André;2016;5
4041;8737;2042592;-22.7243614196771;-47.3174715042101;PM 09 CARIOBINHA;RUA SAO SIMAO;522;CARIOBINHA;(19)34684445;13472360.0;SP;Americana;2016;5
4065;7729;2030497;-20.685077905654303;-50.5550694465623;UBS DE AURIFLAMA;RUA ALFREDO DAINEZI;5951;CENTRO;(17)34829860;15350000.0;SP;Auriflama;2016;5
4074;7663;2050625;-22.806812524794896;-47.1962141990648;USF MARIA ANTONIA;RUA OSVALDO VACARI;685;JAD MARIA ANTONIA;(19)38642576;13178000.0;SP;Sumaré;2016;5
4076;7994;2047772;-24.571553499285802;-49.1721656552808;UNIDADE BASICA DE SAUDE DA FAMILIA ITAPIRAPUA PAULISTA;RUA JANUARIO DE ALMEIDA;51;CENTRO;(15)5481310;18385000.0;SP;Itapirapuã Paulista;2016;5
4082;7832;2038285;-20.901463515;-51.3788477947637;CAMO BENFICA DR EDUARDO F Q CHAR ANDRADINA;RUA MONSENHOR VITOR ASSUITE;2004;COHAB ANTONIO SILVIO;(18)37226801;16900467.0;SP;Andradina;2016;5
4092;7609;3166031;-20.9381777;-48.4700343;E S F DR GEROLINO JOSE DE SOUZA;RUA JOSE BERGANTINI;247;JARDIM LARANJEIRAS;(17)3343-9434;14711010.0;SP;Bebedouro;2016;5
4140;7939;2704897;-23.2242500782006;-46.8811941146837;UNIDADE BASICA DE SAUDE MARINGA PACS;RUA CASIMIRO DE ABREU;57;VL ALATI;(11)45876153;13210070.0;SP;Jundiaí;2016;5
4147;29294;2067617;-23.5352495;-46.8414454319096;UBS COHAB V;AV TANCREDO NEVES;860;COHAB V;(11)41886586;6329350.0;SP;Carapicuíba;2016;5
4158;7801;2038684;-22.9966301538803;-49.8785128674507;CS III VILA ODILON;RUA LIBERDADE;387;VIL ODILON;14 33026100;19905150.0;SP;Ourinhos;2016;5
4167;7852;2038129;-20.5343484878534;-49.319064617155504;CS DE NOVA GRANADA;RUA JACINTO RUIZ GARCIA;513;CENTRO;(17)32625520;15440000.0;SP;Nova Granada;2016;5
4188;7960;5525020;-22.008990778755802;-51.557570191824;ESF MARIA FRANCISCA BARRETO;RUA ALLAN SOARES;S/N;VILA SAO VICENTE;;19300000.0;SP;Presidente Bernardes;2016;5
4201;7606;7273738;-24.289;-47.174;UBS PREFEITO JOAO ROCHA;RUA PROFESSORA LAVINIA CLEOMAR SOARES;S/N;CENTRO;;11760000.0;SP;Itariri;2016;5
4207;7930;5024749;-22.340022325515104;-47.1716237068163;PSF NOVO HORIZONTE NESTOR MARTINS DE CAMARGO CONCHAL SP;RUA BENEDITO NOVO;1150;JD SANTO ANTONIO;019 3866 2311;13835000.0;SP;Conchal;2016;5
4209;7631;2765756;-23.76287;-45.75697;USF BARRA DO UNA;RUA OLINDA;75;BARRA DO UNA;(12)38671331;11624352.0;SP;São Sebastião;2016;5
4221;7820;2773694;-23.551383018493;-46.3881397247301;UBS SANTO ANTONIO;RUA GUARANI;581;VIL STO ANTONIO;(11)46767696;8530000.0;SP;Ferraz de Vasconcelos;2016;5
4227;7603;2044501;-23.674936294555;-46.4328360557543;UBS SONIA MARIA;RUA CARMEM MIRANDA;545;JARDIM SONIA MARIA;(11)4549-1500;9380310.0;SP;Mauá;2016;5
4229;7981;2765888;-23.776870965957;-45.6125521659838;CENTRO DE SAUDE DE BOICUCANGA DR ARNO SENS;RUA TROPICANGA;22;BOICUCANGA;(12)38652458;11618369.0;SP;São Sebastião;2016;5
4238;7618;2076977;-23.788652499999998;-45.3540566669409;UBS COSTA SUL I ILHABELA;AV RIACHUELO;6311;PRAIA GRANDE;(12)38949364;11630000.0;SP;Ilhabela;2016;5
4239;7859;2074052;-21.7842686176294;-48.1345367431627;USF PRQ RES SAO PAULO DR GUSTAVO DE MORAES JR;AV ALBERT EINSTEIN;831;PRQ ERS SAO PAULO;(16)33376767;14811490.0;SP;Araraquara;2016;5
4245;7871;7705263;-23.8995120542098;-46.424357593059504;CENTRO DE SAUDE COMUNITARIO VILA NOVA JUVENCIO P DE SOUZA;RUA SAO JOAO;185;VILA NOVA;13-618951 R-156;11520160.0;SP;Cubatão;2016;5
4275;7809;2064804;-21.7903595;-48.17443993754371;USF PARQUE DAS LARANJEIRAS DR WILSON ANTUNES PEREIRA;AV ROMULO LUPO;750;JARDIM UNIVERSAL;16 33359893;14801700.0;SP;Araraquara;2016;5
4295;7795;2749491;-24.282574653624803;-47.4559164047227;UNIDADE BASICA DE SAUDE II MIRACATU;RUA KAEY NAKAMURA;240;CENTRO;(13)38473778;11850000.0;SP;Miracatu;2016;5
4306;7643;2086484;-23.322730064391397;-45.9680414199816;UMSF JARDIM DO VALE;RUA LAFAYETE BENEDITO PRIANT;1360;JARDIM DO VALE;(12)3953 4140;12319440.0;SP;Jacareí;2016;5
4310;7612;2042347;-24.584460178276895;-48.5896007140876;UNIDADE SAUDE DA FAMILIA BAIRRO SERRA IPORANGA;BAIRRO SERRA ZONA RURAL;S/N;SERRA DO IPORANGA;(15)35560216;18330000.0;SP;Iporanga;2016;5
4317;7677;2061805;-20.28238299;-50.2487484305834;UBS JOAO GARCIA PELAYO BRASITANIA FERNANDOPOLIS;RUA DAS AMERICAS;765;DISTRITO BRASITANIA;1734891147;15600000.0;SP;Fernandópolis;2016;5
4319;8139;2040093;-23.468506;-46.53108408566111;UBS JARDIM JACY;RUA SAO GERALDO DA PIEDADE;45;JD JACY;1124983142;7262140.0;SP;Guarulhos;2016;5
4355;8074;2745526;-20.0403392314905;-47.764413356779606;ESF VALDA MARIA DOS SANTOS SOUZA;RUA MARIA JOSE PRADO SOARES 175;S/N;MEIBAL TERRA;(16)37722927;14540000.0;SP;Igarapava;2016;5
4360;8348;7159447;-22.0664712249013;-50.3107550740242;USF III DE QUINTANA;AVENIDA SANTO ANTONIO;S/N;SALAO BRANCO;14-34881161;17670000.0;SP;Quintana;2016;5
4365;8369;2044471;-22.786674499511104;-45.166254043577794;UBS ENGENHEIRO NEIVA;AVN BASF;862;ENGENHEIRO NEIVA;(12)31326403;12521130.0;SP;Guaratinguetá;2016;5
4368;8143;3217213;-20.6251121361351;-49.6488201993718;ESF DR JOAO BATISTA DE TOLEDO LEME;RUA ANTONIO RODRIGUES DOS SANTOS;50;NOVA TANABI;(17)3272-3555;15170000.0;SP;Tanabi;2016;5
4379;8378;2071436;-22.7465915679925;-47.380471229551794;UNIDADE BASICA DE SAUDE ESMERALDA;RUA RIBEIRAO PRETO;110;JD ESMERALDA;(19)34575072;13454027.0;SP;Santa Bárbara d'Oeste;2016;5
4380;8272;3910482;-20.4409;-48.01307;ESF DALMACIO ANTUNES;AVENIDA DONA TEREZA;1629;CENTRO;16-3832-0146;14610000.0;SP;Ipuã;2016;5
4399;8288;2036088;-20.452047586440397;-49.891877174376;CONSULTORIO MUNICIPAL VII JOAQUIM BELARMINO VIEIRA;RUA APARECIDA DOESTE;1541;DISTRITO DE SIM0NSEN;(17)34214955;15515005.0;SP;Votuporanga;2016;5
4412;8194;3339734;-23.777225017546897;-46.803624629973;UNIDADE SAUDE DA FAMILIA DO JD PROGRESSO EMBU GUACU;RODOVIA JOSE SIMOES LOURO;3350;JD PROGRESSO;4661-7715;6900000.0;SP;Embu-Guaçu;2016;5
4443;8165;2044102;-23.5736346244805;-48.0241155624376;UBS DR TUYOSHI HONMA JARDIM MESQUITA;RUA ESAU ISAAC;350;JAD MESQUITA;(15)32734674;18213560.0;SP;Itapetininga;2016;5
4467;8226;2096269;-23.360971384727996;-46.8829201465695;P S F DRA MARIA DE LOURDES MENDONCA BRAVO;AV ARUJA;200;JORDANESIA;(11)44475984;7787530.0;SP;Cajamar;2016;5
4472;8234;2033259;-22.757846117019;-48.5743546485887;UBS COHAB I;AVN SAO PAULO;68;COHAB I;(14)38414702;18650000.0;SP;São Manuel;2016;5
4482;8257;8508;-23.627504110335604;-46.5219712257372;US DR MOYSES FUCS USF DR MOYSES FUCS;RUA ALEXANDRETA;180;JD SANTO ANTONIO;(11)49963406;9240200.0;SP;Santo André;2016;5
4499;8203;2087294;-24.307175874709397;-46.9954133033739;UBS JARDIM RIBAMAR;AVPROF TEREZINHA RODRIGUES KALIL;S/N;JARDIM RIBAMAR;(13)34531010;11750000.0;SP;Peruíbe;2016;5
4501;8380;2688077;-22.9412770271295;-46.552913188933;ESF PEDRO MEGALE;RUA SENADOR ROBERTO SIMONSEN;71;PARQUE BRASIL;(11) 4034-5033;12906330.0;SP;Bragança Paulista;2016;5
4504;8294;5459095;-23.752956390380202;-47.2078442573534;POSTO DE SAUDE PIAI;RODOVIA TANCREDO NEVES;S/N;PIAI;15 3294 7116;18150000.0;SP;Ibiúna;2016;5
4529;8231;2076004;-20.6251121361351;-49.6488201993718;ESF DR FRANCISCO ASSIS SANTANA;RUA POLENICE CELERI;264;CENTRO;(17)3272-1363;15170000.0;SP;Tanabi;2016;5
4533;8284;6012957;-23.6473125;-46.8508599936736;UBS JARDIM INDEPENDENCIA;ESTRADA CONSTANTINOPLA;1200;JD INDEPENDENCIA;4244-8560 / 4244-869;6826065.0;SP;Embu das Artes;2016;5
4540;8129;3025489;-22.4254667758935;-49.3982863426194;USF 3 SEBASTIAO FRANCHIN DUARTINA;RUA HONORIO SIMAO;482;NH JOSE SEBASTIAO PU;(14)3282-5115;17470000.0;SP;Duartina;2016;5
4563;8342;2027550;-21.2163154519384;-47.5918319821358;UBS DARIO JOSE RODRIGUES;RUA LINDOLFO MARQUES;40;JARDIM DOM PEDRO I;(16)36871593;14150000.0;SP;Serrana;2016;5
4568;8304;6449786;-22.705596685408896;-47.3697853088365;E S F 24 MARIO COVAS;RUA DA ALIANCA;648;MARIO COVAS;19-3407-2150;13470492.0;SP;Americana;2016;5
4572;8327;2034085;-22.5887703895562;-46.520662307737894;UBS ESF JD ARAUJO TEIXEIRA DE SOCORRO;RUA OTAVIO ZUCATO;597;JD ARAUJO;(19)38951313;13960000.0;SP;Socorro;2016;5
4595;8259;2054663;-23.6841845512383;-46.463112831114394;UBS VILA ASSIS BRASIL;AVENIDA ASSIS BRASIL;625;VILA ASSIS BRASIL;(11)4546-2678;9370730.0;SP;Mauá;2016;5
4609;8120;2077825;-23.6491322249999;-47.5746801202081;PSF MARIA JOSE;RUA LUIZ OTAVIO DE OLIVEIRA;425;JD MARIA JOSE;(15)32921329;18160000.0;SP;Salto de Pirapora;2016;5
4615;8066;2745984;-20.0591146945948;-47.7389216423021;ESF EVARISTO RODRIGUES NUNES;RUA MANOEL PIGNATTI;339;EVARISTO R NUNES;(16)31721333;14540000.0;SP;Igarapava;2016;5
4618;8389;2701367;-23.222876787185;-46.8857645988451;UNIDADE BASICA DE SAUDE COMERCIAL;RUA APOLO DE ALMEIDA;150;VL NOVA JUNDIAI;(11)45261367;13210655.0;SP;Jundiaí;2016;5
4643;8780;6298400;-21.708420791919604;-46.82412762579129;ESF SUL SSGRAMA;PC JOSE ROBERTO M TEIXEIRA;47;CENTRO;;13790000.0;SP;São Sebastião da Grama;2016;5
4664;8735;2034492;-20.8870160579675;-49.898936748503196;CS DE UNIAO PAULISTA;RUA 21 DE MARCO;279;CENTRO;(17)32781140;15250000.0;SP;União Paulista;2016;5
4669;8510;2061864;-23.9008104801171;-47.517199516295;UNIDADE BASICA DE SAUDE VEREADOR JORGE ANTONIO VIEIRA;RUA JOSE DE MOURA GLASSER;74;DISTRITO DO RIO TURV;(15) 3277-5430;18180000.0;SP;Tapiraí;2016;5
4677;8694;2042991;-23.6520302295678;-46.638271808622896;AMA UBS INTEGRADA DR GERALDO DA SILVA FERREIRA;AV ENG ARMANDO DE ARRUDA PERREIRA;2944;VILA DO ENCONTRO;(11) 55882366;4308001.0;SP;São Paulo;2016;5
4691;8509;2045133;-22.39;-51.285;ESF II IRENE MARIA DA SILVA;AV MARCOS PICOLO;S/N;JARDIM BELA VISTA;(18)39971171;19590000.0;SP;Taciba;2016;5
4701;8745;2716429;-20.2681875228876;-50.2449631690965;UBS HEITOR MALDONADO ARAGUAIA FERNANDOPOLIS;AVENIDAS DAS PATATIVAS;381;JARDIM ARAGUAIA;1734423936;15600000.0;SP;Fernandópolis;2016;5
4705;8746;2065576;-23.2042349;-47.9715781;UBS IV LAZARO MENDES DE CASTANHO CESARIO LANGE;RUA FRANCISCO RIBEIRO DA SILVA;225;CENTRO;(15)3246-8040;18285000.0;SP;Cesário Lange;2016;5
4716;8670;2792192;-23.5222220420831;-46.92252159118521;UBS ALVORADA;RUA BENEDITO DOMINGOS;35;JD ALVORADA;(11) 4789.7280;6612070.0;SP;Jandira;2016;5
4733;8759;2075938;-23.6693345;-46.4582620121646;UBS JARDIM PARANAVAI;RUA ROLANDIA;252;JARDIM PARANAVAI;(11)4544-4831;9390530.0;SP;Mauá;2016;5
4747;8709;2038692;-23.1929218769067;-49.3871927261338;ESF SAO JOSE GONCALO GARCIA PIRAJU;R NENE FREITAS;65;CENTRO;14-33517663;18800000.0;SP;Piraju;2016;5
4755;8778;2089769;-22.8147712;-50.792035;UBS DR PRIMO RUY;RUA SAO PAULO;141;CENTRO;(18)33751365;19865000.0;SP;Pedrinhas Paulista;2016;5
4762;8784;2705141;-23.112970590590802;-46.8757438659654;UNIDADE DE SAUDE DA FAMILIA RIO ACIMA;AVN GERALDO AZZONI;11;RIO ACIMA;(11) 4535-1132;13215840.0;SP;Jundiaí;2016;5
4767;8718;2056275;-24.116331338881697;-49.3430113792405;UNIDADE PSF BAIRRO VELHO ITARARE SP;RUA DR PEDRO ALENCAR;400;VELHO;(15)35311309;18460000.0;SP;Itararé;2016;5
4773;8699;2038854;-21.6170167922967;-51.16847991943211;CENTRO DE SAUDE DE FLORIDA PAULISTA;AVN JOSE FROIO;482;CENTRO;(18)35811266 -1609;17830000.0;SP;Flórida Paulista;2016;5
4783;8669;2715988;-24.0031957626336;-46.419103145598;USAFA BOQUEIRAO;AV PRES KENNEDY;918;BOQUEIRAO;(13) 3496-5201;11702200.0;SP;Praia Grande;2016;5
4784;8667;5292166;-23.1686725;-47.7375313251079;UBS DA FAMILIA DINAPOLI CERQUILHO;RUA OSVALDO MALAVAZI;120;DINAPOLI;(15)3284-2171;18520000.0;SP;Cerquilho;2016;5
4807;8704;2069822;-23.4379041194909;-46.428780555723705;UBS PARQUE ALVORADA;AVENIDA SANTA HELENA;145;VILA PARAISO;(11)24981510;7241270.0;SP;Guarulhos;2016;5
4809;8592;2042223;-24.494251427999895;-47.841054751674996;UBS REGISTRO B REGISTRO;RUA VIVALDO PEREIRA;10;EIJI MATSUMURA;(13)38218140;11900000.0;SP;Registro;2016;5
4815;8418;2035545;-23.668000000000003;-46.461000000000006;UBS DO FEITAL;RUA ALUIZIO DE AZEVEDO;72;SITIO FEITAL;(11)4577-5696;9330771.0;SP;Mauá;2016;5
4827;8459;4047435;-23.5710333874999;-46.04121222481461;ESF CRUZ DAS ALMAS;RUA EUCLIDES DA CUNHA;15;CRUZ DAS ALMAS;(11)46923720;8940000.0;SP;Biritiba-Mirim;2016;5
4863;8454;2028417;-22.31682;-50.28073;CS DE OSCAR BRESSANE PSF;RUA VITORIO GIROTO;403;CENTRO;(14) 34571138;19770000.0;SP;Oscar Bressane;2016;5
4869;8451;2045095;-22.4042831999048;-51.524239850810204;UNIDADE DE SAUDE DA FAMILIA LARANJEIRA;ESTRADA PORTO ANIS ABUD;S/N;FAZENDA LARANJEIRA;;19220000.0;SP;Narandiba;2016;5
4890;8687;3195201;-24.486929999999997;-47.85147;USF VILA SAO FRANCISCO REGISTRO;RUA JERONIMO MONTEIRO LOPES;658;VILA SAO FRANCISCO;(13)3821-2716;11900000.0;SP;Registro;2016;5
4923;8898;2054264;-21.0504376888269;-49.0584611892686;UNIDADE BASICA DE SAUDE HELIO REIS RAMIRES;AVN HOMERO ARAUJO;196;CENTRO;(17)35641075;15870000.0;SP;Catiguá;2016;5
4930;9053;7275021;-23.8309050173605;-45.373460054397604;UBS ALTO DA BARRA VELHA ILHABELA;RUA DA CACHOEIRA;89;BARRA VELHA;12-3895.8725;11630000.0;SP;Ilhabela;2016;5
4933;8822;2051982;-23.230751752852697;-47.52462387084821;UBS DR JOSE SACRAMENTO E SILVA PORTO FELIZ;RUA ANGELO DIANA;180;BAMBU;(15)2621005;18540000.0;SP;Porto Feliz;2016;5
4965;9044;7383681;-22.664341023201104;-46.9751304388046;UBS 8 DR JOSE EMYGDIO PIRES GUEDES;ESTRADA MUNICIPAL ILDA DAVI DAL BO JGR;316;GUEDES;19 38471096;13914676.0;SP;Jaguariúna;2016;5
4989;8874;2060531;-23.5525739192956;-47.8983092308031;UBS ALAMBARI;RUA PRF JOSE WLADIMIR N DE OLIVEIRA;150;CENTRO;(15)2741160;18220000.0;SP;Alambari;2016;5
5003;8903;2061872;-23.562154769896804;-47.2025656700121;I POSTO MUNICIPAL DE SAUDE TRES LAGOINHAS MAIRINQUE;AVENIDA BRASIL JAPAO;1639;TRES LAGOINHAS;(11)47180417;18120000.0;SP;Mairinque;2016;5
5005;8844;2046482;-22.9766285419457;-49.87973213195661;UBS VILA MARGARIDA;RUA ABUASSALI ABUJAMRA;410;VILA MARGARIDA;14 33026100;19907170.0;SP;Ourinhos;2016;5
5006;8963;3240290;-23.9800214767449;-46.4523410797106;UNIDADE DE SAUDE DA MULHER DAVID CAPISTRANO SAO VICENTE;R SALVADOR;60;JD IRMA DOLORES;(13)35765828;11310000.0;SP;São Vicente;2016;5
5009;9147;7794444;-23.2883833;-47.056921100000004;USF DO VILAREJO IRMAOS BRUNO E PHELIPE ZACCHI SPINA;AVENIDA ADELIA BARBOSA DE OLIVEIRA;S/N;BONFIM;;13319000.0;SP;Cabreúva;2016;5
5013;9117;3342174;-23.53271;-46.208940000000005;USF JARDIM AEROPORTO 3;RUA SALGADO FILHO;336;JARDIM AEROPORTO III;(11)47271006;8761260.0;SP;Mogi das Cruzes;2016;5
5022;8929;9059;-23.169382810591998;-45.8424711227404;UBS VILA TESOURO;PRACA ASSIS CHATEAUBRIAND;110;VILA TESOURO;(12)39297821;12221450.0;SP;São José dos Campos;2016;5
5053;8936;2773775;-23.529002666472696;-46.3716602325426;UBS VILA SANTA MARGARIDA;RUA JASMIM;31;VILA SANTA MARGARIDA;(11)46784073;8530000.0;SP;Ferraz de Vasconcelos;2016;5
5060;8989;6017770;-21.3102876656623;-47.563249920264;DR LUIZ ANTONIO ARAUJO DIAS;RUA BOAVENTURA VILLELA DOS REIS;99;COHAB SEBASTIAO ZERB;16-3982-1692;14230000.0;SP;Serra Azul;2016;5
5063;8891;2751763;-20.742539999999998;-48.91294;ESF DR CUSTODIO RIBEIRO DE CARVALHO;PRACA MIGUEL HIRANO;226;CENTRO;(17)3284 1167;15408000.0;SP;Olímpia;2016;5
5069;8896;2750961;-21.98102;-51.649029999999996;ESF SAUDE E PAZ;RUA OLAVO BILAC;S/N;VILA MORENO;(18) 3263-1519;19360000.0;SP;Santo Anastácio;2016;5
5074;9102;7072120;-20.3278869388739;-47.7508735656738;PSF CENTRAL DIRCE CARDOSO FERREIRA TELLES;RUA BRASILIA;19;CENTRO VILA SAO JORG;;14500000.0;SP;Ituverava;2016;5
5093;8833;2792591;-23.090139627456;-45.1918959617602;CENTRO DE SAUDE III DE LAGOINHA;RUA ANTONIO SILVA CUNHA BUENO;25;CENTRO;12 36471238;12130000.0;SP;Lagoinha;2016;5
5122;8987;2046660;-22.002493143081;-47.9015278816209;UBS SANTA PAULA PS DR ARSENIO AGNESINE;RUA DOUTOR LUIZ SAIA;44;SANTA PAULA;16-33713089;13564010.0;SP;São Carlos;2016;5
5128;8870;2033119;-23.5320603847497;-45.8463978767382;CS II DE SALESOPOLIS;PRC PADRE JOAO MENENDES;01;CENTRO;(11)46961861;8970000.0;SP;Salesópolis;2016;5
5130;8970;5519705;-21.315707058707897;-49.054311079798495;ESF JARDIM DA TORRE ITAJOBI;RUA AURELIO ALVARENGA;189;JARDIM DA TORRE;17-35462267;15840000.0;SP;Itajobi;2016;5
5151;8838;2051516;-22.4158430099481;-49.8168826103196;CENTRO DE SAUDE DE LUPERCIO;PRC ANTONIO DAUN;67;CENTRO;(14)34741135;17420000.0;SP;Lupércio;2016;5
5159;8872;2086409;-23.3052206039422;-46.493475437163;UNIDADE DE SAUDE DA FAMILIA PIRUCAIA;ESTRADA DO PIRUCAIA;S/N;PIRUCAIA;;7600000.0;SP;Mairiporã;2016;5
5163;8861;2040913;-21.3373804092401;-47.7322268486009;CENTRO DE SAUDE II DE CRAVINHOS;AV RITA CANDIDA NOGUEIRA;110;CENTRO;(16)6511151;14140000.0;SP;Cravinhos;2016;5
5165;8919;2035855;-23.36982;-48.18305;PR S DA FAMILIA UNIDADE DE SAUDE ADALBERTO ROCHA GUAREI;RUA SIQUEIRA CAMPOS;322;CENTRO;(15)2581120;18250000.0;SP;Guareí;2016;5
5182;9281;3272826;-23.61897;-46.797990000000006;UBS JARDIM SALETE;RUA CONSTANTINO DIAS LOPES;181;JD SALETE;( );6787420.0;SP;Taboão da Serra;2016;5
5183;9397;2035871;-20.4989433288568;-47.415039539335794;UBS LEPORACE;RUA NORBERTO BASSALO;820;VICENTE LEPORACE;(16)37048588;14407342.0;SP;Franca;2016;5
5186;9232;2087162;-22.327906370872398;-46.95064723491671;UBS IPE PINHEIRO;AVENIDA DOS FLAMBOYANTS;7241;JARDIM YPE PINHEIROS;38612201;13846230.0;SP;Mogi Guaçu;2016;5
5187;9262;2791943;-22.099460363387397;-49.437789916990795;UBS II DE PRESIDENTE ALVES;RUA RUI BARBOSA;45;CENTRO;(14)35871459;16670000.0;SP;Presidente Alves;2016;5
5193;9287;5626552;-22.820266485213597;-45.1928186416613;UBS OSWALDO CRUZ;RUA MARCILIO DIAS;S/N;CENTRO;12 31326802;12501110.0;SP;Guaratinguetá;2016;5
5212;9487;8990;-23.1586647033685;-45.898582935331895;UBS SANTANA;AVENIDA RUI BARBOSA;2455;SANTANA;12 39236586;12212160.0;SP;São José dos Campos;2016;5
5222;9268;2084686;-22.3161292076104;-49.0305876731858;UNIDADE BASICA DE SAUDE JARDIM REDENTOR;RUA SAO LUCAS;330;JARDIM REDENTOR;(14)3203-0539;17032251.0;SP;Bauru;2016;5
5228;9345;2054620;-23.6440157890313;-46.79124355316029;UBS JARDIM SILVIO SAMPAIO;RUA ENAURA MARIA DA CONCEICAO;275;JARDIM SILVIO SAMPAI;(011) 4138-6027;6773290.0;SP;Taboão da Serra;2016;5
5237;9344;2701316;-23.182708024977998;-46.920225620268404;UNIDADE BASICA DE SAUDE RETIRO;RUA MARIA LUCIA DE ALMEIDA;100;VL NOVA ESPERIA;(11) 4582-1326;13211000.0;SP;Jundiaí;2016;5
5248;9312;2096749;-20.808180570601802;-49.375691413878;UBS CENTRAL;AV PHILADELPHO MANOEL GOUVEIA NETO;3165;VILA MACENO;(17)32248950;15060010.0;SP;São José do Rio Preto;2016;5
5256;9387;2065703;-23.3957580348716;-45.887648287112206;POSTO DE SAUDE 02 DE SANTA BRANCA;RUA ARTHUR ROSA PORTO FILHO;S/N;JARDIM SAO JOSE;(12)39720009;12380000.0;SP;Santa Branca;2016;5
5269;9226;7781717;-23.356275989493;-46.15998164463039;USF CHACARA GUANABARA;RUA SAO PAULO;S/N;CHACARA GUANABARA;47352681;8744040.0;SP;Mogi das Cruzes;2016;5
5286;9254;2801094;-23.6890125274651;-46.62825107574329;UBS CENTRO;AVN SAO JOSE;472;CENTRO;(11)40924072;9910380.0;SP;Diadema;2016;5
5290;9470;2091151;-21.014420986174898;-48.22950839996199;ESTRATEGIA SAUDE DA FAMILIA SANTA VITORIA PITANGUEIRAS;RUA ARTUR MESQUITA;365;JARDIM SANTA VITORIA;(16)39524712;14750000.0;SP;Pitangueiras;2016;5
5300;9393;2023970;-23.4889411926263;-46.8140101432787;UBS ARMANDO GONCALVES DE FREITAS;RUA PADRE CICERO ROMAO BATISTA;271;PARQUE IMPERIAL;(11) 4199-3163;6462010.0;SP;Barueri;2016;5
5308;9273;2092913;-21.7798391437891;-50.7938438430624;USF 8 DE MARCO DE PARAPUA;RUA CURITIBA;86;CENTRO;(18)3582 3161;17730000.0;SP;Parapuã;2016;5
5309;9591;2032716;-21.7399156093591;-48.1514239311204;CMSC SELMI DEI I DR RUY DE TOLEDO;RUA JOSE FREITAS MADEIRA;49;JARDIM SELMI DEI I;(16)33245533;14806303.0;SP;Araraquara;2016;5
5327;9285;3004759;-22.81775;-50.07421;PSF I DE IBIRAREMA VERA LUCIA FERNANDES DE OLIVEIRA;RUA JOAQUIM BATISTA RIBEIRO;275;CENTRO;(14)33071515;19940000.0;SP;Ibirarema;2016;5
5340;9267;2072459;-21.022457;-47.7653529285234;UBS DR PEDRO SAUD JARDINOPOLIS;RUA MARIO FREGONESI;S/N;VILA REIS;(16)36634310;14680000.0;SP;Jardinópolis;2016;5
5348;9496;3227901;-22.96781;-49.87238;USF JARDIM FLORIDA;RUA BENEDITO INACIO PIRES;70;JARDIM FLORIDA;14 33221188;19911105.0;SP;Ourinhos;2016;5
5350;9469;2040867;-23.013085126876195;-49.8810839653001;UBS JARDIM ITAMARATY;AV MARIA PAULINA MELCHIOR DA SILVA;177;JAD ITAMARATY;14 33026100;19904260.0;SP;Ourinhos;2016;5
5354;9398;2028883;-22.1970535;-46.745514289869604;UBS DR ARMANDO C S MANDADORI V CENTENARIO E S PINHAL SP;ESTRADA DA FEPASA;S/N;VILA CENTERNARIO;(19)6516435;13990000.0;SP;Espírito Santo do Pinhal;2016;5
5355;9275;2046814;-20.8566109993715;-50.2658273722874;UBS III NOVA LUZITANIA;RUA JOSE DA SILVA CARVALHAES;1660;CENTRO;(17)34831213;15340000.0;SP;Nova Luzitânia;2016;5
5356;9410;2747057;-21.8380200862878;-48.492021560667496;CENTRO MUNICIPAL DE SAUDE RUI DE CAMARGO;ALAMEDA GULLA;725;CENTRO;(16)33080314;14813000.0;SP;Gavião Peixoto;2016;5
5357;9377;2053888;-20.2678530475;-50.5503561990427;ESF SETUO SUETUGO JALES;RUA ITAPURA;1642;JD SAO JORGE;(17)36216857;15704198.0;SP;Jales;2016;5
5361;9347;2063425;-22.7408835;-47.3303629263814;PM 05 VILA DAINESE;RUA VICENTE DE CARVALHO;730;VILA DAINESE;(19)34075010;13469130.0;SP;Americana;2016;5
5371;9256;2090481;-20.9818696975702;-48.836395740507605;UNIDADE BASICA DE SAUDE DE EMBAUBA;RUA BALBINO RODRIGUES COELHO;374;CENTRO;(17) 35661211;15425000.0;SP;Embaúba;2016;5
5403;9457;2088967;-21.2578904628747;-49.133026599882605;CS DE MARAPOAMA;PRACA DA INDEPENDENCIA;160;CENTRO;(17)35489000;15845000.0;SP;Marapoama;2016;5
5416;9364;2039133;-20.3434932231897;-49.197571277616994;CS DE ICEM;AV HORACIO BORGES DA SILVEIRA;475;CENTRO;(17)32829020;15460000.0;SP;Icém;2016;5
5420;9368;2091739;-23.431252241134;-46.7874240875231;UBS MORADA DO SOL;RUA ASSIS BRASIL;31;SOL NASCENTE;1139414364;5281120.0;SP;São Paulo;2016;5
5436;9414;3473783;-23.1658101081841;-45.91883897781239;UBS ALTOS DE SANTANA;AVENIDA ALTO DO RIO DOCE;1585;ALTOS DE SANTANA;12 39112167;12214010.0;SP;São José dos Campos;2016;5
5437;9288;6446930;-21.590816974639303;-48.343384265898294;USF JARDIM POPULAR MATAO;RUA PEDRO TROLI;3700;PORTAL TERRA DA SAUD;(16) 3384-9965;15997451.0;SP;Matão;2016;5
5439;9483;2086727;-20.9057164192194;-48.642675876616;POSTO SAUDE DA MULHER;PRACA CORONEL LICAS;S/N;CENTRO;(17)33619507;14730000.0;SP;Monte Azul Paulista;2016;5
5447;9384;2057603;-22.7350366115563;-48.5553002357469;UNIDADE SAUDE DA FAMILIA DA VILA SAO GERALDO;RUA DONATA R GAGLIOTTI;S/N;VIL SAO GERALDO;(14)38420257;18650000.0;SP;São Manuel;2016;5
5463;9503;2075059;-22.7373969554895;-47.3780035972581;UNIDADE BASICA DE SAUDE CIDADE NOVA;RUA SALVADOR;466;CIDADE NOVA;(19)34574856;13454355.0;SP;Santa Bárbara d'Oeste;2016;5
5467;9265;2061597;-20.499157905578002;-47.4017143249498;UBS SANTA TERESINHA FRANCA SP;RUA FREI AGOSTINHO DA PIEDADE;500;STA TERESINHA;(16)37030301;14409261.0;SP;Franca;2016;5
5469;9471;3092402;-21.82029;-48.16109;USF IEDDA;RUA PROFESSOR DOUTOR CELSO EDUARDO MORAES BARBOSA;115;JARDIM IEDDA;16 33225848;14808556.0;SP;Araraquara;2016;5
5488;9274;2789256;-23.598042726516;-46.734745502470595;AMA UBS INTEGRADA VILA SONIA;RUA ABRAO CALIL REZEK;091;VILA SONIA;(11) 37429844;5625050.0;SP;São Paulo;2016;5
5501;9406;2092964;-22.5238354502071;-49.6632716655535;UNIDADE DE SAUDE DA FAMILIA DE UBIRAJARA;RUA LAZARO MACHADO DE OLIVEIRA;413;CENTRO;;17440000.0;SP;Ubirajara;2016;5
5515;9840;2044013;-20.6445550918573;-50.3625726699814;UBS DR JOAO RODRIGUES MOREIRA;AVN PLINIO RIBEIRO DO VAL;1395;CENTRO;(17)33511000;15300000.0;SP;General Salgado;2016;5
5526;9820;2044005;-20.789126157760002;-49.236280918119895;CENTRO DE SAUDE DR RUBENS DE OLIVEIRA BOTTAS;RUA ABRAAO JOSE DE LIMA;659;CENTRO;(17)32679210;15110000.0;SP;Guapiaçu;2016;5
5545;9863;2063867;-22.106145654078304;-50.176028054853;USF ODAIR APARECIDO ROQUE BOTTER;RUA MANOEL FERNANDES;S/N;OLMIRA P DE CARVALHO;(14)34051545;17580000.0;SP;Pompéia;2016;5
5558;9910;3806340;-23.0048529993206;-46.83755785294121;PSF 08 12 PORTO SEGURO DR JOSE CHAVES;RUA MIGUEL FRANCISCO ROSSI;127;PORTO SEGURO;(11) 4594-1556;13255655.0;SP;Itatiba;2016;5
5574;9685;7703732;-21.4115229762305;-48.506011962890604;USF ITALO CURTI;AVENIDA CAPITAO JOSE CARMARGO DE LIMA;305;JD SAO SEBASTIAO;;15900000.0;SP;Taquaritinga;2016;5
5580;9639;2791633;-22.3712539672845;-48.3896684646592;USF VILAS UNIDAS DOIS CORREGOS;RUA QUINZE DE NOVEMBRO;2205;VILA CARVALHO;(14)36524755;17300000.0;SP;Dois Córregos;2016;5
5604;9630;2036932;-20.90965;-51.38603;CENTRO DE SAUDE I DE ANDRADINA;RUA PAES LEME;145;VILA SANCHES;(18)3722-5500;16900119.0;SP;Andradina;2016;5
5612;9911;2750910;-21.38968;-51.57803;ESTRATEGIA SAUDE DA FAMILIA I VANDA CRISTINA OLIVEIRA BOLDRI;RUA MARECHAL DEODORO;178;CENTRO;18 38511997;17930000.0;SP;Tupi Paulista;2016;5
5627;9814;2089769;-22.8147712;-50.792035;UBS DR PRIMO RUY;RUA SAO PAULO;141;CENTRO;(18)33751365;19865000.0;SP;Pedrinhas Paulista;2016;5
5631;9888;2051966;-21.1859884885525;-48.9056375352936;CS DE PINDORAMA ODILON SIQUEIRA;RUA SETE DE SETEMBRO;817;CENTRO;(17)5723550;15830000.0;SP;Pindorama;2016;5
5637;9968;2081830;-24.2753326892846;-47.2328639030443;UNIDADE MISTA DE SAUDE PEDRO DE TOLEDO;AVN CEL RAIMUNDO VASCONCELOS;365;CENTRO;(13)34197010;11790000.0;SP;Pedro de Toledo;2016;5
